time,eiPosition_ft_X,eiPosition_ft_Y,eiPosition_ft_Z,eiVelocity_ft_s_X,eiVelocity_ft_s_Y,eiVelocity_ft_s_Z,feVelocity_ft_s_X,feVelocity_ft_s_Y,feVelocity_ft_s_Z,altitudeMsl_ft,longitude_deg,latitude_deg,localGravity_ft_s2,eulerAngle_deg_Yaw,eulerAngle_deg_Pitch,eulerAngle_deg_Roll,bodyAngularRateWrtEi_deg_s_Roll,bodyAngularRateWrtEi_deg_s_Pitch,bodyAngularRateWrtEi_deg_s_Yaw,speedOfSound_ft_s,airDensity_slug_ft3,ambientPressure_lbf_ft2,ambientTemperature_dgR,aero_bodyForce_lbf_X,aero_bodyForce_lbf_Y,aero_bodyForce_lbf_Z,aero_bodyMoment_ftlbf_L,aero_bodyMoment_ftlbf_M,aero_bodyMoment_ftlbf_N,mach,dynamicPressure_lbf_ft2
0.0,2.09556463255E7,0.0,0.0,0.0,1528.10982905,0.0,0.0,0.0,-0.0,30000.0,0.0,0.0,32.1065359519,0.0,0.0,0.0,0.0,0.0,0.0,994.849493459,8.90685451211E-4,629.673709538,411.838873082,-0.0,0.0,-0.0,0.0,0.0,0.0,0.0,0.0
0.1,2.09556461649E7,152.810982514,0.0,-3.21065062771,1528.10981734,0.0,0.0,2.3331171341E-5,3.19950747505,29999.8400245,2.12636142418E-12,0.0,32.10653644285363,0.0,0.0,-4.1780741535E-4,0.0,0.0,0.0,994.850180536,8.90690687133E-4,629.678280848,411.839441943,-0.0,1.46311328304E-16,-8.95144328028E-5,0.0,0.0,0.0,0.00321606965323,0.00455893262676
0.2,2.09556456833E7,305.621962687,0.0,-6.42128345043,1528.10978222,0.0,0.0,9.33243595866E-5,6.39899714476,29999.3600991,1.70108550726E-11,0.0,32.10653791581453,0.0,0.0,-8.35614843459E-4,0.0,0.0,0.0,994.852241761,8.90706395011E-4,629.691994915,411.84114852,-0.0,4.94921322417E-15,-3.58062053204E-4,0.0,0.0,0.0,0.00643210808282,0.0182359506243
0.3,2.09556448807E7,458.432938178,0.0,-9.63188066227,1528.10972369,0.0,0.0,2.09978591706E-4,9.59845120292,29998.5602263,5.74114373663E-11,0.0,32.10654037078269,0.0,0.0,-0.00125342229708,0.0,0.0,0.0,994.855677114,8.90732575184E-4,629.714852147,411.843992806,-0.0,3.75971391182E-14,-8.05655827052E-4,0.0,0.0,0.0,0.00964808406488,0.0410317143379
0.4,2.0955643757E7,611.243906645,0.0,-12.8424244556,1528.10964175,0.0,0.0,3.73292244402E-4,12.7978518416,29997.4404106,1.36085711493E-10,0.0,32.10654380775811,0.0,0.0,-0.00167122978898,0.0,0.0,0.0,994.860486561,8.90769228214E-4,629.746853226,411.847974785,-0.0,1.5843512724E-13,-0.00143231736366,0.0,0.0,0.0,0.0128639663751,0.072947324321
0.5,2.09556423122E7,764.054865747,0.0,-16.0528970204,1528.10953639,0.0,0.0,5.83263045606E-4,15.9971812503,29996.0006583,2.65790752688E-10,0.0,32.106548226640804,0.0,0.0,-0.00208903733191,0.0,0.0,0.0,994.866670058,8.9081635489E-4,629.787999105,411.853094434,-0.0,4.83457346708E-13,-0.00223807691517,0.0,0.0,0.0,0.0160797237885,0.113984321302
0.6,2.09556405464E7,916.865813143,0.0,-19.2632805428,1528.10940762,0.0,0.0,8.39888072987E-4,19.1964216149,29994.2409774,4.59282928963E-10,0.0,32.10655362743076,0.0,0.0,-0.00250684493863,0.0,0.0,0.0,994.874227543,8.90873956225E-4,629.83829101,411.859351726,-0.0,1.20304022974E-12,-0.00322297337564,0.0,0.0,0.0,0.0192953250791,0.16414468614
0.7,2.09556384595E7,1069.67674649,0.0,-22.4735572049,1528.10925544,0.0,0.0,0.00114316375468,22.3955551172,29992.1613775,7.29317728172E-10,0.0,32.10656001012799,0.0,0.0,-0.00292465262189,0.0,0.0,0.0,994.883158945,8.90942033459E-4,629.897730439,411.866746627,-0.0,2.60047475576E-12,-0.00438705427986,0.0,0.0,0.0,0.02251073902,0.223430839761
0.8,2.09556360517E7,1222.48766345,0.0,-25.6837091836,1528.10907985,0.0,0.0,0.0014930858684,25.5945639337,29989.7618705,1.08864957804E-9,0.0,32.10656737463251,0.0,0.0,-0.00334246039444,0.0,0.0,0.0,994.893464178,8.91020588055E-4,629.966319164,411.875279095,-0.0,5.07072164781E-12,-0.00573037580196,0.0,0.0,0.0,0.0257259343828,0.29184564309
0.9,2.09556333228E7,1375.29856168,0.0,-28.8937186496,1528.10888084,0.0,0.0,0.00188964954371,28.7934302348,29987.0424695,1.55003167419E-9,0.0,32.1065757210443,0.0,0.0,-0.00376026826905,0.0,0.0,0.0,994.905143142,8.91109621702E-4,630.044059228,411.884949085,-0.0,9.13850250566E-12,-0.00725300275369,0.0,0.0,0.0,0.0289408799375,0.369392396963
1.0,2.09556302729E7,1528.10943884,0.0,-32.1035677668,1528.10865842,0.0,0.0,0.00233284925716,31.9921361841,29984.0031898,2.12621579804E-9,0.0,32.10658504916338,0.0,0.0,-0.00417807625846,0.0,0.0,0.0,994.918195725,8.91209136316E-4,630.130952946,411.895756543,-0.0,1.54779706112E-11,-0.00895500858253,0.0,0.0,0.0,0.0321555444524,0.456074842029
1.1,2.09556269021E7,1680.92029258,0.0,-35.3132386913,1528.10841259,0.0,0.0,0.00282267883494,35.1906639373,29980.6440482,2.82995214328E-9,0.0,32.10659535908974,0.0,0.0,-0.00459588437542,0.0,0.0,0.0,994.932621802,8.91319134035E-4,630.227002908,411.90770141,-0.0,2.49308664614E-11,-0.0108364753694,0.0,0.0,0.0,0.0353698966938,0.551897158633
1.2,2.09556232103E7,1833.73112058,0.0,-38.5227135705,1528.10814335,0.0,0.0,0.00335913145321,38.3889956414,29976.9650635,3.67398913462E-9,0.0,32.1066066506234,0.0,0.0,-0.00501369263268,0.0,0.0,0.0,994.948421234,8.91439617225E-4,630.332211974,411.920783621,-0.0,3.85249751417E-11,-0.0128974938261,0.0,0.0,0.0,0.0385839054257,0.656863966697
1.3,2.09556191976E7,1986.54192047,0.0,-41.7319745423,1528.10785069,0.0,0.0,0.00394219963607,41.5871134341,29972.9662562,4.6710732669E-9,0.0,32.10661892376436,0.0,0.0,-0.00543150104299,0.0,0.0,0.0,994.965593868,8.91570588475E-4,630.446583279,411.935003104,-0.0,5.74933351902E-11,-0.015138163293,0.0,0.0,0.0,0.0417975394097,0.770980325575
1.4,2.09556148639E7,2139.35268993,0.0,-44.9410037344,1528.10753462,0.0,0.0,0.00457187525382,44.7849994426,29968.6476486,5.83394889949E-9,0.0,32.10663217841262,0.0,0.0,-0.00584930961909,0.0,0.0,0.0,994.98413954,8.91712050602E-4,630.570120229,411.950359781,-0.0,8.32936685602E-11,-0.0175585917355,0.0,0.0,0.0,0.0450107674045,0.8942517339
1.5,2.09556102094E7,2292.16342662,0.0,-48.149783263,1528.10719514,0.0,0.0,0.00524814952538,47.982635783,29964.0092647,7.17535810543E-9,0.0,32.1066464145682,0.0,0.0,-0.00626711837372,0.0,0.0,0.0,995.004058071,8.91864006644E-4,630.702826503,411.966853568,-0.0,1.17626271768E-10,-0.0201588957409,0.0,0.0,0.0,0.0482235581662,1.02668412942
1.6,2.0955605234E7,2444.97412818,0.0,-51.3582952324,1528.10683224,0.0,0.0,0.00597101301532,51.1800045589,29959.0511303,8.70804048054E-9,0.0,32.106661632131114,0.0,0.0,-0.00668492731963,0.0,0.0,0.0,995.025349269,8.92026459866E-4,630.844706052,411.984484374,-0.0,1.62453905537E-10,-0.0229392005152,0.0,0.0,0.0,0.0514358804475,1.16828388882
1.7,2.09555999377E7,2597.78479228,0.0,-54.5665217338,1528.10644594,0.0,0.0,0.00674045563557,54.3770878615,29953.7732733,1.04447329683E-8,0.0,32.10667783100134,0.0,0.0,-0.00710273646954,0.0,0.0,0.0,995.04801293,8.92199413761E-4,630.995763102,412.003252103,-0.0,2.20019885691E-10,-0.0258996398787,0.0,0.0,0.0,0.0546477029979,1.31905782752
1.8,2.09555943207E7,2750.59541659,0.0,-57.7744448447,1528.10603622,0.0,0.0,0.00755646664324,57.5738677679,29948.1757229,1.23981696888E-8,0.0,32.10669501107892,0.0,0.0,-0.0075205458362,0.0,0.0,0.0,995.072048836,8.92382872042E-4,631.15600215,412.023156652,-0.0,2.92867798634E-10,-0.0290403562625,0.0,0.0,0.0,0.0578589945634,1.47901319946
1.9,2.09555883828E7,2903.40599875,0.0,-60.9820466278,1528.10560308,0.0,0.0,0.00841903463906,60.7703263403,29942.2585104,1.45810817517E-8,0.0,32.10671317226383,0.0,0.0,-0.00793835543234,0.0,0.0,0.0,995.097456754,8.9257683865E-4,631.325427967,412.044197911,-0.0,3.83861183863E-10,-0.0323615007037,0.0,0.0,0.0,0.0610697238859,1.64815769692
2.0,2.09555821243E7,3056.21653642,0.0,-64.1893091305,1528.10514654,0.0,0.0,0.00932814756792,63.9664456258,29936.0216689,1.70061970738E-8,0.0,32.10673231445611,0.0,0.0,-0.00835616527068,0.0,0.0,0.0,995.124236441,8.9278131775E-4,631.504045595,412.066375765,-0.0,4.96202288665E-10,-0.035863232841,0.0,0.0,0.0,0.0642798597035,1.82649945021
2.1,2.0955575545E7,3209.02702727,0.0,-67.3962143833,1528.10466658,0.0,0.0,0.0102837927192,67.1622076548,29929.4652332,1.96862402265E-8,0.0,32.10675243765575,0.0,0.0,-0.00877397536395,0.0,0.0,0.0,995.152387639,8.92996313733E-4,631.691860351,412.089690093,-0.0,6.33450700888E-10,-0.0395457209096,0.0,0.0,0.0,0.06748937075,2.01404702748
2.2,2.0955568645E7,3361.83746896,0.0,-70.6027444001,1528.1041632,0.0,0.0,0.011285956723,70.3575944405,29922.5892399,2.26339322198E-8,0.0,32.106773541562774,0.0,0.0,-0.00919178572486,0.0,0.0,0.0,995.181910076,8.93221831214E-4,631.888877825,412.114140765,-0.0,7.99544528701E-10,-0.0434091417361,0.0,0.0,0.0,0.0706982257548,2.21080943446
2.3,2.09555614244E7,3514.64785913,0.0,-73.808881176,1528.10363642,0.0,0.0,0.012334625552,73.5525879781,29915.3937274,2.58619903479E-8,0.0,32.10679562627718,0.0,0.0,-0.00960959636614,0.0,0.0,0.0,995.212803469,8.93457875032E-4,632.095103879,412.139727648,-0.0,9.98818382021E-10,-0.0474536807332,0.0,0.0,0.0,0.0739063934426,2.41679611411
2.4,2.09555538833E7,3667.45819546,0.0,-77.0146066877,1528.10308622,0.0,0.0,0.0134297845187,76.7471702435,29907.878736,2.9383128014E-8,0.0,32.106818691499,0.0,0.0,-0.0100274073005,0.0,0.0,0.0,995.24506752,8.93704450252E-4,632.310544648,412.166450601,-0.0,1.23602403643E-9,-0.0516795318935,0.0,0.0,0.0,0.0771138425331,2.63201694641
2.5,2.09555460215E7,3820.2684756,0.0,-80.2199028918,1528.10251261,0.0,0.0,0.0145714182754,79.9413231932,29900.0443077,3.32100545293E-8,0.0,32.10684273722823,0.0,0.0,-0.0104452185407,0.0,0.0,0.0,995.278701917,8.93961562165E-4,632.535206542,412.194309477,-0.0,1.51634973565E-9,-0.0560868977836,0.0,0.0,0.0,0.080320541741,2.85648224799
2.6,2.09555378393E7,3973.0786972,0.0,-83.424751724,1528.10191558,0.0,0.0,0.0157595108138,83.1350287627,29891.8904863,3.73554749529E-8,0.0,32.10686776316488,0.0,0.0,-0.0108630300993,0.0,0.0,0.0,995.313706338,8.94229216284E-4,632.769096243,412.223304123,-0.0,1.84543980004E-9,-0.0606759895381,0.0,0.0,0.0,0.0835264597755,3.09020277183
2.7,2.09555293366E7,4125.88885793,0.0,-86.6291350989,1528.10129514,0.0,0.0,0.0169940454616,86.3282688659,29883.4173175,4.18320899101E-8,0.0,32.10689376940897,0.0,0.0,-0.0112808419891,0.0,0.0,0.0,995.350080444,8.94507418348E-4,633.012220707,412.253434379,-0.0,2.22941584139E-9,-0.0654470268524,0.0,0.0,0.0,0.0867315653404,3.33318970695
2.8,2.09555205135E7,4278.69895545,0.0,-89.8330349082,1528.10065129,0.0,0.0,0.0182750048855,89.5210253945,29874.6248486,4.66525954049E-8,0.0,32.10692075566052,0.0,0.0,-0.0116986542229,0.0,0.0,0.0,995.387823885,8.94796174321E-4,633.264587163,412.284700078,-0.0,2.67489427117E-9,-0.0704002379759,0.0,0.0,0.0,0.0899358271336,3.58545467799
2.9,2.095551137E7,4431.50898741,0.0,-93.0364330208,1528.09998403,0.0,0.0,0.0196023710844,92.7132802169,29865.5131291,5.18296826343E-8,0.0,32.106948721719526,0.0,0.0,-0.0121164668132,0.0,0.0,0.0,995.426936298,8.9509549039E-4,633.526203114,412.31710105,-0.0,3.18901074118E-9,-0.0755358597051,0.0,0.0,0.0,0.0931392138472,3.84700974489
3.0,2.09555019062E7,4584.31895148,0.0,-96.2393112811,1528.09929335,0.0,0.0,0.0209761253943,95.9050151773,29856.0822099,5.73760378219E-8,0.0,32.10697766758602,0.0,0.0,-0.0125342797728,0.0,0.0,0.0,995.467417306,8.95405372969E-4,633.797076335,412.350637115,-0.0,3.7794356874E-9,-0.0808541373755,0.0,0.0,0.0,0.0963416941669,4.11786740248
3.1,2.09554921222E7,4737.1288453,0.0,-99.4416515088,1528.09857925,0.0,0.0,0.0223962484821,99.0962120949,29846.332144,6.33043420288E-8,0.0,32.10700759306001,0.0,0.0,-0.0129520931143,0.0,0.0,0.0,995.509266517,8.95725828695E-4,634.077214878,412.385308087,-0.0,4.45439884679E-9,-0.0863553248541,0.0,0.0,0.0,0.099543236772,4.39804058011
3.2,2.09554820179E7,4889.93866655,0.0,-102.643435498,1528.09784175,0.0,0.0,0.0238627203474,102.286852763,29836.262986,6.96272709749E-8,0.0,32.10703849794152,0.0,0.0,-0.0133699068504,0.0,0.0,0.0,995.55248353,8.96056864429E-4,634.366627066,412.421113777,-0.0,5.22270761637E-9,-0.0920396845311,0.0,0.0,0.0,0.102743810335,4.6875426412
3.3,2.09554715935E7,5042.74841287,0.0,-105.844645014,1528.09708083,0.0,0.0,0.0253755203214,105.476918949,29825.8747926,7.63574948513E-8,0.0,32.10707038203056,0.0,0.0,-0.0137877209939,0.0,0.0,0.0,995.597067926,8.96398487257E-4,634.665321498,412.458053985,-0.0,6.09376738707E-9,-0.0979074873112,0.0,0.0,0.0,0.105943383522,4.98638738281
3.4,2.0955460849E7,5195.55808193,0.0,-109.045261799,1528.09629649,0.0,0.0,0.0269346270632,108.666392391,29815.167622,8.35076781596E-8,0.0,32.10710324522714,0.0,0.0,-0.0142055355573,0.0,0.0,0.0,995.643019276,8.9675070449E-4,634.973307044,412.496128508,-0.0,7.07760435279E-9,-0.103959012605,0.0,0.0,0.0,0.109141924992,5.29458903522
3.5,2.09554497845E7,5348.36767139,0.0,-112.245267563,1528.09548874,0.0,0.0,0.0285400185601,111.8552548,29804.1415345,9.10904794944E-8,0.0,32.10713708733128,0.0,0.0,-0.0146233505533,0.0,0.0,0.0,995.690337136,8.97113523661E-4,635.290592852,412.535337135,-0.0,8.18488569701E-9,-0.11019454832,0.0,0.0,0.0,0.112339403396,5.61216226143
3.6,2.09554384E7,5501.1771789,0.0,-115.444643987,1528.09465758,0.0,0.0,0.0301916721253,115.043487859,29792.796592,9.91185513909E-8,0.0,32.107171908143016,0.0,0.0,-0.0150411659946,0.0,0.0,0.0,995.73902105,8.9748695253E-4,635.617188341,412.57567965,-0.0,9.42694113689E-9,-0.116614390851,0.0,0.0,0.0,0.115535787378,5.93912215669
3.7,2.09554266956E7,5653.98660212,0.0,-118.643372724,1528.093803,0.0,0.0,0.0318895643973,118.231073218,29781.1328585,1.07604540122E-7,0.0,32.107207707462344,0.0,0.0,-0.0154589818938,0.0,0.0,0.0,995.789070548,8.9787099908E-4,635.953103206,412.617155828,-0.0,1.0815783731E-8,-0.12321884507,0.0,0.0,0.0,0.118731045575,6.275484248
3.8,2.09554146713E7,5806.79593872,0.0,-121.841435394,1528.09292501,0.0,0.0,0.0336336713384,121.417992498,29769.1503996,1.16561085516E-7,0.0,32.1072444850893,0.0,0.0,-0.0158767982636,0.0,0.0,0.0,995.840485147,8.98265671516E-4,636.298347416,412.659765441,-0.0,1.23641314774E-8,-0.130008224316,0.0,0.0,0.0,0.121925146615,6.6212644936
3.9,2.09554023273E7,5959.60518634,0.0,-125.038813587,1528.09202361,0.0,0.0,0.0354239682327,124.604227288,29756.8492828,1.26000820805E-7,0.0,32.10728224092389,0.0,0.0,-0.0162946151166,0.0,0.0,0.0,995.893264351,8.9867097827E-4,636.652931214,412.703508251,-0.0,1.40854293427E-8,-0.136982850385,0.0,0.0,0.0,0.125118059117,6.97647928241
4.0,2.09553896636E7,6112.41434266,0.0,-128.235488859,1528.09109879,0.0,0.0,0.0372604296851,127.789759144,29744.2295775,1.35936372398E-7,0.0,32.107320974566136,0.0,0.0,-0.0167124324653,0.0,0.0,0.0,995.947407648,8.99086927996E-4,637.016865119,412.748384017,-0.0,1.59938707452E-8,-0.144143053518,0.0,0.0,0.0,0.128309751694,7.34114543351
4.1,2.09553766802E7,6265.22340532,0.0,-131.431442733,1528.09015055,0.0,0.0,0.0391430296185,130.974569588,29731.291355,1.46380359698E-7,0.0,32.107360685916056,0.0,0.0,-0.0171302503225,0.0,0.0,0.0,996.002914518,8.99513529573E-4,637.390159923,412.794392489,-0.0,1.81044207276E-8,-0.151489172392,0.0,0.0,0.0,0.13150019295,7.71528019556
4.2,2.09553633773E7,6418.03237199,0.0,-134.626656698,1528.0891789,0.0,0.0,0.0410717412728,134.15864011,29718.0346883,1.57345394953E-7,0.0,32.107401374773694,0.0,0.0,-0.0175480687008,0.0,0.0,0.0,996.059784423,8.99950792103E-4,637.772826694,412.841533411,-0.0,2.04328375925E-8,-0.159021554107,0.0,0.0,0.0,0.134689351478,8.09890124619
4.3,2.09553497549E7,6570.84124032,0.0,-137.821112208,1528.08818384,0.0,0.0,0.0430465372039,137.341952162,29704.4596523,1.68844083038E-7,0.0,32.10744304093904,0.0,0.0,-0.0179658876127,0.0,0.0,0.0,996.118016813,9.00398724911E-4,638.164876776,412.889806521,-0.0,2.29956951706E-8,-0.166740554174,0.0,0.0,0.0,0.137877195865,8.49202669141
4.4,2.09553358131E7,6723.65000798,0.0,-141.01479068,1528.08716536,0.0,0.0,0.0450673892814,140.524487162,29690.5663238,1.80889021272E-7,0.0,32.10748568401213,0.0,0.0,-0.0183837070709,0.0,0.0,0.0,996.177611126,9.00857337546E-4,638.566321785,412.939211552,-0.0,2.58104049686E-8,-0.174646536502,0.0,0.0,0.0,0.141063694686,8.894675065
4.5,2.0955321552E7,6876.45867261,0.0,-144.207673494,1528.08612347,0.0,0.0,0.0471342686861,143.70622649,29676.3547814,1.93492799266E-7,0.0,32.10752930399299,0.0,0.0,-0.0188015270879,0.0,0.0,0.0,996.238566786,9.01326639783E-4,638.977173614,412.989748227,-0.0,2.88952410473E-8,-0.182739873386,0.0,0.0,0.0,0.14424881651,9.30686532781
4.6,2.09553069716E7,7029.26723189,0.0,-147.399741995,1528.08505816,0.0,0.0,0.0492471459096,146.887151489,29661.8251056,2.06667998673E-7,0.0,32.107573900381645,0.0,0.0,-0.0192193476763,0.0,0.0,0.0,996.300883202,9.01806641616E-4,639.397444433,413.041416265,-0.0,3.22693606531E-8,-0.191020945497,0.0,0.0,0.0,0.147432529893,9.72861686718
4.7,2.09552920721E7,7182.07568346,0.0,-150.590977486,1528.08396944,0.0,0.0,0.0514059907532,150.067243463,29646.9773788,2.20427193071E-7,0.0,32.10761947317812,0.0,0.0,-0.0196371688487,0.0,0.0,0.0,996.364559773,9.02297353265E-4,639.827146684,413.094215378,-0.0,3.59528268267E-8,-0.199490141863,0.0,0.0,0.0,0.150614803383,10.1599494962
4.8,2.09552768534E7,7334.884025,0.0,-153.781361232,1528.0828573,0.0,0.0,0.0536107723215,153.246483677,29631.8116853,2.34782947708E-7,0.0,32.107666021982425,0.0,0.0,-0.0200549906177,0.0,0.0,0.0,996.429595881,9.02798785172E-4,640.266293088,413.14814527,-0.0,3.99666376361E-8,-0.208147859858,0.0,0.0,0.0,0.153795605518,10.6008834529
4.9,2.09552613158E7,7487.69225414,0.0,-156.97087446,1528.08172174,0.0,0.0,0.0558614590245,156.424853355,29616.3281111,2.49747819342E-7,0.0,32.10771354659458,0.0,0.0,-0.0204728129958,0.0,0.0,0.0,996.495990898,9.03310948004E-4,640.714896639,413.203205642,-0.0,4.43327447126E-8,-0.216994505189,0.0,0.0,0.0,0.156974904825,11.0514393999
5.0,2.09552454593E7,7640.50036856,0.0,-160.159498352,1528.08056277,0.0,0.0,0.058158018577,159.602333682,29600.5267443,2.65334356087E-7,0.0,32.107762046814635,0.0,0.0,-0.0208906359956,0.0,0.0,0.0,996.56374418,9.03833852648E-4,641.172970608,413.259396185,-0.0,4.90740751677E-8,-0.22603049188,0.0,0.0,0.0,0.160152669822,11.5116384231
5.1,2.0955229284E7,7793.30836592,0.0,-163.347214051,1528.07938039,0.0,0.0,0.0605004179905,162.778905799,29584.4076747,2.81555097157E-7,0.0,32.107811522142605,0.0,0.0,-0.0213084596295,0.0,0.0,0.0,996.632855072,9.04367510217E-4,641.640528543,413.316716584,-0.0,5.42145643474E-8,-0.235256242256,0.0,0.0,0.0,0.163328869016,11.9815020314
5.2,2.09552127899E7,7946.11624386,0.0,-166.534002656,1528.07817459,0.0,0.0,0.0628886235786,165.954550806,29567.970994,2.98422572736E-7,0.0,32.10786197257851,0.0,0.0,-0.0217262839102,0.0,0.0,0.0,996.703322904,9.04911932044E-4,642.117584266,413.375166518,-0.0,5.97791697795E-8,-0.244672186929,0.0,0.0,0.0,0.166503470901,12.4610521558
5.3,2.09551959772E7,8098.92400005,0.0,-169.719845224,1528.07694537,0.0,0.0,0.0653226009488,169.129249758,29551.216796,3.15949303737E-7,0.0,32.10791339762238,0.0,0.0,-0.0221441088502,0.0,0.0,0.0,996.775146992,9.05467129687E-4,642.604151877,413.43474566,-0.0,6.57939042208E-8,-0.254278764782,0.0,0.0,0.0,0.169676443963,12.9503111483
5.4,2.0955178846E7,8251.73163216,0.0,-172.904722767,1528.07569274,0.0,0.0,0.0678023150028,172.302983666,29534.1451762,3.34147801623E-7,0.0,32.107965797174245,0.0,0.0,-0.0225619344619,0.0,0.0,0.0,996.848326642,9.06033114925E-4,643.100245752,413.495453675,-0.0,7.22858574362E-8,-0.264076422953,0.0,0.0,0.0,0.172847756676,13.4493017815
5.5,2.09551613963E7,8404.53913782,0.0,-176.088616249,1528.07441669,0.0,0.0,0.0703277299353,175.475733497,29516.7562321,3.53030568275E-7,0.0,32.10801917073414,0.0,0.0,-0.0229797607579,0.0,0.0,0.0,996.922861143,9.0660989976E-4,643.605880542,413.557290223,-0.0,7.92832199615E-8,-0.274065616816,0.0,0.0,0.0,0.176017377502,13.9580472473
5.6,2.09551436283E7,8557.34651471,0.0,-179.271506593,1528.07311723,0.0,0.0,0.0728988092304,178.647480171,29499.050063,3.72610095695E-7,0.0,32.10807351820207,0.0,0.0,-0.0233975877506,0.0,0.0,0.0,996.998749772,9.07197496415E-4,644.121071177,413.620254955,-0.0,8.68153102144E-8,-0.284246809968,0.0,0.0,0.0,0.179185274892,14.4765711566
5.7,2.0955125542E7,8710.15376049,0.0,-182.453374672,1528.07179434,0.0,0.0,0.0755155156599,181.818204561,29481.0267701,3.92898865904E-7,0.0,32.108128839178086,0.0,0.0,-0.0238154154526,0.0,0.0,0.0,997.075991793,9.07795917338E-4,644.645832863,413.684347517,-0.0,9.4912599854E-8,-0.294620474206,0.0,0.0,0.0,0.182351417284,15.0048975379
5.8,2.09551071376E7,8862.9608728,0.0,-185.634201312,1528.07044805,0.0,0.0,0.0781778112799,184.987887494,29462.6864568,4.13909350669E-7,0.0,32.1081851333622,0.0,0.0,-0.0242332438763,0.0,0.0,0.0,997.154586457,9.08405175197E-4,645.180181082,413.749567548,-0.0,1.03606740862E-7,-0.305187089513,0.0,0.0,0.0,0.185515773106,15.5430508364
5.9,2.09550884152E7,9015.76784932,0.0,-188.813967291,1528.06907833,0.0,0.0,0.0808856574308,188.156509746,29444.029228,4.35654011387E-7,0.0,32.10824240045446,0.0,0.0,-0.0246510730342,0.0,0.0,0.0,997.234533,9.09025282881E-4,645.724131593,413.815914681,-0.0,1.12930588811E-7,-0.31594714404,0.0,0.0,0.0,0.188678310773,16.0910559135
6.0,2.09550693749E7,9168.57468769,0.0,-191.992653337,1528.06768521,0.0,0.0,0.083639014733,191.324052045,29425.0551908,4.58145298841E-7,0.0,32.10830064015488,0.0,0.0,-0.0250689029387,0.0,0.0,0.0,997.315830646,9.09656253503E-4,646.277700435,413.883388539,-0.0,1.22918231525E-7,-0.326901134082,0.0,0.0,0.0,0.191838998688,16.6489380453
6.1,2.09550500167E7,9321.38138558,0.0,-195.170240129,1528.06626866,0.0,0.0,0.0864378430846,194.49049507,29405.7644542,4.8139565301E-7,0.0,32.1083598520635,0.0,0.0,-0.0254867336023,0.0,0.0,0.0,997.398478606,9.10298100397E-4,646.840903922,413.951988744,-0.0,1.33605016672E-7,-0.338049564065,0.0,0.0,0.0,0.194997805241,17.2167229219
6.2,2.09550303409E7,9474.18794064,0.0,-198.346708293,1528.0648287,0.0,0.0,0.0892821016594,197.655819449,29386.1571291,5.05417502874E-7,0.0,32.10842003588035,0.0,0.0,-0.0259045650374,0.0,0.0,0.0,997.482476075,9.10950837117E-4,647.413758645,414.021714905,-0.0,1.4502757771E-7,-0.349392946521,0.0,0.0,0.0,0.198154698808,17.7944366465
6.3,2.09550103474E7,9626.99435053,0.0,-201.522038407,1528.06336532,0.0,0.0,0.0921717489055,200.820005755,29366.2333283,5.30223266227E-7,0.0,32.108481191305465,0.0,0.0,-0.0263223972564,0.0,0.0,0.0,997.567822238,9.11614477441E-4,647.996281474,414.092566629,-0.0,1.5722385918E-7,-0.36093180207,0.0,0.0,0.0,0.201309647756,18.3821057339
6.4,2.09549900365E7,9779.80061292,0.0,-204.696210992,1528.06187852,0.0,0.0,0.0951067425412,203.983034513,29345.9931665,5.55825349503E-7,0.0,32.10854331803886,0.0,0.0,-0.0267402302717,0.0,0.0,0.0,997.654516264,9.12289035367E-4,648.588489557,414.164543513,-0.0,1.70233147487E-7,-0.372666659397,0.0,0.0,0.0,0.204462620436,18.9797571099
6.5,2.09549694082E7,9932.60672546,0.0,-207.86920652,1528.06036831,0.0,0.0,0.0980870395537,207.144886192,29325.4367606,5.82236147503E-7,0.0,32.10860641558059,0.0,0.0,-0.0271580640957,0.0,0.0,0.0,997.742557311,9.12974525112E-4,649.19040032,414.237645149,-0.0,1.84096095962E-7,-0.384598055233,0.0,0.0,0.0,0.207613585185,19.5874181101
6.6,2.09549484627E7,10085.4126858,0.0,-211.041005406,1528.05883468,0.0,0.0,0.101112596193,210.305541208,29304.5642292,6.09468043238E-7,0.0,32.10867048363068,0.0,0.0,-0.0275758987408,0.0,0.0,0.0,997.83194452,9.13670961117E-4,649.802031467,414.311871122,-0.0,1.98854760669E-7,-0.396726534333,0.0,0.0,0.0,0.21076251033,20.2051164783
6.7,2.09549272E7,10238.2184916,0.0,-214.211588011,1528.05727763,0.0,0.0,0.104183367975,213.46497992,29283.3756929,6.37533407781E-7,0.0,32.108735521889166,0.0,0.0,-0.0279937342194,0.0,0.0,0.0,997.922677023,9.14378358043E-4,650.423400979,414.387221009,-0.0,2.14552616762E-7,-0.40905264945,0.0,0.0,0.0,0.213909364181,20.8328803664
6.8,2.09549056204E7,10391.0241405,0.0,-217.38093464,1528.05569716,0.0,0.0,0.107299309675,216.623182635,29261.8712744,6.66444599919E-7,0.0,32.108801529956075,0.0,0.0,-0.0284115705438,0.0,0.0,0.0,998.014753935,9.15096730769E-4,651.054527117,414.46369438,-0.0,2.31234598311E-7,-0.421576961316,0.0,0.0,0.0,0.217054115037,21.4707383319
6.9,2.09548837239E7,10543.8296303,0.0,-220.549025542,1528.05409328,0.0,0.0,0.110460375326,219.780129601,29240.0510982,6.96213966173E-7,0.0,32.108868507431445,0.0,0.0,-0.0288294077264,0.0,0.0,0.0,998.10817436,9.15826094398E-4,651.69542842,414.541290801,-0.0,2.48947118833E-7,-0.434300038616,0.0,0.0,0.0,0.220196731182,22.1187193378
7.0,2.09548615106E7,10696.6349584,0.0,-223.715840908,1528.05246598,0.0,0.0,0.113666518215,222.935801009,29217.915291,7.26853840376E-7,0.0,32.108936454015314,0.0,0.0,-0.0292472457795,0.0,0.0,0.0,998.202937386,9.16566464252E-4,652.346123707,414.620009828,-0.0,2.67738109106E-7,-0.447222457965,0.0,0.0,0.0,0.223337180884,22.776852751
7.1,2.09548389808E7,10849.4401227,0.0,-226.881360872,1528.05081527,0.0,0.0,0.116917690881,226.090176991,29195.4639812,7.58376543602E-7,0.0,32.109005369207715,0.0,0.0,-0.0296650847155,0.0,0.0,0.0,998.29904209,9.17317855872E-4,653.006632073,414.69985101,-0.0,2.87657042201E-7,-0.460344803881,0.0,0.0,0.0,0.2264754324,23.4451683406
7.2,2.09548161344E7,11002.2451207,0.0,-230.045565509,1528.04914113,0.0,0.0,0.120213845113,229.243237622,29172.6972994,7.90794383899E-7,0.0,32.109075252708685,0.0,0.0,-0.0300829245465,0.0,0.0,0.0,998.396487534,9.18080285019E-4,653.676972896,414.780813892,-0.0,3.08754963552E-7,-0.473667668765,0.0,0.0,0.0,0.229611453971,24.1236962774
7.3,2.09547929717E7,11155.0499501,0.0,-233.208434832,1528.04744358,0.0,0.0,0.123554931948,232.394962917,29149.6153782,8.2411965615E-7,0.0,32.10914610401825,0.0,0.0,-0.030500765285,0.0,0.0,0.0,998.495272767,9.18853767676E-4,654.35716583,414.862898008,-0.0,3.31084522315E-7,-0.487191652869,0.0,0.0,0.0,0.232745213823,24.8124671319
7.4,2.09547694928E7,11307.8546086,0.0,-236.369948797,1528.04572261,0.0,0.0,0.126940901663,235.545332829,29126.218352,8.58364641799E-7,0.0,32.10921792283647,0.0,0.0,-0.0309186069432,0.0,0.0,0.0,998.595396826,9.19638320042E-4,655.04723081,414.946102888,-0.0,3.54700005078E-7,-0.500917364274,0.0,0.0,0.0,0.235876680168,25.5115118735
7.5,2.09547456978E7,11460.6590939,0.0,-239.530087296,1528.04397822,0.0,0.0,0.130371703778,238.694327252,29102.5063575,8.9354160869E-7,0.0,32.109290708763375,0.0,0.0,-0.0313364495334,0.0,0.0,0.0,998.696858732,9.20433958538E-4,655.747188051,415.030428054,-0.0,3.79657359364E-7,-0.514845418859,0.0,0.0,0.0,0.239005821204,26.2208618687
7.6,2.09547215868E7,11613.4634035,0.0,-242.688830161,1528.04221041,0.0,0.0,0.133847287051,241.841926015,29078.4795331,9.29662810796E-7,0.0,32.10936446129899,0.0,0.0,-0.0317542930678,0.0,0.0,0.0,998.799657494,9.21240699803E-4,656.457058046,415.115873021,-0.0,4.06014235727E-7,-0.528976440278,0.0,0.0,0.0,0.242132605112,26.9405488798
7.7,2.095469716E7,11766.2675352,0.0,-245.84615716,1528.04041919,0.0,0.0,0.137367599472,244.988108888,29054.1380195,9.66740488148E-7,0.0,32.109439180043374,0.0,0.0,-0.0321721375587,0.0,0.0,0.0,998.903792107,9.22058560696E-4,657.176861569,415.202437296,-0.0,4.33830013954E-7,-0.543311059928,0.0,0.0,0.0,0.245257000059,27.6706050637
7.8,2.09546724176E7,11919.0714866,0.0,-249.002047997,1528.03860455,0.0,0.0,0.140932588265,248.132855574,29029.4819592,1.00478686645E-6,0.0,32.10951486459655,0.0,0.0,-0.0325899830183,0.0,0.0,0.0,999.009261552,9.22887558293E-4,657.906619675,415.29012038,-0.0,4.63165832203E-7,-0.557849916924,0.0,0.0,0.0,0.248378974196,28.4110629702
7.9,2.09546473597E7,12071.8752553,0.0,-252.156482313,1528.03676649,0.0,0.0,0.144542199884,251.276145714,29004.5114969,1.04381415703E-6,0.0,32.10959151455855,0.0,0.0,-0.0330078294589,0.0,0.0,0.0,999.116064799,9.2372770989E-4,658.646353697,415.378921768,-0.0,4.9408462401E-7,-0.572593658062,0.0,0.0,0.0,0.25149849566,29.1619555404
8.0,2.09546219864E7,12224.6788391,0.0,-255.309439683,1528.03490501,0.0,0.0,0.148196380005,254.417958882,28979.2267793,1.08383455649E-6,0.0,32.10966912942944,0.0,0.0,-0.0334256768925,0.0,0.0,0.0,999.224200801,9.24579033E-4,659.39608525,415.468840944,-0.0,5.26651155524E-7,-0.5875429378,0.0,0.0,0.0,0.25461553257,29.9233161055
8.1,2.09545962978E7,12377.4822355,0.0,-258.460899617,1528.03302011,0.0,0.0,0.151895073528,257.558274588,28953.627955,1.12486024658E-6,0.0,32.10974770870925,0.0,0.0,-0.0338435253314,0.0,0.0,0.0,999.333668501,9.25441545355E-4,660.155836229,415.559877389,-0.0,5.60932050662E-7,-0.602698418216,0.0,0.0,0.0,0.257730053031,30.6951783849
8.2,2.09545702942E7,12530.2854423,0.0,-261.610841557,1528.0311118,0.0,0.0,0.15563822457,260.697072275,28927.715175,1.16690339398E-6,0.0,32.109827252098015,0.0,0.0,-0.0342613747878,0.0,0.0,0.0,999.444466825,9.26315264905E-4,660.92562881,415.652030574,-0.0,5.9699583269E-7,-0.618060768985,0.0,0.0,0.0,0.260842025132,31.4775764848
8.3,2.09545439757E7,12683.0884571,0.0,-264.759244879,1528.02918007,0.0,0.0,0.159425776468,263.834331316,28901.4885919,1.20997615007E-6,0.0,32.10990775899578,0.0,0.0,-0.0346792252737,0.0,0.0,0.0,999.556594687,9.27200209816E-4,661.705485449,415.745299965,-0.0,6.3491294934E-7,-0.633630667341,0.0,0.0,0.0,0.263951416944,32.2705448966
8.4,2.09545173424E7,12835.8912775,0.0,-267.90608889,1528.02722492,0.0,0.0,0.16325767177,266.97003102,28874.9483607,1.25409065073E-6,0.0,32.109989229102595,0.0,0.0,-0.0350970768015,0.0,0.0,0.0,999.670050989,9.28096398474E-4,662.495428883,415.839685018,-0.0,6.7475581473E-7,-0.64940879805,0.0,0.0,0.0,0.267058196525,33.074118495
8.5,2.09544903946E7,12988.6939013,0.0,-271.051352829,1528.02524635,0.0,0.0,0.167133852232,270.104150623,28848.0946383,1.2992590161E-6,0.0,32.11007166171849,0.0,0.0,-0.0355149293831,0.0,0.0,0.0,999.784834617,9.2900384948E-4,663.295482133,415.935185184,-0.0,7.16598845554E-7,-0.665395853369,0.0,0.0,0.0,0.270162331914,33.8883325365
8.6,2.09544631322E7,13141.496326,0.0,-274.195015863,1528.02324436,0.0,0.0,0.171054258818,273.236669296,28820.9275839,1.34549335035E-6,0.0,32.11015505654351,0.0,0.0,-0.0359327830306,0.0,0.0,0.0,999.900944445,9.29922581652E-4,664.105668497,416.031799907,-0.0,7.60518489235E-7,-0.681592533021,0.0,0.0,0.0,0.273263791135,34.7132226575
8.7,2.09544355556E7,13294.2985494,0.0,-277.337057091,1528.02121895,0.0,0.0,0.175018831695,276.367566135,28793.4473585,1.39280574158E-6,0.0,32.110239413077714,0.0,0.0,-0.0363506377562,0.0,0.0,0.0,1000.01837933,9.30852614026E-4,664.926011557,416.12952862,-0.0,8.06593266284E-7,-0.69799954415,0.0,0.0,0.0,0.276362542194,35.5488248728
8.8,2.09544076649E7,13447.100569,0.0,-280.477455541,1528.01917013,0.0,0.0,0.179027510228,279.496820167,28765.6541255,1.44120826143E-6,0.0,32.110324730721125,0.0,0.0,-0.036768493572,0.0,0.0,0.0,1000.13713813,9.31793965854E-4,665.756535176,416.228370754,-0.0,8.54903804276E-7,-0.714617601295,0.0,0.0,0.0,0.279458553081,36.3951755733
8.9,2.09543794602E7,13599.9023826,0.0,-283.616190168,1528.01709788,0.0,0.0,0.18308023298,282.624410348,28737.54805,1.49071296497E-6,0.0,32.110411009073815,0.0,0.0,-0.0371863504899,0.0,0.0,0.0,1000.25721966,9.32746656602E-4,666.597263498,416.328325729,-0.0,9.05532875588E-7,-0.731447426346,0.0,0.0,0.0,0.282551791771,37.2523115248
9.0,2.09543509417E7,13752.7039878,0.0,-286.753239854,1528.01500222,0.0,0.0,0.187176937705,285.75031556,28709.1292996,1.54133189049E-6,0.0,32.11049824763579,0.0,0.0,-0.0376042085221,0.0,0.0,0.0,1000.37862275,9.33710705954E-4,667.448220952,416.429392958,-0.0,9.58565433856E-7,-0.748489748512,0.0,0.0,0.0,0.285642226219,38.1202698654
9.1,2.09543221096E7,13905.5053823,0.0,-289.888583409,1528.01288314,0.0,0.0,0.191317561347,288.874514612,28680.3980437,1.59307705922E-6,0.0,32.11058644590713,0.0,0.0,-0.0380220676804,0.0,0.0,0.0,1000.5013462,9.34686133811E-4,668.309432245,416.531571848,-0.0,1.01408864959E-6,-0.765745304279,0.0,0.0,0.0,0.288729824364,38.9990881042
9.2,2.0954292964E7,14058.3065637,0.0,-293.022199568,1528.01074064,0.0,0.0,0.195502040036,291.996986238,28651.3544542,1.64596047513E-6,0.0,32.110675603287866,0.0,0.0,-0.0384399279771,0.0,0.0,0.0,1000.62538881,9.35672960285E-4,669.180922369,416.634861796,-0.0,1.07219195404E-6,-0.783214837377,0.0,0.0,0.0,0.291814554128,39.8888041189
9.3,2.09542635052E7,14211.1075296,0.0,-296.154066991,1528.00857472,0.0,0.0,0.199730309084,295.1177091,28621.9987048,1.69999412473E-6,0.0,32.11076571927804,0.0,0.0,-0.038857789424,0.0,0.0,0.0,1000.75074936,9.36671205706E-4,670.062716597,416.739262195,-0.0,1.13296707339E-6,-0.800899098735,0.0,0.0,0.0,0.294896383417,40.7894561541
9.4,2.09542337333E7,14363.9082778,0.0,-299.284164264,1528.00638539,0.0,0.0,0.204002302982,298.236661782,28592.3309714,1.75518997683E-6,0.0,32.110856793477716,0.0,0.0,-0.039275652033,0.0,0.0,0.0,1000.8774266,9.37680890619E-4,670.954840485,416.844772427,-0.0,1.19650806562E-6,-0.818798846441,0.0,0.0,0.0,0.297975280116,41.701082819
9.5,2.09542036484E7,14516.7088059,0.0,-302.412469895,1528.00417263,0.0,0.0,0.208317955396,301.353822793,28562.3514321,1.81155998231E-6,0.0,32.11094882518693,0.0,0.0,-0.0396935158163,0.0,0.0,0.0,1001.0054193,9.38702035782E-4,671.857319871,416.95139187,-0.0,1.26291136333E-6,-0.836914845708,0.0,0.0,0.0,0.301051212097,42.6237230853
9.6,2.09541732508E7,14669.5091116,0.0,-305.538962316,1528.00193646,0.0,0.0,0.212677199161,304.469170563,28532.0602673,1.86911607391E-6,0.0,32.111041813905736,0.0,0.0,-0.0401113807856,0.0,0.0,0.0,1001.13472618,9.39734662168E-4,672.770180876,417.059119891,-0.0,1.33227581923E-6,-0.855247868822,0.0,0.0,0.0,0.304124147212,43.5574162854
9.7,2.09541425407E7,14822.3091925,0.0,-308.663619882,1527.99967687,0.0,0.0,0.217079966286,307.582683447,28501.4576592,1.92787016597E-6,0.0,32.11113575913417,0.0,0.0,-0.0405292469529,0.0,0.0,0.0,1001.26534597,9.40778790963E-4,673.693449906,417.167955851,-0.0,1.404702733E-6,-0.873798695108,0.0,0.0,0.0,0.307194053293,44.5022021101
9.8,2.09541115182E7,14975.1090462,0.0,-311.786420868,1527.99739386,0.0,0.0,0.221526187937,310.694339721,28470.5437925,1.98783415428E-6,0.0,32.11123066037229,0.0,0.0,-0.0409471143301,0.0,0.0,0.0,1001.39727738,9.41834443567E-4,674.627153646,417.277899104,-0.0,1.48029590329E-6,-0.892568110883,0.0,0.0,0.0,0.310260898159,45.4581206059
9.9,2.09540801835E7,15127.9086704,0.0,-314.907343471,1527.99508743,0.0,0.0,0.226015794447,313.804117581,28439.3188539,2.04901991575E-6,0.0,32.11132651692015,0.0,0.0,-0.0413649829291,0.0,0.0,0.0,1001.53051912,9.42901641593E-4,675.571319069,417.388948995,-0.0,1.55916166369E-6,-0.91155690941,0.0,0.0,0.0,0.313324649608,46.4252121735
10.0,2.09540485368E7,15280.7080629,0.0,-318.026365808,1527.99275758,0.0,0.0,0.230548715301,316.911995143,28407.7830323,2.11143930822E-6,0.0,32.111423328277795,0.0,0.0,-0.0417828527617,0.0,0.0,0.0,1001.66506985,9.43980406867E-4,676.525973427,417.501104862,-0.0,1.64140893154E-6,-0.930765890854,0.0,0.0,0.0,0.31638527542,47.4035175651
10.1,2.09540165783E7,15433.5072212,0.0,-321.143465916,1527.99040432,0.0,0.0,0.235124879138,320.017950445,28375.9365189,2.17510417032E-6,0.0,32.111521093845276,0.0,0.0,-0.0422007238398,0.0,0.0,0.0,1001.80092826,9.45070761428E-4,677.491144257,417.614366037,-0.0,1.72714923878E-6,-0.950195862241,0.0,0.0,0.0,0.319442743358,48.3930778821
10.2,2.09539843081E7,15586.306143,0.0,-324.25862175,1527.98802763,0.0,0.0,0.239744213749,323.121961442,28343.779507,2.24002632113E-6,0.0,32.11161981312264,0.0,0.0,-0.0426185961752,0.0,0.0,0.0,1001.93809299,9.46172727527E-4,678.466859382,417.72873184,-0.0,1.81649678098E-6,-0.969847637404,0.0,0.0,0.0,0.322497021167,49.3939345725
10.3,2.09539517266E7,15739.1048259,0.0,-327.371811185,1527.98562753,0.0,0.0,0.244406646068,326.224006007,28311.3121922,2.30621755989E-6,0.0,32.11171948540994,0.0,0.0,-0.0430364697796,0.0,0.0,0.0,1002.07656269,9.47286327625E-4,679.453146904,417.844201587,-0.0,1.90956846591E-6,-0.989722036936,0.0,0.0,0.0,0.325548076573,50.406129429
10.4,2.09539188339E7,15891.9032677,0.0,-330.483012012,1527.98320401,0.0,0.0,0.249112102171,329.324061932,28278.5347721,2.37368966596E-6,0.0,32.11182011020723,0.0,0.0,-0.043454344665,0.0,0.0,0.0,1002.21633598,9.48411584398E-4,680.450035212,417.960774585,-0.0,2.0064839503E-6,-1.00981988815,0.0,0.0,0.0,0.328595877283,51.4297045861
10.5,2.09538856301E7,16044.701466,0.0,-333.592201938,1527.98075708,0.0,0.0,0.253860507272,332.422106924,28245.4474468,2.44245439845E-6,0.0,32.11192168681457,0.0,0.0,-0.0438722208429,0.0,0.0,0.0,1002.35741149,9.49548520729E-4,681.45755298,418.078450133,-0.0,2.10736568457E-6,-1.03014202501,0.0,0.0,0.0,0.331640390988,52.4647025176
10.6,2.09538521155E7,16197.4994183,0.0,-336.699358589,1527.97828672,0.0,0.0,0.258651785719,335.518118607,28212.0504185,2.51252349599E-6,0.0,32.112024214731996,0.0,0.0,-0.0442900983252,0.0,0.0,0.0,1002.49978781,9.50697159715E-4,682.475729162,418.197227523,-0.0,2.21233895651E-6,-1.05068928811,0.0,0.0,0.0,0.334681585357,53.5111660341
10.7,2.09538182903E7,16350.2971225,0.0,-339.804459504,1527.97579295,0.0,0.0,0.263485860989,338.612074522,28178.3438916,2.58390867652E-6,0.0,32.112127693359575,0.0,0.0,-0.0447079771236,0.0,0.0,0.0,1002.64346353,9.51857524662E-4,683.504593,418.317106037,-0.0,2.32153194706E-6,-1.07146252459,0.0,0.0,0.0,0.337719428044,54.5691382806
10.8,2.09537841547E7,16503.0945761,0.0,-342.907482138,1527.97327576,0.0,0.0,0.268362655688,341.703952122,28144.3280729,2.65662163716E-6,0.0,32.11223212189736,0.0,0.0,-0.0451258572498,0.0,0.0,0.0,1002.78843722,9.53029639086E-4,684.544174019,418.438084952,-0.0,2.43507576097E-6,-1.09246258811,0.0,0.0,0.0,0.340753886683,55.6386627333
10.9,2.09537497088E7,16655.8917769,0.0,-346.008403861,1527.97073515,0.0,0.0,0.27328209154,344.793728778,28110.0031712,2.73067405365E-6,0.0,32.1123374999454,0.0,0.0,-0.0455437387155,0.0,0.0,0.0,1002.93470744,9.54213526714E-4,685.594502027,418.560163534,-0.0,2.55310448285E-6,-1.11369033879,0.0,0.0,0.0,0.34378492889,56.7197831975
11.0,2.0953714953E7,16808.6887224,0.0,-349.107201954,1527.96817113,0.0,0.0,0.278244089391,347.881381771,28075.3693979,2.80607758051E-6,0.0,32.112443826703746,0.0,0.0,-0.0459616215322,0.0,0.0,0.0,1003.08227274,9.55409211479E-4,686.655607119,418.683341044,-0.0,2.67575522465E-6,-1.13514664313,0.0,0.0,0.0,0.34681252226,57.8125438044
11.1,2.09536798875E7,16961.4854103,0.0,-352.203853615,1527.96558368,0.0,0.0,0.283248569197,350.966888296,28040.4269664,2.88284385049E-6,0.0,32.11255110157246,0.0,0.0,-0.0463795057117,0.0,0.0,0.0,1003.23113165,9.56616717525E-4,687.727519672,418.807616733,-0.0,2.80316816921E-6,-1.156832374,0.0,0.0,0.0,0.349836634372,58.9169890083
11.2,2.09536445123E7,17114.2818384,0.0,-355.29833595,1527.96297283,0.0,0.0,0.288295450028,354.050225462,28005.1760926,2.96098447454E-6,0.0,32.1126593239516,0.0,0.0,-0.0467973912656,0.0,0.0,0.0,1003.38128269,9.57836069206E-4,688.810270349,418.932989845,-0.0,2.93548661642E-6,-1.17874841054,0.0,0.0,0.0,0.352857232785,60.0331635841
11.3,2.09536088279E7,17267.0780041,0.0,-358.390625981,1527.96033855,0.0,0.0,0.293384650057,357.131370288,27969.6169944,3.04051104145E-6,0.0,32.11276849314121,0.0,0.0,-0.0472152782054,0.0,0.0,0.0,1003.53272436,9.5906729108E-4,689.903890099,419.059459614,-0.0,3.07285703819E-6,-1.20089563815,0.0,0.0,0.0,0.35587428504,61.1611126238
11.4,2.09535728343E7,17419.8739053,0.0,-361.480700636,1527.95768086,0.0,0.0,0.298516086562,360.210299705,27933.7498924,3.1214351176E-6,0.0,32.112878608441356,0.0,0.0,-0.0476331665427,0.0,0.0,0.0,1003.68545516,9.60310407916E-4,691.008410153,419.187025269,-0.0,3.21542912359E-6,-1.22327494837,0.0,0.0,0.0,0.358887758659,62.3008815342
11.5,2.09535365318E7,17572.6695395,0.0,-364.568536758,1527.95499975,0.0,0.0,0.303689675917,363.286990554,27897.5750091,3.20376824676E-6,0.0,32.1129896692521,0.0,0.0,-0.048051056289,0.0,0.0,0.0,1003.83947355,9.61565444688E-4,692.12386203,419.315686029,-0.0,3.36335582817E-6,-1.24588723888,0.0,0.0,0.0,0.361897621144,63.4525160333
11.6,2.09534999207E7,17725.4649045,0.0,-367.654111099,1527.95229522,0.0,0.0,0.308905333587,366.361419585,27861.0925696,3.2875219498E-6,0.0,32.11310167497349,0.0,0.0,-0.0484689474559,0.0,0.0,0.0,1003.99477801,9.62832426576E-4,693.250277531,419.445441105,-0.0,3.51679342935E-6,-1.26873341341,0.0,0.0,0.0,0.364903839979,64.6160621474
11.7,2.09534630011E7,17878.2599978,0.0,-370.737400318,1527.94956728,0.0,0.0,0.314162974133,369.433563459,27824.3028013,3.3727077246E-6,0.0,32.11321462470559,0.0,0.0,-0.0488868400549,0.0,0.0,0.0,1004.15136698,9.64111378971E-4,694.387688745,419.576289699,-0.0,3.67590156758E-6,-1.29181438167,0.0,0.0,0.0,0.367906382631,65.7915662082
11.8,2.09534257733E7,18031.0548171,0.0,-373.818380984,1527.94681593,0.0,0.0,0.319462511194,372.503398746,27787.2059339,3.45933704546E-6,0.0,32.11332851794845,0.0,0.0,-0.0493047340975,0.0,0.0,0.0,1004.3092389,9.65402327463E-4,695.536128043,419.708231006,-0.0,3.84084330918E-6,-1.31513105931,0.0,0.0,0.0,0.370905216544,66.9790748492
11.9,2.09533882375E7,18183.8493602,0.0,-376.897029575,1527.94404116,0.0,0.0,0.324803857497,375.57090192,27749.8021993,3.54742136328E-6,0.0,32.113443353902134,0.0,0.0,-0.049722629595,0.0,0.0,0.0,1004.4683922,9.66705297852E-4,696.695628085,419.841264213,-0.0,4.01178518693E-6,-1.33868436785,0.0,0.0,0.0,0.373900309146,68.178635003
12.0,2.09533503939E7,18336.6436246,0.0,-379.973322475,1527.94124297,0.0,0.0,0.330186924842,378.636049368,27712.0918321,3.63697210495E-6,0.0,32.1135591319667,0.0,0.0,-0.050140526559,0.0,0.0,0.0,1004.62882527,9.68020316141E-4,697.866221812,419.975388498,-0.0,4.18889726181E-6,-1.36247523461,0.0,0.0,0.0,0.376891627847,69.3902938974
12.1,2.09533122429E7,18489.437608,0.0,-383.047235977,1527.93842137,0.0,0.0,0.335611624104,381.698817381,27674.0750688,3.72800067335E-6,0.0,32.11367585124222,0.0,0.0,-0.0505584250008,0.0,0.0,0.0,1004.79053651,9.69347408538E-4,699.047942454,420.11060303,-0.0,4.37235316781E-6,-1.38650459264,0.0,0.0,0.0,0.379879140036,70.6140990524
12.2,2.09532737846E7,18642.2313081,0.0,-386.118746277,1527.93557635,0.0,0.0,0.341077865223,384.759182156,27635.7521487,3.82051844686E-6,0.0,32.11379351122873,0.0,0.0,-0.0509763249318,0.0,0.0,0.0,1004.95352431,9.70686601453E-4,700.240823524,420.24690697,-0.0,4.5623301792E-6,-1.41077338065,0.0,0.0,0.0,0.382862813083,71.8500982767
12.3,2.09532350192E7,18795.0247225,0.0,-389.18782948,1527.93270792,0.0,0.0,0.346585557208,387.817119796,27597.1233133,3.91453677935E-6,0.0,32.113912111026316,0.0,0.0,-0.0513942263633,0.0,0.0,0.0,1005.11778702,9.72037921503E-4,701.444898822,420.384299473,-0.0,4.75900924987E-6,-1.43528254299,0.0,0.0,0.0,0.385842614341,73.0983396643
12.4,2.09531959471E7,18947.8178489,0.0,-392.254461594,1527.92981608,0.0,0.0,0.352134608126,390.872606311,27558.1888064,4.0100669997E-6,0.0,32.114031650035024,0.0,0.0,-0.0518121293068,0.0,0.0,0.0,1005.28332301,9.73401395504E-4,702.660202433,420.522779682,-0.0,4.96257507353E-6,-1.46003302949,0.0,0.0,0.0,0.388818511142,74.3588715908
12.5,2.09531565684E7,19100.6106849,0.0,-395.318618533,1527.92690082,0.0,0.0,0.357724925097,393.925617613,27518.9488745,4.10712041173E-6,0.0,32.114152127454915,0.0,0.0,-0.0522300337734,0.0,0.0,0.0,1005.45013061,9.74777050476E-4,703.886768725,420.662346733,-0.0,5.17321614666E-6,-1.48502579547,0.0,0.0,0.0,0.391790470802,75.6317427101
12.6,2.09531168834E7,19253.4032283,0.0,-398.380276115,1527.92396215,0.0,0.0,0.363356414297,396.976129521,27479.4037662,4.20570829385E-6,0.0,32.11427354248606,0.0,0.0,-0.0526479397745,0.0,0.0,0.0,1005.61820814,9.7616491364E-4,705.124632357,420.802999754,-0.0,5.39112480902E-6,-1.51026180164,0.0,0.0,0.0,0.394758460615,76.9170019503
12.7,2.09530768924E7,19406.1954766,0.0,-401.439410061,1527.92100007,0.0,0.0,0.369028980947,400.024117754,27439.5537327,4.3058418988E-6,0.0,32.11439589442851,0.0,0.0,-0.0530658473214,0.0,0.0,0.0,1005.78755392,9.7756501242E-4,706.373828267,420.944737864,-0.0,5.61649731976E-6,-1.53574201401,0.0,0.0,0.0,0.39772244786,78.2146985106
12.8,2.09530365956E7,19558.9874275,0.0,-404.495995995,1527.91801458,0.0,0.0,0.37474252931,403.069557938,27399.3990276,4.40753245337E-6,0.0,32.11451918258234,0.0,0.0,-0.0534837564251,0.0,0.0,0.0,1005.95816624,9.78977374439E-4,707.634391684,421.087560174,-0.0,5.84953389558E-6,-1.56146740386,0.0,0.0,0.0,0.400682399793,79.5248818568
12.9,2.09529959933E7,19711.7790787,0.0,-407.550009444,1527.91500567,0.0,0.0,0.380496962689,406.112425599,27358.9399069,4.51079115827E-6,0.0,32.11464340604761,0.0,0.0,-0.0539016670971,0.0,0.0,0.0,1006.13004339,9.8040202752E-4,708.90635812,421.231465785,-0.0,6.09043878308E-6,-1.5874389476,0.0,0.0,0.0,0.403638283655,80.8476017183
13.0,2.09529550857E7,19864.5704278,0.0,-410.601425837,1527.91197335,0.0,0.0,0.386292183421,409.152696166,27318.176629,4.61562918763E-6,0.0,32.11476856412438,0.0,0.0,-0.0543195793483,0.0,0.0,0.0,1006.30318364,9.81838999685E-4,710.189763372,421.37645379,-0.0,6.33942031287E-6,-1.61365762677,0.0,0.0,0.0,0.406590066666,82.1829080832
13.1,2.09529138731E7,20017.3614726,0.0,-413.650220505,1527.90891762,0.0,0.0,0.392128092871,412.190344969,27277.109455,4.72205768899E-6,0.0,32.114894656012716,0.0,0.0,-0.05473749319,0.0,0.0,0.0,1006.47758523,9.83288319157E-4,711.484643523,421.522523275,-0.0,6.59669095131E-6,-1.64012442788,0.0,0.0,0.0,0.409537716029,83.5308511954
13.2,2.09528723558E7,20170.1522106,0.0,-416.696368679,1527.90583848,0.0,0.0,0.398004591431,415.225347239,27235.7386483,4.83008778284E-6,0.0,32.11502168091268,0.0,0.0,-0.0551554086334,0.0,0.0,0.0,1006.65324642,9.84750014357E-4,712.791034943,421.669673315,-0.0,6.86246737256E-6,-1.66684034242,0.0,0.0,0.0,0.412481198929,84.8914815499
13.3,2.09528305339E7,20322.9426395,0.0,-419.739845491,1527.90273593,0.0,0.0,0.403921578514,418.257678108,27194.0644746,4.93973056249E-6,0.0,32.11514963802435,0.0,0.0,-0.0555733256894,0.0,0.0,0.0,1006.83016542,9.86224113901E-4,714.108974285,421.817902976,-0.0,7.13697051541E-6,-1.69380636669,0.0,0.0,0.0,0.41542048253,86.2648498887
13.4,2.09527884079E7,20475.732757,0.0,-422.780625973,1527.89960997,0.0,0.0,0.409878952547,421.287312607,27152.0872025,5.05099709369E-6,0.0,32.11527852654776,0.0,0.0,-0.0559912443691,0.0,0.0,0.0,1007.00834046,9.87710646606E-4,715.438498489,421.967211318,-0.0,7.42042563863E-6,-1.7210235018,0.0,0.0,0.0,0.418355533981,87.6510071972
13.5,2.09527459779E7,20628.5225607,0.0,-425.818685056,1527.8964606,0.0,0.0,0.415876610974,424.314225669,27109.8071028,5.16389841449E-6,0.0,32.115408345683015,0.0,0.0,-0.0564091646837,0.0,0.0,0.0,1007.18776973,9.89209641483E-4,716.779644782,422.117597389,-0.0,7.71306238328E-6,-1.74849275352,0.0,0.0,0.0,0.42128632041,89.0500046994
13.6,2.09527032442E7,20781.3120483,0.0,-428.853997572,1527.89328783,0.0,0.0,0.42191445024,427.338392123,27067.2244489,5.27844553482E-6,0.0,32.11553909463016,0.0,0.0,-0.056827086644,0.0,0.0,0.0,1007.36845142,9.9072112774E-4,718.132450672,422.269060231,-0.0,8.01511484987E-6,-1.77621513224,0.0,0.0,0.0,0.424212808929,90.4618938537
13.7,2.09526602072E7,20934.1012175,0.0,-431.886538249,1527.89009164,0.0,0.0,0.4279923658,430.359786699,27024.3395168,5.39464943636E-6,0.0,32.11567077248927,0.0,0.0,-0.0572450102611,0.0,0.0,0.0,1007.5503837,9.92245134778E-4,719.496953957,422.421598875,-0.0,8.32682163881E-6,-1.80419165286,0.0,0.0,0.0,0.42713496663,91.8867263489
13.8,2.0952616867E7,21086.8900659,0.0,-434.916281715,1527.88687205,0.0,0.0,0.434110252102,433.378384025,26981.1525848,5.51252107211E-6,0.0,32.1158033784604,0.0,0.0,-0.057662935546,0.0,0.0,0.0,1007.73356472,9.93781692197E-4,720.873192717,422.575212344,-0.0,8.64842593556E-6,-1.83242333472,0.0,0.0,0.0,0.430052760589,93.3245540996
13.9,2.0952573224E7,21239.6785911,0.0,-437.943202496,1527.88362905,0.0,0.0,0.440268002592,436.394158625,26937.6639341,5.63207136633E-6,0.0,32.11593691164363,0.0,0.0,-0.0580808625095,0.0,0.0,0.0,1007.91799263,9.95330829787E-4,722.261205318,422.729899652,-0.0,8.98017555291E-6,-1.86091120151,0.0,0.0,0.0,0.432966157864,94.7754292414
14.0,2.09525292785E7,21392.4667909,0.0,-440.967275014,1527.88036265,0.0,0.0,0.446465509705,439.407084921,26893.8738481,5.75331121404E-6,0.0,32.11607137123902,0.0,0.0,-0.0584987911626,0.0,0.0,0.0,1008.10366557,9.96892577532E-4,723.661030413,422.885659803,-0.0,9.32232301589E-6,-1.88965628117,0.0,0.0,0.0,0.435875125494,96.2394041269
14.1,2.09524850307E7,21545.2546629,0.0,-443.988473589,1527.87707284,0.0,0.0,0.452702664859,442.417137234,26849.7826129,5.87625148087E-6,0.0,32.11620675644665,0.0,0.0,-0.0589167215161,0.0,0.0,0.0,1008.29058163,9.98466965611E-4,725.072706937,423.042491794,-0.0,9.67512562559E-6,-1.91865960579,0.0,0.0,0.0,0.438779630502,97.7165313205
14.2,2.09524404809E7,21698.0422047,0.0,-447.006772436,1527.87375963,0.0,0.0,0.458979358456,445.424289779,26805.3905173,6.00090300275E-6,0.0,32.11634306626657,0.0,0.0,-0.0593346535808,0.0,0.0,0.0,1008.47873894,0.00100005402439,726.496274111,423.200394611,-0.0,1.00388455078E-5,-1.94792221156,0.0,0.0,0.0,0.441679639892,99.2068635943
14.3,2.09523956294E7,21850.829414,0.0,-450.022145669,1527.87042301,0.0,0.0,0.465295479874,448.428516667,26760.6978525,6.12727658576E-6,0.0,32.116480299998884,0.0,0.0,-0.0597525873676,0.0,0.0,0.0,1008.66813556,0.00100165378444,727.931771443,423.359367231,-0.0,1.04137496974E-5,-1.97744513862,0.0,0.0,0.0,0.444575120652,100.710453923
14.4,2.09523504766E7,22003.6162885,0.0,-453.034567294,1527.86706299,0.0,0.0,0.471650917461,451.429791908,26715.7049123,6.25538300556E-6,0.0,32.11661845654362,0.0,0.0,-0.0601705228873,0.0,0.0,0.0,1008.85876959,0.00100326627649,729.379238724,423.519408624,-0.0,1.08001102002E-5,-2.00722943101,0.0,0.0,0.0,0.447466039752,102.227355478
14.5,2.09523050226E7,22156.4028258,0.0,-456.044011215,1527.86367956,0.0,0.0,0.478045558534,454.428089403,26670.4119933,6.38523300735E-6,0.0,32.116757535100874,0.0,0.0,-0.0605884601505,0.0,0.0,0.0,1009.05063907,0.0010048915315,730.838716027,423.680517748,-0.0,1.11982040628E-5,-2.03727613655,0.0,0.0,0.0,0.450352364147,103.757621626
14.6,2.09522592679E7,22309.1890237,0.0,-459.050451231,1527.86027274,0.0,0.0,0.484479289372,457.423382951,26624.8193946,6.51683730557E-6,0.0,32.11689753487071,0.0,0.0,-0.061006399168,0.0,0.0,0.0,1009.24374205,0.0010065295806,732.310243715,423.842693553,-0.0,1.16083134384E-5,-2.06758630676,0.0,0.0,0.0,0.453234060773,105.301305919
14.7,2.09522132126E7,22461.9748796,0.0,-462.053861033,1527.85684251,0.0,0.0,0.490951995213,460.415646245,26578.9274178,6.65020658346E-6,0.0,32.117038454853194,0.0,0.0,-0.0614243399505,0.0,0.0,0.0,1009.43807657,0.00100818045509,733.793862431,424.005934981,-0.0,1.20307256626E-5,-2.09816099674,0.0,0.0,0.0,0.456111096549,106.858462092
14.8,2.09521668572E7,22614.7603914,0.0,-465.054214209,1527.85338889,0.0,0.0,0.497463560249,463.40485287,26532.7363672,6.78535149294E-6,0.0,32.1171802940484,0.0,0.0,-0.0618422825086,0.0,0.0,0.0,1009.63364063,0.0010098441865,735.289613103,424.170240962,-0.0,1.24657333182E-5,-2.12900126507,0.0,0.0,0.0,0.458983438381,108.429144061
14.9,2.09521202019E7,22767.5455566,0.0,-468.05148424,1527.84991186,0.0,0.0,0.50401386762,466.390976308,26486.24655,6.92228265426E-6,0.0,32.11732305165641,0.0,0.0,-0.062260226853,0.0,0.0,0.0,1009.83043225,0.0010115208065,736.797536946,424.335610419,-0.0,1.2913634303E-5,-2.16010817374,0.0,0.0,0.0,0.461851053156,110.01340591
15.0,2.0952073247E7,22920.330373,0.0,-471.045644499,1527.84641144,0.0,0.0,0.510602799414,469.373989933,26439.4582756,7.06101065572E-6,0.0,32.1174667266773,0.0,0.0,-0.0626781729943,0.0,0.0,0.0,1010.02844941,0.00101321034698,738.317675454,424.502042264,-0.0,1.33747319131E-5,-2.191482788,0.0,0.0,0.0,0.464713907744,111.611301894
15.1,2.09520259929E7,23073.1148381,0.0,-474.036668256,1527.84288762,0.0,0.0,0.517230236657,472.353867012,26392.3718565,7.20154605334E-6,0.0,32.11761131831112,0.0,0.0,-0.0630961209429,0.0,0.0,0.0,1010.22769009,0.00101491284,739.850070408,424.669535401,-0.0,1.38493349078E-5,-2.22312617629,0.0,0.0,0.0,0.467571969003,113.222886426
15.2,2.09519784398E7,23225.8989497,0.0,-477.024528669,1527.8393404,0.0,0.0,0.523896059311,475.330580705,26344.9876077,7.34389937063E-6,0.0,32.11775682535795,0.0,0.0,-0.0635140707094,0.0,0.0,0.0,1010.42815225,0.0010166283178,741.394763872,424.838088724,-0.0,1.43377575821E-5,-2.25503941012,0.0,0.0,0.0,0.470425203772,114.848214078
15.3,2.09519305881E7,23378.6827054,0.0,-480.009198792,1527.83576979,0.0,0.0,0.53060014627,478.304104066,26297.3058467,7.48808109831E-6,0.0,32.11790324711788,0.0,0.0,-0.0639320223044,0.0,0.0,0.0,1010.62983383,0.00101835681283,742.951798193,425.007701117,-0.0,1.48403198457E-5,-2.28722356396,0.0,0.0,0.0,0.473273578875,116.487339574
15.4,2.0951882438E7,23531.4661029,0.0,-482.99065157,1527.83217579,0.0,0.0,0.537342375355,481.27441004,26249.3268941,7.6341016939E-6,0.0,32.11805058239097,0.0,0.0,-0.0643499757382,0.0,0.0,0.0,1010.83273276,0.00102009835768,744.521216001,425.178371455,-0.0,1.53573472946E-5,-2.31967971513,0.0,0.0,0.0,0.476117061123,118.14031778
15.5,2.095183399E7,23684.2491398,0.0,-485.968859841,1527.82855839,0.0,0.0,0.544122623309,484.241471464,26201.0510729,7.78197158151E-6,0.0,32.118198830377295,0.0,0.0,-0.0647679310213,0.0,0.0,0.0,1011.03684698,0.00102185298517,746.103060207,425.350098603,-0.0,1.58891712831E-5,-2.3524089437,0.0,0.0,0.0,0.478955617311,119.807203703
15.6,2.09517852444E7,23837.0318138,0.0,-488.943796335,1527.8249176,0.0,0.0,0.550940765795,487.205261067,26152.4787089,7.93170115168E-6,0.0,32.118347990076934,0.0,0.0,-0.0651858881641,0.0,0.0,0.0,1011.24217437,0.00102362072826,747.69737401,425.522881416,-0.0,1.64361290009E-5,-2.38541233235,0.0,0.0,0.0,0.481789214217,121.488052485
15.7,2.09517362014E7,23989.8141225,0.0,-491.915433671,1527.82125341,0.0,0.0,0.557796677387,490.16575147,26103.6101306,8.08330076081E-6,0.0,32.118498060489955,0.0,0.0,-0.0656038471769,0.0,0.0,0.0,1011.44871284,0.00102540162011,749.304200885,425.696718742,-0.0,1.69985635566E-5,-2.41869096631,0.0,0.0,0.0,0.484617818608,123.182919395
15.8,2.09516868614E7,24142.5960637,0.0,-494.883744362,1527.81756584,0.0,0.0,0.564690231569,493.122915184,26054.4456694,8.23678073107E-6,0.0,32.118649040516445,0.0,0.0,-0.0660218080701,0.0,0.0,0.0,1011.65646025,0.00102719569406,750.923584594,425.871609415,-0.0,1.75768240497E-5,-2.45224593316,0.0,0.0,0.0,0.487441397236,124.891859824
15.9,2.09516372247E7,24295.3776349,0.0,-497.848700811,1527.81385488,0.0,0.0,0.571621300729,496.076724612,26004.9856594,8.39215134996E-6,0.0,32.11880092925647,0.0,0.0,-0.066439770854,0.0,0.0,0.0,1011.86541447,0.00102900298362,752.555569177,426.047552263,-0.0,1.81712656524E-5,-2.4860783228,0.0,0.0,0.0,0.490259916838,126.614929279
16.0,2.09515872918E7,24448.1588339,0.0,-500.810275311,1527.81012053,0.0,0.0,0.578589756157,499.027152049,25955.2304373,8.54942287015E-6,0.0,32.118953725610126,0.0,0.0,-0.0668577355387,0.0,0.0,0.0,1012.07557334,0.00103082352248,754.200198958,426.224546103,-0.0,1.87822496769E-5,-2.52018922727,0.0,0.0,0.0,0.493073344138,128.352183379
16.1,2.09515370628E7,24600.9396583,0.0,-503.768440047,1527.8063628,0.0,0.0,0.585595468038,501.974169677,25905.1803426,8.70860550904E-6,0.0,32.11910742867746,0.0,0.0,-0.0672757021346,0.0,0.0,0.0,1012.2869347,0.00103265734451,755.857518543,426.402589741,-0.0,1.94101436623E-5,-2.55457974067,0.0,0.0,0.0,0.495881645847,130.103677844
16.2,2.09514865382E7,24753.7201057,0.0,-506.723167093,1527.80258168,0.0,0.0,0.592638305448,504.917749572,25854.8357179,8.86970944866E-6,0.0,32.119262037258565,0.0,0.0,-0.0676936706517,0.0,0.0,0.0,1012.49949638,0.00103450448375,757.527572817,426.581681974,-0.0,2.00553214629E-5,-2.58925095899,0.0,0.0,0.0,0.498684788662,131.869468493
16.3,2.09514357183E7,24906.5001738,0.0,-509.674428416,1527.79877717,0.0,0.0,0.599718136349,507.8578637,25804.1969083,9.03274483513E-6,0.0,32.11941755045352,0.0,0.0,-0.0681116411004,0.0,0.0,0.0,1012.71325617,0.00103636497443,759.210406945,426.761821591,-0.0,2.07181633214E-5,-2.62420398003,0.0,0.0,0.0,0.501482739269,133.649611237
16.4,2.09513846034E7,25059.2798603,0.0,-512.622195869,1527.79494929,0.0,0.0,0.606834827588,510.794483913,25753.2642616,9.1977217785E-6,0.0,32.119573967262404,0.0,0.0,-0.0685296134905,0.0,0.0,0.0,1012.92821186,0.00103823885093,760.906066376,426.943007367,-0.0,2.13990559463E-5,-2.65943990327,0.0,0.0,0.0,0.504275464341,135.444162072
16.5,2.0951333194E7,25212.0591629,0.0,-515.566441197,1527.79109802,0.0,0.0,0.613988244888,513.727581958,25702.0381289,9.36465035235E-6,0.0,32.11973128638528,0.0,0.0,-0.0689475878323,0.0,0.0,0.0,1013.14436123,0.00104012614782,762.614596834,427.125238071,-0.0,2.20983926026E-5,-2.69495982971,0.0,0.0,0.0,0.507062930539,137.253177071
16.6,2.09512814903E7,25364.8380792,0.0,-518.507136035,1527.78722337,0.0,0.0,0.621178252847,516.657129469,25650.5188636,9.53354059366E-6,0.0,32.11988950702225,0.0,0.0,-0.0693655641358,0.0,0.0,0.0,1013.36170205,0.00104202689983,764.336044328,427.30851246,-0.0,2.28165731849E-5,-2.73076486177,0.0,0.0,0.0,0.50984510451,139.07671238
16.7,2.09512294927E7,25517.6166068,0.0,-521.444251908,1527.78332535,0.0,0.0,0.628404714933,519.583097969,25598.7068223,9.70440250231E-6,0.0,32.12004862797338,0.0,0.0,-0.0697835424109,0.0,0.0,0.0,1013.58023207,0.00104394114187,766.070455142,427.492829281,-0.0,2.35540043106E-5,-2.76685610316,0.0,0.0,0.0,0.512621952895,140.91482421
16.8,2.09511772015E7,25670.3947434,0.0,-524.377760228,1527.77940395,0.0,0.0,0.635667493478,522.505458873,25546.6023643,9.87724604075E-6,0.0,32.12020864813874,0.0,0.0,-0.0702015226677,0.0,0.0,0.0,1013.79994901,0.00104586890901,767.817875841,427.678187272,-0.0,2.43110994003E-5,-2.80323465872,0.0,0.0,0.0,0.515393442318,142.767568832
16.9,2.09511246172E7,25823.1724868,0.0,-527.307632299,1527.77545917,0.0,0.0,0.642966449674,525.424183484,25494.2058517,1.00520811339E-5,0.0,32.12036956641844,0.0,0.0,-0.070619504916,0.0,0.0,0.0,1014.0208506,0.00104781023651,769.578353268,427.864585159,-0.0,2.50882787698E-5,-2.83990163433,0.0,0.0,0.0,0.518159539397,144.635002565
17.0,2.09510717401E7,25975.9498345,0.0,-530.233839314,1527.77149102,0.0,0.0,0.650301443572,528.339242992,25441.5176497,1.02289176687E-5,0.0,32.12053138181253,0.0,0.0,-0.0710374891658,0.0,0.0,0.0,1014.24293454,0.00104976515977,771.351934543,428.052021659,-0.0,2.58859696954E-5,-2.87685813672,0.0,0.0,0.0,0.520920210737,146.517181776
17.1,2.09510185706E7,26128.7267842,0.0,-533.156352353,1527.7674995,0.0,0.0,0.657672334073,531.250608481,25388.5381263,1.04077654938E-5,0.0,32.120694093021115,0.0,0.0,-0.0714554754268,0.0,0.0,0.0,1014.46619853,0.00105173371437,773.138667066,428.24049548,-0.0,2.67046065244E-5,-2.91410527339,0.0,0.0,0.0,0.523675422936,148.41416287
17.2,2.0950965109E7,26281.5033336,0.0,-536.075142387,1527.76348461,0.0,0.0,0.665078978928,534.15825092,25335.2676521,1.05886344192E-5,0.0,32.120857699144246,0.0,0.0,-0.071873463709,0.0,0.0,0.0,1014.69064024,0.00105371593606,774.938598512,428.430005317,-0.0,2.75446307507E-5,-2.95164415242,0.0,0.0,0.0,0.526425142579,150.326002281
17.3,2.09509113557E7,26434.2794804,0.0,-538.990180276,1527.75944635,0.0,0.0,0.672521234729,537.062141168,25281.7066012,1.07715342162E-5,0.0,32.121022198982025,0.0,0.0,-0.072291454022,0.0,0.0,0.0,1014.91625734,0.00105571186074,776.751776834,428.620549857,-0.0,2.84064911012E-5,-2.98947588238,0.0,0.0,0.0,0.529169336245,152.252756466
17.4,2.09508573111E7,26587.0552221,0.0,-541.901436768,1527.75538472,0.0,0.0,0.679998956912,539.962249975,25227.85535,1.09564746165E-5,0.0,32.12118759133453,0.0,0.0,-0.0727094463756,0.0,0.0,0.0,1015.14304747,0.00105772152449,778.57825026,428.812127775,-0.0,2.92906436311E-5,-3.02760157213,0.0,0.0,0.0,0.531907970503,154.194481901
17.5,2.09508029755E7,26739.8305565,0.0,-544.808882501,1527.75129973,0.0,0.0,0.687511999744,542.858547977,25173.7142782,1.11434653128E-5,0.0,32.12135387510185,0.0,0.0,-0.0731274407795,0.0,0.0,0.0,1015.37100828,0.00105974496353,780.418067296,429.004737738,-0.0,3.01975518054E-5,-3.06602233072,0.0,0.0,0.0,0.534641011914,156.151235068
17.6,2.09507483494E7,26892.6054813,0.0,-547.712488001,1527.74719137,0.0,0.0,0.695060216326,545.751005702,25119.2837684,1.13325159573E-5,0.0,32.121521049084066,0.0,0.0,-0.0735454372434,0.0,0.0,0.0,1015.60013737,0.00106178221427,782.27127672,429.1983784,-0.0,3.11276865907E-5,-3.10473926723,0.0,0.0,0.0,0.537368427032,158.123072453
17.7,2.09506934331E7,27045.379994,0.0,-550.612223685,1527.74305965,0.0,0.0,0.702643458584,548.639593564,25064.564206,1.15236361626E-5,0.0,32.12168911218125,0.0,0.0,-0.0739634357768,0.0,0.0,0.0,1015.83043236,0.00106383331325,784.137927589,429.393048406,-0.0,3.20815265578E-5,-3.14375349061,0.0,0.0,0.0,0.540090182403,160.110050534
17.8,2.09506382271E7,27198.1540924,0.0,-553.508059856,1527.73890458,0.0,0.0,0.71026157727,551.524281868,25009.5559796,1.17168355004E-5,0.0,32.121858063293494,0.0,0.0,-0.0743814363894,0.0,0.0,0.0,1016.06189083,0.00106589829719,786.01806923,429.58874639,-0.0,3.30595579539E-5,-3.18306610957,0.0,0.0,0.0,0.542806244567,162.112225777
