time,eiPosition_ft_X,eiPosition_ft_Y,eiPosition_ft_Z,gePosition_ft_X,gePosition_ft_Y,gePosition_ft_Z,eiVelocity_ft_s_X,eiVelocity_ft_s_Y,eiVelocity_ft_s_Z,feVelocity_ft_s_X,feVelocity_ft_s_Y,feVelocity_ft_s_Z,altitudeMsl_ft,longitude_deg,latitude_deg,localGravity_ft_s2,eulerAngle_deg_Yaw,eulerAngle_deg_Pitch,eulerAngle_deg_Roll,bodyAngularRateWrtEi_deg_s_Roll,bodyAngularRateWrtEi_deg_s_Pitch,bodyAngularRateWrtEi_deg_s_Yaw,altitudeRateWrtMsl_ft_min,speedOfSound_ft_s,airDensity_slug_ft3,ambientPressure_lbf_ft2,ambientTemperature_dgR,aero_bodyForce_lbf_X,aero_bodyForce_lbf_Y,aero_bodyForce_lbf_Z,aero_bodyMoment_ftlbf_L,aero_bodyMoment_ftlbf_M,aero_bodyMoment_ftlbf_N,mach,dynamicPressure_lbf_ft2,trueAirspeed_nmi_h,feVelocity_ft_s_Z
0.0,2.0955646325459316E7,0.0,0.0,2.0955646325459316E7,0.0,0.0,0.0,1528.1098290457676,0.0,0.0,0.0,0.0,30000.0,0.0,0.0,32.10653595191867,0.0,-0.0,0.0,0.0,0.0,6.718855644083851E-19,-0.0,994.8487845641213,8.906867503799385E-4,629.6672472120785,411.8388730822483,0.0,0.0,0.0,0.0,0.0,0.0,0.0,0.0,0.0,0.0
0.009999999776482582,2.0955646323853992E7,15.281098290120537,9.829791558835421E-20,2.095564632385957E7,8.307718957212273E-10,9.829791558835424E-20,-0.32106535681285575,1528.109828933388,1.965958299386631E-17,6.823204782882844E-20,2.3799429983586967E-7,0.31995104155218873,29999.998400252312,2.2714509792386132E-15,2.687607726865196E-25,32.10653595682861,-3.06956408752014E-44,8.418858142947895E-38,-4.178074132467549E-5,0.0,0.0,6.718855644083851E-19,-19.197062493131323,994.8487914348613,8.906868027389778E-4,629.6672929244432,411.8388787708271,7.452898797391861E-23,-1.30999465290837E-14,-8.951418832730898E-7,-0.0,0.0,-0.0,3.216077166143805E-4,4.558921136776917E-5,0.18956580758094788,0.31995104155218873
0.019999999552965164,2.095564631903801E7,30.56219657790919,3.9319165078900377E-19,2.0955646319060296E7,6.337145919133036E-9,3.9319165078900377E-19,-0.6421306958565105,1528.109828582201,3.93191629354102E-17,1.3646213140583579E-19,9.37930508564721E-7,0.6399020653348358,29999.993600979447,1.7326677010893446E-14,1.0750430593735007E-24,32.10653597155849,-9.822605081566521E-43,1.3470173028713945E-36,-8.356148266213477E-5,0.0,0.0,6.718855644083851E-19,-38.39412392009015,994.8488120472091,8.906869598170856E-4,629.6674300624055,411.8388958366694,2.624027806933627E-22,-2.6201562463313232E-14,-3.5805679656945067E-6,-0.0,0.0,0.0,6.432153750211E-4,1.823568600229919E-4,0.37913161516189575,0.6399020653348358
0.029999999329447746,2.0955646311011378E7,45.84329486101535,8.846811650063638E-19,2.0955646311061524E7,2.117599251505453E-8,8.846811650063638E-19,-0.9631959992905355,1528.1098279968896,5.89787398041518E-17,2.0469132268310639E-19,2.104489795844044E-6,0.959853053507174,29999.985602207482,5.78982380263215E-14,2.4188467498053392E-24,32.10653599610825,-5.893563050439577E-42,5.388069211483787E-36,-1.2534222402511036E-4,0.0,0.0,6.718855644083851E-19,-57.59118321043044,994.8488464010518,8.906872216134509E-4,629.6676586252687,411.8389242796825,1.0527662662918338E-21,-3.9298337672996187E-14,-8.056279543870393E-6,-0.0,0.0,0.0,9.648230043239892E-4,4.1030303691513836E-4,0.5686973929405212,0.959853053507174
0.03999999910593033,2.0955646299774095E7,61.12439313709778,1.572766425580951E-18,2.0955646299863245E7,5.001356839784421E-8,1.5727664255809515E-18,-1.284261249310094,1528.1098271774538,7.863831112347728E-17,2.7291823529941396E-19,3.737673071880983E-6,1.279803988264027,29999.974403928965,1.3674435741951057E-13,4.3001717559172995E-24,32.10653603047791,1.2132853246536767E-20,1.769483226641709E-26,-1.6712296542636048E-4,0.0,0.0,6.718855644083851E-19,-76.78823929584162,994.8488944964201,8.906875881283884E-4,629.6679786133263,411.83896409989296,1.2732461206057228E-21,-5.239539315228824E-14,-1.4322278778811579E-5,-0.0,0.0,-0.0,0.0012864305172115564,7.29427847545594E-4,0.758263111114502,1.279803988264027
0.05000000074505806,2.0955646285326153E7,76.40549140381523,2.4574473678264983E-18,2.095564628546544E7,9.751609297836694E-8,2.4574473678264983E-18,-1.6053264281103234,1528.1098261238933,9.829787541440867E-17,3.4114248053099963E-19,5.83748056504663E-6,1.5997548518001918,29999.96000612527,2.666231566497187E-13,6.719017902571181E-24,32.10653607466752,-7.858084073649414E-41,4.310455369182446E-35,-2.089037068786433E-4,0.0,0.0,6.718855644083851E-19,-95.98529110801151,994.8489563333919,8.906880593626059E-4,629.6683900272233,411.839015297367,1.3198244722929928E-21,-6.550066551012443E-14,-2.237856869594742E-5,-0.0,0.0,0.0,0.0016080379718914628,0.00113973137922585,0.9478288292884827,1.5997548518001918
0.05999999865889549,2.0955646267667565E7,91.68658965882645,3.538723870754124E-18,2.095564626786815E7,1.6834981408919703E-7,3.538723870754125E-18,-1.926391517886327,1528.1098248362084,1.1795742413113383E-16,4.09356602822017E-19,8.403910230260303E-6,1.9197056263104328,29999.942408833653,4.602928349632E-13,9.675384861181665E-24,32.10653612867698,-2.4265706493041274E-20,-5.308449678860658E-26,-2.5068444839471696E-4,0.0,0.0,6.718855644083851E-19,-115.18233757862598,994.849031911805,8.906886353150136E-4,629.6688928660418,411.8390778719723,3.1071511317310638E-21,-7.858937378336274E-14,-3.222515318507136E-5,-0.0,0.0,-0.0,0.0019296451937407255,0.0016412138938903809,1.1373944282531738,1.9197056263104328
0.07000000029802322,2.095564624679832E7,106.9676878997902,4.8165958507464936E-18,2.0955646247071337E7,2.671809369303446E-7,4.816595850746494E-18,-2.2474565008331644,1528.1098233143987,1.376169662967981E-16,4.775707155767414E-19,1.1436963205957741E-5,2.2396562939894697,29999.921612020582,7.305114751399853E-13,1.3169272405835094E-23,32.10653619250637,0.0,0.0,-2.9246518998733977E-4,0.0,0.0,6.718855644083851E-19,-134.3793776393682,994.8491212318,8.906893159868641E-4,629.6694871309171,411.839151823828,6.391454026523551E-21,-9.167980981534395E-14,-4.386203700043738E-5,-0.0,0.0,-0.0,0.0022512522991746664,0.002233875682577491,1.3269600868225098,2.2396562939894697
0.07999999821186066,2.0955646222718436E7,122.24878612436522,6.291063144020675E-18,2.095564622307502E7,3.9867566670181986E-7,6.291063144020677E-18,-2.5685213591458425,1528.1098215584645,1.5727649248321055E-16,5.4577648086650435E-19,1.4936638129749236E-5,2.5596068370319687,29999.897615704685,1.090037160076979E-12,1.7200680091925828E-23,32.10653626615566,0.0,0.0,-3.3424593166926945E-4,0.0,0.0,6.718855644083851E-19,-153.5764102219181,994.8492242932934,8.906901013777314E-4,629.6701728215268,411.839237152868,8.67115383477029E-21,-1.0475136723089013E-13,-5.728922576065059E-5,-0.0,0.0,-0.0,0.0025728591717779636,0.0029177169781178236,1.5165256261825562,2.5596068370319687
0.09000000357627869,2.0955646195427895E7,137.52988433021028,7.962125663705171E-18,2.0955646195879195E7,5.675002796579065E-7,7.962125663705171E-18,-2.88958607501931,1528.1098195684058,1.769360140178733E-16,6.139863164591117E-19,1.8902935458519457E-5,2.8795572376325396,29999.870419878513,1.5516281670801411E-12,2.176960768562766E-23,32.10653634962484,-1.1315641098291614E-39,3.4483642953331208E-34,-3.760266734532645E-4,0.0,0.0,6.718855644083851E-19,-172.77343425795237,994.8493410963131,8.906909914880724E-4,629.6709499383264,411.8393338591189,1.6811319264812056E-22,-1.178190596212405E-13,-7.250672594875217E-5,-0.0,0.0,0.0,0.0028944655787199736,0.003692738013342023,1.706091046333313,2.8795572376325396
0.10000000149011612,2.0955646164926708E7,152.81098251498418,9.829783110816415E-18,2.095564616548387E7,7.78321066263743E-7,9.829783110816416E-18,-3.2106506306484435,1528.1098173442224,1.965954915422644E-16,6.821619541027546E-19,2.3335853830448658E-5,3.199507477985721,29999.84002455324,2.1280428124658048E-12,2.687605437366161E-23,32.10653644291391,0.0,0.0,-4.1780741535208326E-4,0.0,0.0,6.718855644083851E-19,-191.97044867914326,994.8494716408062,8.906919863177624E-4,629.6718184812715,411.83944194254093,7.803749233175082E-21,-1.3085791076441745E-13,-8.951454491214E-5,-0.0,0.0,-0.0,0.0032160719856619835,0.00455893948674202,1.8956563472747803,3.199507477985721
0.10999999940395355,2.095564613121488E7,168.09208067634555,1.1894035365650257E-17,2.0955646131889045E7,1.0358039901348093E-6,1.189403536565026E-17,-3.531715008228044,1528.1098148859146,2.1625495032686048E-16,7.5032975454893895E-19,2.823539302087038E-5,3.5194575402859716,29999.806429728866,2.8320385190711883E-12,3.252001983341704E-23,32.106536546022845,-5.532091214866257E-39,1.379345718129581E-33,-4.595881573784831E-4,0.0,0.0,6.718855644083851E-19,-211.1674524171583,994.8496159267676,8.90693085867071E-4,629.6727784506696,411.8395614031344,7.892800092582006E-21,-1.438692031330927E-13,-1.0831269086262767E-4,-0.0,0.0,0.0,0.003537677926942706,0.005516321398317814,2.085221529006958,3.5194575402859716
0.11999999731779099,2.095564609429241E7,183.37317881195327,1.41548821903364E-17,2.0955646095094718E7,1.3446154696339363E-6,1.41548821903364E-17,-3.8527791899528254,1528.1098121934822,2.3591441349046936E-16,8.185139268855441E-19,3.360155189590851E-5,3.839407406727666,29999.769635401666,3.67637395327359E-12,3.870150341969232E-23,32.106536658951676,-6.03500860509712E-39,1.3793457181274722E-33,-5.013688995452226E-4,0.0,0.0,6.718855644083851E-19,-230.36444440365995,994.8497739542073,8.906942901364173E-4,629.6738298469661,411.8396922409125,9.076795882314667E-21,-1.5682840505981232E-13,-1.2890117287644306E-4,-0.0,0.0,0.0,0.003859283635392785,0.006564883980900049,2.2747867107391357,3.839407406727666
0.12999999523162842,2.09556460541593E7,198.654276919466,1.6612323382826258E-17,2.09556460551009E7,1.7094215820634417E-6,1.661232338282626E-17,-4.173843158017406,1528.1098092669254,2.5557381325195635E-16,8.86647780263902E-19,3.9434330458840226E-5,4.159357059505085,29999.729641582817,4.67380684915561E-12,4.5420504585719985E-23,32.10653678170035,-6.537925997170026E-39,1.3793457181251797E-33,-5.431496418650595E-4,0.0,0.0,6.718855644083851E-19,-249.56142357030512,994.8499457230711,8.906955991257617E-4,629.6749726702135,411.8398344558356,2.047247169309913E-20,-1.6974760261397026E-13,-1.512800008941399E-4,-0.0,0.0,-0.0,0.004180888645350933,0.007704628631472588,2.4643516540527344,4.159357059505085
0.14000000059604645,2.0955646010815546E7,213.93537499654255,1.9266358511528787E-17,2.0955646011907578E7,2.1348886889427376E-6,1.926635851152879E-17,-4.4949068946162996,1528.1098061062437,2.7523317798093986E-16,9.547607745948257E-19,4.573372734898567E-5,4.479306480812401,29999.68644826114,5.837095718124405E-12,5.267702215762257E-23,32.10653691426892,-4.853141298556641E-20,-2.477276536965285E-25,-5.849303843507523E-4,0.0,0.0,6.718855644083851E-19,-268.75838884874406,994.8501312333997,8.906970128358249E-4,629.6762069211355,411.8399880479437,1.7732991358308488E-20,-1.8259416430857658E-13,-1.7544918572077193E-4,-0.0,0.0,0.0,0.004502493888139725,0.008935555815696716,2.653916597366333,4.479306480812401
0.15000000596046448,2.0955645964261156E7,229.21647304084166,2.2116987287406897E-17,2.0955645965514764E7,2.625682753887304E-6,2.2116987287406904E-17,-4.8159703819439095,1528.1098027114376,2.948925950169073E-16,1.0229413396648668E-18,5.249974211544458E-5,4.799255652843677,29999.640055447817,7.178997983913224E-12,6.04710553517782E-23,32.10653705665734,9.706282597094573E-20,5.308449840247489E-25,-6.267111270150588E-4,0.0,0.0,6.718855644083851E-19,-287.9553391706206,994.850330485138,8.906985312666232E-4,629.6775325998491,411.8401530171971,2.7025219070500844E-20,-1.953678042543312E-13,-2.0140873902566158E-4,-0.0,0.0,-0.0,0.004824098199605942,0.010257665067911148,2.8434813022613525,4.799255652843677
0.1599999964237213,2.095564591449614E7,244.49757105002212,2.5164209694585532E-17,2.0955645915922463E7,3.186470024729715E-6,2.5164209694585532E-17,-5.137033602194517,1528.1097990825067,3.145518686387119E-16,1.0909948446337484E-18,5.9732372715985994E-5,5.119204557792856,29999.590463146567,8.712271847618828E-12,6.8802604131922E-23,32.10653720886559,-3.218671274390412E-38,5.517382872468815E-33,-6.684918698707369E-4,0.0,0.0,6.718855644083851E-19,-307.1522734675714,994.8505434782616,8.907001544184465E-4,629.6789497067168,411.8403293635827,2.8898800184119804E-21,-2.0800207080304047E-13,-2.291586733425433E-4,-0.0,0.0,0.0,0.0051457020454108715,0.011670958250761032,3.033045768737793,5.119204557792856
0.17000000178813934,2.0955645861520488E7,259.7786690217426,2.840802457952593E-17,2.095564586313068E7,3.821916720880836E-6,2.8408024579525933E-17,-5.458096537562272,1528.1097952194514,3.3421113231612545E-16,1.1590558495881826E-18,6.743161915502697E-5,5.439153177853749,29999.537671364844,1.0449675432921081E-11,7.767166535174382E-23,32.10653737089367,-3.419838234780852E-38,5.5173828724567134E-33,-7.102726129305444E-4,0.0,0.0,6.718855644083851E-19,-326.3491906712249,994.8507702127299,8.907018822914896E-4,629.6804582420266,411.84051708707426,3.232173957907686E-20,-2.2051583846878347E-13,-2.5869900206948714E-4,-0.0,0.0,0.0,0.005467305425554514,0.013175434432923794,3.2226102352142334,5.439153177853749
0.18000000715255737,2.0955645805334207E7,275.0597669536619,3.184843219979747E-17,2.09556458071394E7,4.536688948064693E-6,3.1848432199797474E-17,-5.77915917024119,1528.1097911222714,3.53870420475855E-16,1.2271598715579049E-18,7.559748120989583E-5,5.759101495220029,29999.48168008402,1.2403966552975197E-11,8.707823972360045E-23,32.10653754274163,4.853141298515351E-20,3.1850700195021523E-25,-7.520533562072395E-4,0.0,0.0,6.718855644083851E-19,-345.54608971320175,994.851010688614,8.907037148868302E-4,629.6820582068441,411.84071618773805,2.3953297349029545E-20,-2.329281557404744E-13,-2.900297394691939E-4,-0.0,0.0,-0.0,0.005788908340036869,0.014771096408367157,3.4121744632720947,5.759101495220029
0.1899999976158142,2.0955645745937303E7,290.3408648434388,3.548543268252289E-17,2.0955645747948647E7,5.335452897270443E-6,3.5485432682522896E-17,-6.100221482425137,1528.109786790967,3.73529699239344E-16,1.2952741223184392E-18,8.422995592972178E-5,6.0790494920852245,29999.422489330173,1.458790325439475E-11,9.702232760368095E-23,32.10653772440938,-7.644344317509194E-38,1.1034765744860617E-32,-7.938340997135804E-4,0.0,0.0,6.718855644083851E-19,-364.7429695251135,994.8512649057918,8.907056522041122E-4,629.6837496009908,411.8409266654817,1.68338769203378E-20,-2.451228366251977E-13,-3.231509006683059E-4,-0.0,0.0,-0.0,0.006110510788857937,0.016457943245768547,3.601738452911377,6.0790494920852245
0.20000000298023224,2.095564568332978E7,305.621962688732,3.931902561579358E-17,2.0955645685558416E7,6.222874560535274E-6,3.9319025615793587E-17,-6.421283456307821,1528.1097822255379,3.931888972897519E-16,1.3633283753710197E-18,9.33290426376557E-5,6.398997150642702,29999.360099099576,1.701424304018037E-11,1.0750392787487681E-22,32.106537915896936,-8.046678244921401E-38,1.103476574483201E-32,-8.356148434623243E-4,0.0,0.0,6.718855644083851E-19,-383.93982903856215,994.8515328642692,8.907076942439799E-4,629.6855324251699,411.8411485203184,5.1730485462982155E-20,-2.570909216392294E-13,-3.5806250165810934E-4,-0.0,0.0,-0.0,0.006432112772017717,0.018235977739095688,3.79130220413208,6.398997150642702
0.20999999344348907,2.0955645617511638E7,320.9030604872004,4.3349210671614085E-17,2.095564561996871E7,7.20362027095689E-6,4.33492106716141E-17,-6.74234507408279,1528.1097774259842,4.1284804447360027E-16,1.4313535675886443E-18,1.0289474065713346E-4,6.718944453085674,29999.29450939223,1.9695744346211776E-11,1.185230396500027E-22,32.1065381172043,-8.449012174789657E-38,1.103476574480194E-32,-8.773955874662297E-4,0.0,0.0,6.718855644083851E-19,-403.1366671851405,994.8518145640353,8.907098410069882E-4,629.6874066800132,411.84138175224865,5.435344678184917E-20,-2.688296217621958E-13,-3.9476455929423563E-4,-0.0,0.0,-0.0,0.006753713823854923,0.02010519802570343,3.980865716934204,6.718944453085674
0.2199999988079071,2.0955645548482876E7,336.1841582365025,4.757598687065838E-17,2.095564555117952E7,8.282355906885641E-6,4.757598687065838E-17,-7.063406317943416,1528.1097723923058,4.3250714574608105E-16,1.499355744525633E-18,1.1292704862975482E-4,7.038891381607168,29999.225720204413,2.264516436541294E-11,1.300796602615332E-22,32.106538328331496,-1.7702692214473496E-37,2.20695314895408E-32,-9.191763317380538E-4,0.0,0.0,6.718855644083851E-19,-422.33348289643004,994.8521100050947,8.907120924938386E-4,629.6893723662888,411.8416263612857,6.184849143310481E-20,-2.803010593097611E-13,-4.3325709129674755E-4,-0.0,0.0,-0.0,0.007075314410030842,0.022065607830882072,4.170429229736328,7.038891381607168
0.23000000417232513,2.0955645476243507E7,351.46525593429726,5.199935411454664E-17,2.0955645479190867E7,9.463747801419231E-6,5.199935411454663E-17,-7.384467170082892,1528.109767124503,4.521661729270149E-16,1.5673078163758565E-18,1.234259645152835E-4,7.358837918400038,29999.15373155102,2.5875261534462186E-11,1.4217378945107022E-22,32.10653854927846,-1.8507360084770968E-37,2.2069531489474786E-32,-9.609570762905548E-4,0.0,0.0,6.718855644083851E-19,-441.53027510400227,994.8524191873714,8.907144487046547E-4,629.6914294842672,411.8418823473769,4.932498711799433E-20,-2.914234519491906E-13,-4.735401162497813E-4,-0.0,0.0,-0.0,0.007396914064884186,0.024117205291986465,4.359992027282715,7.358837918400038
0.23999999463558197,2.0955645400793534E7,366.74635357824343,5.661931114505689E-17,2.0955645404002763E7,1.0752461776064592E-5,5.661931114505689E-17,-7.705527612694216,1528.1097616225754,4.718252681591199E-16,1.6353530162427165E-18,1.343914871832628E-4,7.678784045656946,29999.078543446958,2.9398792891702875E-11,1.5480542378953094E-22,32.10653878004515,-1.9312027960717338E-37,2.2069531489405846E-32,-0.0010027378211364907,0.0,0.0,6.718855644083851E-19,-460.7270427394168,994.852742110789,8.907169096395857E-4,629.6935780342494,411.84214971046947,3.9922054660450345E-20,-3.021691700630385E-13,-5.156136536017552E-4,-0.0,0.0,0.0,0.0077185132540762424,0.026259994134306908,4.54955530166626,7.678784045656946
0.25,2.0955645322132956E7,382.0274511659996,6.14358581358204E-17,2.0955645325615197E7,1.2153163993389171E-5,6.143585813582041E-17,-8.026587627970194,1528.109755886523,4.914841205869929E-16,1.7031815791198962E-18,1.4582361504877363E-4,7.998729745570358,29999.000155881047,3.3228516408435395E-11,1.679745637632199E-22,32.10653902063161,-2.0116695842558168E-37,2.2069531489333966E-32,-0.001044518566288618,0.0,0.0,6.718855644083851E-19,-479.9237847342215,994.8530787753822,8.907194752996631E-4,629.6958180173141,411.84242845060334,6.604961170204534E-20,-3.1248276410861444E-13,-5.594777236658911E-4,-0.0,0.0,0.0,0.008040111511945724,0.02849397249519825,4.739117622375488,7.998729745570358
0.25999999046325684,2.0955645240261782E7,397.30854869522466,6.644899428031212E-17,2.0955645244028166E7,1.3670520502273575E-5,6.644899428031212E-17,-8.347647198103417,1528.1097499163463,5.111430170256426E-16,1.7710814104262343E-18,1.577223467545556E-4,8.318675000332519,29998.918568849564,3.7377189745591275E-11,1.8168120717904411E-22,32.10653927103783,-2.0921363730539073E-37,2.206953148925915E-32,-0.0010862993117596953,0.0,0.0,6.718855644083851E-19,-499.1205000199511,994.8534291811534,8.907221456857044E-4,629.6981494343604,411.842718567792,3.601587730547777E-20,-3.223249494668504E-13,-6.051323476196795E-4,-0.0,0.0,0.0,0.00836170930415392,0.03081914409995079,4.928680419921875,8.318675000332519
0.27000001072883606,2.095564515518001E7,412.58964616357736,7.165871904802443E-17,2.095564515924169E7,1.5309197351598414E-5,7.165871904802444E-17,-8.668706305286266,1528.1097437120447,5.308018782189962E-16,1.838974344511841E-18,1.7008768048888578E-4,8.63861979213548,29998.83378237486,4.185757056458898E-11,1.9592535259907468E-22,32.10653953126377,0.0,0.0,-0.0011280800575624804,0.0,0.0,6.718855644083851E-19,-518.3171875281288,994.8537933279925,8.907249207977009E-4,629.7005722855739,411.84302006195634,8.374633343925938E-21,-3.31624985436815E-13,-6.525775475043734E-4,-0.0,0.0,0.0,0.00868330616503954,0.03323550894856453,5.118242263793945,8.63861979213548
0.2800000011920929,2.0955645066887654E7,427.87074356871636,7.706503067015231E-17,2.095564507125577E7,1.7073860419714038E-5,7.706503067015231E-17,-8.989764931710893,1528.1097372736185,5.504604867626171E-16,1.9066440673770618E-18,1.8291961444032618E-4,8.958564103171046,29998.745796453208,4.6682416061098913E-11,2.1070699520018995E-22,32.10653980130943,-4.506139905180701E-37,4.4139062978201437E-32,-0.00116986080370973,0.0,0.0,6.718855644083851E-19,-537.5138461902627,994.8541712159008,8.907278006365256E-4,629.703086571918,411.8433329331098,6.247934370584065E-20,-3.403106648201177E-13,-7.018133462260926E-4,-0.0,0.0,-0.0,0.009004902094602585,0.035743068903684616,5.307804107666016,8.958564103171046
0.28999999165534973,2.0955644975384716E7,443.1518409083005,8.266792942362234E-17,2.0955644980070416E7,1.896917598287473E-5,8.266792942362235E-17,-9.310823059569218,1528.1097306010677,5.701191722502372E-16,1.9744212632055347E-18,1.9621814657035021E-4,9.278507915630797,29998.65461109951,5.1864484519244567E-11,2.260261357530882E-22,32.106540081174764,-4.667073486755642E-37,4.4139062978034195E-32,-0.0012116415502142024,0.0,0.0,6.718855644083851E-19,-556.7104749378478,994.8545628447988,8.907307852024711E-4,629.705692293856,411.8436571811998,9.151605691726573E-20,-3.4829059197294615E-13,-7.52839767554821E-4,-0.0,0.0,0.0,0.009326497092843056,0.03834182396531105,5.497365474700928,9.278507915630797
0.30000001192092896,2.0955644880671196E7,458.4329381799885,8.846741604351754E-17,2.0955644885685615E7,2.099980974890059E-5,8.846741604351756E-17,-9.63188067105292,1528.1097236943922,5.897781813799257E-16,2.042553720531473E-18,2.099832759775844E-4,9.598451211706081,29998.56022629887,5.741653266951317E-11,2.418827762816265E-22,32.10654037085981,-4.828007069755074E-37,4.4139062977861113E-32,-0.0012534222970886546,0.0,0.0,6.718855644083851E-19,-575.9070727023649,994.8549682147348,8.907338744968326E-4,629.7083894527351,411.84399280627946,8.897657242340917E-20,-3.555662375871048E-13,-8.056568361256562E-4,-0.0,0.0,-0.0,0.009648091159760952,0.04103177413344383,5.68692684173584,9.598451211706081
0.3100000023841858,2.0955644782747105E7,473.7140353814392,9.446349081372022E-17,2.0955644788101394E7,2.31704277098288E-5,9.446349081372022E-17,-9.952937748353426,1528.1097165535919,6.094369291244605E-16,2.1104575026150396E-18,2.2421499903245616E-4,9.918393973587973,29998.462642077357,6.335131802004758E-11,2.582769175765055E-22,32.10654067036451,9.706282596619735E-20,1.097079696060707E-24,-0.0012952030443458445,0.0,0.0,6.718855644083851E-19,-595.1036384152784,994.8553873255803,8.907370685195932E-4,629.7111780487638,411.84433980825645,9.563799358140553E-20,-3.6191331252310493E-13,-8.602645774368591E-4,-0.0,0.0,0.0,0.009969684295356274,0.04381292313337326,5.876487731933594,9.918393973587973
0.3199999928474426,2.0955644681612443E7,488.99513251031124,1.0065615125433813E-16,2.0955644687317736E7,2.5485695857696555E-5,1.0065615125433813E-16,-10.273994273661904,1528.109709178667,6.290952345230262E-16,2.1779527391377026E-18,2.3891331574365664E-4,10.23833618346731,29998.361858420074,6.968159807957508E-11,2.7520855287235755E-22,32.10654097968888,9.706282596579088E-20,1.1324694100201768E-24,-0.0013369837919985287,0.0,0.0,6.718855644083851E-19,-614.3001710080385,994.8558201773824,8.907403672721055E-4,629.7140580833543,411.84469818718406,1.1676251528664877E-20,-3.6741432592724384E-13,-9.166630178521996E-4,-0.0,0.0,0.0,0.01029127649962902,0.04668527469038963,6.0660481452941895,10.23833618346731
0.33000001311302185,2.095564457726722E7,504.2762295642633,1.0704539364657414E-16,2.0955644583334666E7,2.795028029822788E-5,1.0704539364657416E-16,-10.595050229169253,1528.1097015696175,6.487534782103192E-16,2.2454211553096956E-18,2.540782236190516E-4,10.558277823534649,29998.257875349373,7.642013066826304E-11,2.926776720169604E-22,32.10654129883288,9.706282596537151E-20,1.1678590801862367E-24,-0.0013787645400594652,0.0,0.0,6.718855644083851E-19,-633.496669412079,994.8562667700273,8.907437707545307E-4,629.7170295568859,411.8450679429831,9.03595821629213E-20,-3.719433844873387E-13,-9.748521845985683E-4,-0.0,0.0,-0.0,0.010612867772579193,0.04964882507920265,6.255608558654785,10.558277823534649
0.3400000035762787,2.0955644469711438E7,519.5573265409544,1.1363122080176306E-16,2.0955644476152185E7,3.056884645502578E-5,1.1363122080176308E-16,-10.916105597066093,1528.1096937264433,6.68411993548435E-16,2.3131972037571397E-18,2.697097192572965E-4,10.878218875980274,29998.150692868978,8.357967174188403E-11,3.1068428271291453E-22,32.10654162779648,1.9412565192987852E-19,2.4064975896956244E-24,-0.0014205452885414107,0.0,0.0,6.718855644083851E-19,-652.6931325588164,994.8567271034813,8.907472789676692E-4,629.7200924703036,411.8454490756408,1.3347930471111097E-19,-3.7528333510231713E-13,-0.0010348321057677013,-0.0,0.0,0.0,0.010934458114206791,0.052703578025102615,6.445168495178223,10.878218875980274
0.3499999940395355,2.095564435894511E7,534.8384234380429,1.2041363252357906E-16,2.095564436577029E7,3.334606071803137E-5,1.2041363252357906E-16,-11.237160359542763,1528.1096856491442,6.880704807128637E-16,2.3809821505182223E-18,2.8580780153106923E-4,11.198159322994176,29998.040310975164,9.117297989896247E-11,3.292283844399314E-22,32.106541966579705,1.941256519289882E-19,2.4772769314751595E-24,-0.0014623260374571226,0.0,0.0,6.718855644083851E-19,-671.8895593796506,994.8572011777414,8.907508919125919E-4,629.7232468247964,411.8458415851706,7.250115606060423E-20,-3.7742549120541716E-13,-0.0010966028103159223,-0.0,0.0,0.0,0.01125604659318924,0.05584953352808952,6.634727954864502,11.198159322994176
0.36000001430511475,2.095564424496823E7,550.1195202531879,1.2739262784828422E-16,2.0955644252188995E7,3.628658862453449E-5,1.2739262784828424E-16,-11.558214498789308,1528.1096773377205,7.077288287371024E-16,2.4486661196564277E-18,3.023724684038372E-4,11.518099146766067,29997.926729679108,9.921281140741224E-11,3.4830997457999867E-22,32.106542315182516,1.9412565192807204E-19,2.548056274010806E-24,-0.0015041067868193586,0.0,0.0,6.718855644083851E-19,-691.085948805964,994.8576889927406,8.907546095899107E-4,629.72649262116,411.84624547153317,1.4631857477892189E-19,-3.7828153975561375E-13,-0.0011601643280632744,-0.0,0.0,0.0,0.011577635072171688,0.059086695313453674,6.824286937713623,11.518099146766067
0.3700000047683716,2.095564412778082E7,565.400616984048,1.3456820840365332E-16,2.0955644135408312E7,3.939509599604207E-5,1.3456820840365334E-16,-11.879267996995466,1528.109668792172,7.273872907009369E-16,2.5165032815415856E-18,3.19403716475111E-4,11.838038329485347,29997.80994899571,1.0771192331291984E-10,3.6792905760116854E-22,32.10654267360486,-1.190908438952549E-36,8.827812595297023E-32,-0.001545887536640874,0.0,0.0,6.718855644083851E-19,-710.2822997691208,994.8581905483951,8.907584320001459E-4,629.7298298601175,411.84666073467594,1.7459506344268298E-19,-3.7762446627749067E-13,-0.0012255166896938427,-0.0,0.0,-0.0,0.011899221688508987,0.06241506710648537,7.013845920562744,11.838038329485347
0.3799999952316284,2.0955644007382877E7,580.681713628282,1.4194037226561557E-16,2.0955644015428238E7,4.267624854037422E-5,1.419403722656156E-16,-12.200320836350668,1528.1096600124986,7.470454793993801E-16,2.584107521791084E-18,3.369015439363016E-4,12.157976853341099,29997.689968921244,1.1668307235103673E-10,3.880856282607234E-22,32.10654304184676,-2.4461903163705382E-36,1.7655625190506033E-31,-0.0015876682869344278,0.0,0.0,6.718855644083851E-19,-729.4786112004659,994.8587058447006,8.90762359144454E-4,629.7332585429552,411.8470873746125,7.710222345990532E-20,-3.753844663154489E-13,-0.0012926599267567523,-0.0,0.0,0.0,0.012220807373523712,0.065834641456604,7.203404426574707,12.157976853341099
0.38999998569488525,2.0955643883774407E7,595.9628101835486,1.495091152617187E-16,2.0955643892248776E7,4.6134712533785205E-5,1.4950911526171873E-16,-12.521372999044022,1528.1096509987005,7.66702940676798E-16,2.6510257753935374E-18,3.548659492064791E-4,12.4779147005221,29997.566789459437,1.261390168122166E-10,4.0877967516903597E-22,32.106543419908206,-2.510563755582596E-36,1.7655625190415667E-31,-0.001629449037712776,0.0,0.0,6.718855644083851E-19,-748.674882031326,994.8592348816202,8.907663910237753E-4,629.7367786707784,411.84752539133,1.3575438161895881E-19,-3.7152307511187984E-13,-0.001361594071665102,-0.0,0.0,-0.0,0.012542392127215862,0.06934542953968048,7.392962455749512,12.4779147005221
0.4000000059604645,2.095564375695542E7,611.2439066475068,1.5727443718735944E-16,2.0955643765869938E7,4.9775153456721455E-5,1.5727443718735941E-16,-12.842424467264308,1528.1096417507777,7.863611574409892E-16,2.7187420407914477E-18,3.7329692843126103E-4,12.797851853216782,29997.440410621464,1.3609251281179898E-10,4.300111977856471E-22,32.10654380778915,0.0,0.0,-0.0016712297889886762,0.0,0.0,6.718855644083851E-19,-767.871111193007,994.8597776590843,8.907705276388367E-4,629.7403902445134,411.84797478478913,2.1715841483923297E-19,-3.6575715510035317E-13,-0.0014323191576958497,-0.0,0.0,-0.0,0.012863975949585438,0.0729474276304245,7.582520008087158,12.797851853216782
0.4099999964237213,2.095564362692592E7,626.5250030178153,1.6523634085932077E-16,2.095564363629174E7,5.36022371306899E-5,1.6523634085932077E-16,-13.16347522319997,1528.10963226873,8.060195068034576E-16,2.786634520152681E-18,3.921944798029132E-4,13.117788293613257,29997.310832422227,1.465563173983919E-10,4.517802038315001E-22,32.106544205489556,-2.6393106363251592E-36,1.7655625190227906E-31,-0.0017130105407748856,0.0,0.0,6.718855644083851E-19,-787.0672976167955,994.8603341770071,8.907747689902699E-4,629.7440932650107,411.8484355549372,2.4057336348153083E-19,-3.5802339811329E-13,-0.0015048352189899318,-0.0,0.0,-0.0,0.013185557909309864,0.07664064317941666,7.7720770835876465,13.117788293613257
0.41999998688697815,2.0955643493685916E7,641.8060992921326,1.7339482661723098E-16,2.095564350351418E7,5.76206291498238E-5,1.7339482661723103E-16,-13.484525249039105,1528.1096225525575,8.256775869304844E-16,2.8543024704437005E-18,4.115586008318653E-4,13.437724003899287,29997.17805486545,1.575431869997098E-10,4.74086694255129E-22,32.10654461300942,-2.7036840778949534E-36,1.76556251901305E-31,-0.0017547912930841586,0.0,0.0,6.718855644083851E-19,-806.2634402339572,994.8609044353501,8.907791150791015E-4,629.7478877334739,411.84890770176156,1.0888615897057892E-19,-3.4818704601581906E-13,-0.001579142290553047,-0.0,0.0,0.0,0.013507138937711716,0.08042507618665695,7.961633682250977,13.437724003899287
0.4300000071525574,2.0955643357235417E7,657.0871954681174,1.817498897975549E-16,2.095564336753726E7,6.183499488088273E-5,1.817498897975549E-16,-13.805574526969455,1528.1096126022603,8.453349397244533E-16,2.921288884755311E-18,4.31389288574084E-4,13.757658966262259,29997.042077943683,1.6906587742259314E-10,4.969306563261831E-22,32.10654503034875,-2.7680575202899536E-36,1.7655625190030748E-31,-0.0017965720459292539,0.0,0.0,6.718855644083851E-19,-825.4595379757355,994.8614884341221,8.907835659067513E-4,629.7517736514571,411.849391225289,1.6703892975200376E-19,-3.3606042946667784E-13,-0.001655240408255809,-0.0,0.0,-0.0,0.013828718103468418,0.08430071920156479,8.151189804077148,13.757658966262259
0.4399999976158142,2.0955643217574425E7,672.3682915434288,1.9030152858036163E-16,2.0955643228361E7,6.625000048643415E-5,1.9030152858036168E-16,-14.126623039178401,1528.1096024178382,8.649926345490347E-16,2.9886642174869786E-18,4.516865400858218E-4,14.07759316288923,29996.902901683003,1.8113714665055457E-10,5.203120850896319E-22,32.10654545750749,-2.832430963529804E-36,1.765562518992865E-31,-0.0018383527993229276,0.0,0.0,6.718855644083851E-19,-844.6555897733538,994.8620861731873,8.907881214735727E-4,629.7557510195907,411.84988612542736,1.546312846088369E-19,-3.2145331718059514E-13,-0.001733129608831068,-0.0,0.0,-0.0,0.014150296337902546,0.08826758712530136,8.34074592590332,14.07759316288923
0.44999998807907104,2.0955643074702956E7,687.6493875157253,1.990497432482601E-16,2.0955643085985404E7,7.087031133323762E-5,1.9904974324826015E-16,-14.447670767852948,1528.1095919992915,8.846502422652405E-16,3.0560004204026376E-18,4.7245035265098894E-4,14.397526575966854,29996.760526087135,1.9376975049209E-10,5.442309813395867E-22,32.1065458944856,-8.690413222902453E-36,5.296687556947261E-31,-0.0018801335532779358,0.0,0.0,6.718855644083851E-19,-863.8515945580112,994.8626976525057,8.907927817806745E-4,629.7598198391725,411.85039240216366,1.6203042584990648E-19,-3.042022717786977E-13,-0.0018128099298771049,-0.0,0.0,-0.0,0.014471872709691525,0.09232567250728607,8.530301094055176,14.397526575966854
0.46000000834465027,2.0955642928621013E7,702.9304833826657,2.0799453107368855E-16,2.0955642940410472E7,7.570059290173958E-5,2.079945310736886E-16,-14.768717695179724,1528.10958134662,9.04307465591475E-16,3.123001302682292E-18,4.936807237811543E-4,14.717459187681424,29996.61495115608,2.069764450673885E-10,5.686873376404066E-22,32.1065463412831,-5.922355705245282E-36,3.531125037943482E-31,-0.001921914307807035,0.0,0.0,6.718855644083851E-19,-883.0475512608855,994.8633228720525,8.907975468293206E-4,629.7639801116431,411.8509100554986,2.9722467424923724E-19,-2.841745584364236E-13,-0.0018942814098566931,-0.0,0.0,-0.0,0.014793448150157928,0.09647498279809952,8.719856262207031,14.717459187681424
0.4699999988079071,2.0955642779328607E7,718.2115791419087,2.1713589224448168E-16,2.095564279163622E7,8.074551089976012E-5,2.1713589224448168E-16,-15.089763803344967,1528.1095704598235,9.239643838851685E-16,3.1897473125548206E-18,5.153776493965562E-4,15.037390980218833,29996.466176904738,2.2076998711918838E-10,5.936811545280607E-22,32.106546797899945,-6.051102597029834E-36,3.531125037921655E-31,-0.0019636950629229807,0.0,0.0,6.718855644083851E-19,-902.2434588131299,994.8639618317384,8.90802416620312E-4,629.7682318380469,411.85143908537947,1.3793898904270995E-19,-2.6103284130470126E-13,-0.001977544088095764,-0.0,0.0,0.0,0.015115022659301758,0.1007155179977417,8.90941047668457,15.037390980218833
0.47999998927116394,2.0955642626825746E7,733.4926747911132,2.264738209009393E-16,2.0955642639662664E7,8.6009731262493E-5,2.2647382090093937E-16,-15.410809074534516,1528.109559338902,9.436207772858747E-16,3.256019680397643E-18,5.375411276914545E-4,15.357321935764595,29996.31420334801,2.351631340127965E-10,6.192124160041698E-22,32.10654726433608,-6.179849490661255E-36,3.531125037899357E-31,-0.002005475818638531,0.0,0.0,6.718855644083851E-19,-921.4393161458758,994.8646145314734,8.908073911544802E-4,629.772575019462,411.85197949175387,2.175540298862597E-19,-2.3473278311271597E-13,-0.00206259800478432,-0.0,0.0,-0.0,0.015436594374477863,0.10504727810621262,9.09896469116211,15.357321935764595
0.49000000953674316,2.095564247111243E7,748.7737703279378,2.3600831565897305E-16,2.0955642484489787E7,9.149791912932415E-5,2.360083156589731E-16,-15.731853490933807,1528.1095479838557,9.632783880988202E-16,3.3235618022858313E-18,5.601711554961515E-4,15.677252036503793,29996.159030470997,2.501686409385807E-10,6.452811183078211E-22,32.10654774059156,0.0,0.0,-0.0020472565749664424,0.0,0.0,6.718855644083851E-19,-940.6351221902275,994.8652809712951,8.908124704336606E-4,629.7770096578507,411.8525312746753,2.0966076453260764E-19,-2.0505680139041479E-13,-0.002149443200978758,-0.0,0.0,-0.0,0.01575816608965397,0.10947026312351227,9.288517951965332,15.677252036503793
0.5,2.0955642312188677E7,764.054865750041,2.457393825321999E-16,2.0955642326117624E7,9.721473929857893E-5,2.4573938253219996E-16,-16.052897034727852,1528.1095363946847,9.829351484763051E-16,3.3903069213931917E-18,5.832677289591129E-4,15.997181264621103,29996.000658307225,2.6579926215533434E-10,6.718872779049976E-22,32.10654822666627,-6.437343283621865E-36,3.5311250378533537E-31,-0.002089037331919468,0.0,0.0,6.718855644083851E-19,-959.8308758772662,994.8659611510324,8.908176544581287E-4,629.7815357538215,411.85309443402497,2.270810771376683E-19,-1.7169113733018452E-13,-0.002238079718595914,-0.0,0.0,0.0,0.01607973501086235,0.11398448795080185,9.478071212768555,15.997181264621103
0.5099999904632568,2.0955642150054496E7,779.3359610550821,2.556670184912385E-16,2.0955642164546166E7,1.0316485781913798E-4,2.556670184912385E-16,-16.373939688101252,1528.1095245713886,1.0025917554017476E-15,3.4569531120377505E-18,6.068308451385849E-4,16.317109602300786,29995.839086849242,2.820677553420052E-10,6.990308865373006E-22,32.10654872256024,-6.566090183029631E-36,3.531125037829648E-31,-0.002130818089510366,0.0,0.0,6.718855644083851E-19,-979.0265761380472,994.8666550706901,8.908229432295336E-4,629.7861533091891,411.85366896983,1.4471866206667327E-20,-1.3444416613963419E-13,-0.0023285076004199243,-0.0,0.0,0.0,0.016401303932070732,0.11858994513750076,9.667623519897461,16.317109602300786
0.5199999809265137,2.095564198470989E7,794.6170562407195,2.6579121814400534E-16,2.0955641999775436E7,1.0935294096725556E-4,2.657912181440054E-16,-16.69498143323817,1528.1095125139677,1.022248370416253E-15,3.523663006250734E-18,6.308605013204726E-4,16.63703703172667,29995.674316119403,2.9898687880018773E-10,7.26711929486851E-22,32.106549228273416,-6.694837084441428E-36,3.5311250378054722E-31,-0.002172598847751892,0.0,0.0,6.718855644083851E-19,-998.2222219036003,994.8673627301436,8.908283367485751E-4,629.7908623249469,411.8542548820112,2.1630528107080845E-19,-9.316060184881166E-14,-0.002420726890096583,-0.0,0.0,-0.0,0.016722869127988815,0.12328663468360901,9.85717487335205,16.63703703172667
0.5299999713897705,2.0955641816154867E7,809.8981513046122,2.7611198442967546E-16,2.095564183180543E7,1.1578365285913605E-4,2.761119844296755E-16,-17.016022252322326,1528.1095002224217,1.041905149654398E-15,3.590593829561964E-18,6.553566934267217E-4,16.956963535082135,29995.50634611398,3.165693849265785E-10,7.549304148151367E-22,32.10654974380579,-6.823583987896545E-36,3.531125037780829E-31,-0.0022143796066568027,0.0,0.0,6.718855644083851E-19,-1017.4178121049281,994.8680841293806,8.90833835016835E-4,629.795662802867,411.8548521705827,3.239966046832969E-19,-4.748936788022778E-14,-0.002514737632137993,-0.0,0.0,0.0,0.0170444343239069,0.1280745565891266,10.04672622680664,16.956963535082135
0.5400000214576721,2.0955641644389443E7,825.1792462444188,2.8662932084392493E-16,2.0955641660636168E7,1.2246165920259955E-4,2.86629320843925E-16,-17.33706212753699,1528.1094876967509,1.061561982550754E-15,3.6576361075244E-18,6.803194182890593E-4,17.276889094550103,29995.3351768516,3.3482803047059575E-10,7.836863521056935E-22,32.106550269157324,-1.9412565190716875E-19,-3.822084328738644E-24,-0.0022561603662378522,0.0,0.0,6.718855644083851E-19,-1036.6133456730063,994.8688192682915,8.908394380351928E-4,629.8005547441143,411.85546083547854,1.8053137116780057E-19,2.791205248804987E-15,-0.0026105398719183707,-0.0,0.0,0.0,0.017365997657179832,0.1329537332057953,10.236276626586914,17.276889094550103
0.550000011920929,2.0955641469413627E7,840.4603410577981,2.9734322272792773E-16,2.0955641486267645E7,1.293916255917793E-4,2.9734322272792773E-16,-17.65810104106497,1528.109474936955,1.0812184669284272E-15,3.72438875425254E-18,7.057486727394967E-4,17.59681369231305,29995.16080832854,3.537755718718541E-10,8.129797286469518E-22,32.106550804328016,-1.9412565190576229E-19,-3.892863689744625E-24,-0.002297941126507798,0.0,0.0,6.718855644083851E-19,-1055.808821538783,994.869568146863,8.908451458052867E-4,629.8055381505251,411.85608087671267,3.5841380932762043E-19,5.78998951283023E-14,-0.0027081336556780793,-0.0,0.0,0.0,0.017687559127807617,0.13792414963245392,10.425827026367188,17.59681369231305
0.5600000023841858,2.0955641291227426E7,855.7414357424087,3.0825369194294997E-16,2.0955641308699895E7,1.3657821705237438E-4,3.0825369194295E-16,-17.979138975088624,1528.1094619430341,1.1008750532209277E-15,3.7913032942939585E-18,7.316444522460878E-4,17.916737310552993,29994.983240578324,3.734247640168372E-10,8.428105495547161E-22,32.10655134931776,0.0,0.0,-0.0023397218874793933,0.0,0.0,6.718855644083851E-19,-1075.0042386331795,994.8703307649205,8.90850958327565E-4,629.8106130229036,411.85671229416636,2.7056505787927102E-19,1.1826563429194447E-13,-0.002807519030517889,-0.0,0.0,-0.0,0.018009118735790253,0.14298580586910248,10.615376472473145,17.916737310552993
0.5699999928474426,2.095564110983085E7,871.0225302959095,3.1936072104817807E-16,2.0955641127932906E7,1.4402609861008386E-4,3.193607210481781E-16,-18.300175911789808,1528.1094487149883,1.120531157929127E-15,3.857797319586949E-18,7.58006754550908E-4,18.23665993145145,29994.802473589778,3.937883617931004E-10,8.731787945120409E-22,32.106551904126604,-1.4677143245871985E-35,7.062250075355114E-31,-0.002381502649165396,0.0,0.0,6.718855644083851E-19,-1094.1995958870868,994.871107122481,8.908568756039672E-4,629.8157793633637,411.8573550878799,2.1015446129872689E-19,1.8396562802728136E-13,-0.002908696044407015,-0.0,0.0,0.0,0.01833067648112774,0.14813870191574097,10.804925918579102,18.23665993145145
0.5799999833106995,2.0955640925223902E7,886.3036247159592,3.30664310802625E-16,2.0955640943966687E7,1.5173993597272784E-4,3.30664310802625E-16,-18.621211833349918,1528.1094352528175,1.1401870927033001E-15,3.924183571502578E-18,7.848355755773283E-4,18.556581537189466,29994.618507370353,4.148791219543079E-10,9.040844656219953E-22,32.10655246875452,-1.941256519013881E-19,-4.105200367527697E-24,-0.0024232834115785603,0.0,0.0,6.718855644083851E-19,-1113.394892231368,994.8718972194813,8.908628976358514E-4,629.8210371735196,411.8580092578275,3.478314866948794E-19,2.553570394221739E-13,-0.0030116647461769543,-0.0,0.0,0.0,0.018652232363820076,0.15338285267353058,10.994474411010742,18.556581537189466
0.5899999737739563,2.095564073740661E7,901.5847190002168,3.421644643012553E-16,2.0955640756801274E7,1.597243939386317E-4,3.421644643012554E-16,-18.942246721949846,1528.1094215565215,1.159843892238923E-15,3.991497836642465E-18,8.121309105668833E-4,18.87650210994762,29994.4313419573,4.367097987685422E-10,9.355275713749712E-22,32.106553043201394,-1.5192130907474297E-35,7.062250075246206E-31,-0.0024650641747316405,0.0,0.0,6.718855644083851E-19,-1132.590126596857,994.8727010557293,8.908690244236287E-4,629.8263864541658,411.8586748038773,3.586453543943961E-19,3.329140278810238E-13,-0.0031164251855198407,-0.0,0.0,0.0,0.018973786383867264,0.1587182581424713,11.184021949768066,18.87650210994762
0.6000000238418579,2.0955640546378974E7,916.8658131463405,3.538611809074415E-16,2.0955640566436652E7,1.6798413730612083E-4,3.538611809074416E-16,-19.26328055976998,1528.1094076261006,1.1794998955591248E-15,4.058080229294316E-18,8.398927570351287E-4,19.196421631905935,29994.24097733572,4.5929314650501596E-10,9.67508110059137E-22,32.106553627467285,1.9412565189834286E-19,4.246761925478395E-24,-0.0025068449386373925,0.0,0.0,6.718855644083851E-19,-1151.785297914356,994.8735186312564,8.908752559694447E-4,629.8318272076193,411.8593517260828,4.0778481413666827E-19,4.167402956998277E-13,-0.0032229774129975425,-0.0,0.0,0.0,0.019295338541269302,0.16414493322372437,11.373568534851074,19.196421631905935
0.6100000143051147,2.0955640352141004E7,932.1469071519895,3.6575446078250438E-16,2.0955640372872844E7,1.7652383155564166E-4,3.6575446078250447E-16,-19.584313328990206,1528.1093934615546,1.1991556075323259E-15,4.1244367090657175E-18,8.681211102241688E-4,19.516340085243964,29994.047413527966,4.82641921299109E-10,1.0000260821448604E-21,32.10655422155211,1.9412565189678156E-19,4.317542000162118E-24,-0.002548625703308572,0.0,0.0,6.718855644083851E-19,-1170.980405114638,994.8743499459335,8.908815922742567E-4,629.8373594351664,411.8600400243653,3.1417515630356466E-19,5.073127633538328E-13,-0.003331321480031759,-0.0,0.0,-0.0,0.01961688883602619,0.16966284811496735,11.563115119934082,19.516340085243964
0.6200000047683716,2.095564015469271E7,947.4280010148225,3.7784429500591134E-16,2.0955640176109854E7,1.853481423950143E-4,3.7784429500591144E-16,-19.90534501178988,1528.1093790628836,1.2188110517174898E-15,4.190591926141031E-18,8.968159665132615E-4,19.83625745214073,29993.85065053776,5.067688799090428E-10,1.033081463271888E-21,32.10655482545586,1.9412565189519447E-19,4.388320663713545E-24,-0.002590406468757935,0.0,0.0,6.718855644083851E-19,-1190.175447128444,994.875194999711,8.908880333396561E-4,629.8429831386553,411.8607396987119,2.5449263594312813E-19,6.049209486626061E-13,-0.0034414574389103024,-0.0,0.0,0.0,0.019938437268137932,0.17527201771736145,11.75266170501709,19.83625745214073
0.6299999952316284,2.0955639954034105E7,962.709094732498,3.9013068133862953E-16,2.0955639976147696E7,1.9446173416781676E-4,3.901306813386296E-16,-20.22637559034784,1528.1093644300875,1.238466641376555E-15,4.25696023371084E-18,9.259773220545744E-4,20.15617371477473,29993.650688380003,5.316867753641889E-10,1.0666742473486536E-21,32.10655543917849,-3.2444212573895334E-35,1.4124500150034264E-30,-0.0026321872349982342,0.0,0.0,6.718855644083851E-19,-1209.3704228864838,994.8760537924904,8.908945791669004E-4,629.8486983196499,411.86145074907046,4.2979704471304227E-19,7.098908330628376E-13,-0.0035533853427836015,-0.0,0.0,0.0,0.020259985700249672,0.18097247183322906,11.942206382751465,20.15617371477473
0.6399999856948853,2.09556397501652E7,977.9901883026749,4.026136259938362E-16,2.0955639772986382E7,2.0386927144500078E-4,4.026136259938362E-16,-20.547405046842385,1528.109349563166,1.2581226102531097E-15,4.323776466648371E-18,9.556051725458129E-4,20.476088855323916,29993.447527065873,5.574083613167999E-10,1.1008044513936598E-21,32.106556062719974,1.9412565189194285E-19,4.529879407305956E-24,-0.0026739680020422237,0.0,0.0,6.718855644083851E-19,-1228.565331319435,994.8769263241892,8.90901229757395E-4,629.8545049798511,411.86217317540184,2.522656152268853E-19,8.226280368715898E-13,-0.0036671052456664468,-0.0,0.0,0.0,0.020581530407071114,0.1867641806602478,12.13175106048584,20.476088855323916
0.6499999761581421,2.0955639543086007E7,993.2712817230122,4.152931244907871E-16,2.0955639566625927E7,2.1357542004807328E-4,4.152931244907872E-16,-20.86843336345127,1528.1093344621197,1.2777779910988075E-15,4.390074467925985E-18,9.856995145944626E-4,20.796002855965718,29993.24116661027,5.839463948395552E-10,1.1354720631871585E-21,32.106556696080254,1.9412565189027832E-19,4.600658781165132E-24,-0.002715748769902662,0.0,0.0,6.718855644083851E-19,-1247.7601713579431,994.877812594708,8.909079851124528E-4,629.8604031208865,411.8629069776538,5.276957549950544E-19,9.433753128935367E-13,-0.0037826172024370257,-0.0,0.0,-0.0,0.020903073251247406,0.19264715909957886,12.321294784545898,20.796002855965718
0.6600000262260437,2.0955639332796536E7,1008.5523749911682,4.2816917620367603E-16,2.0955639357066326E7,2.2358484409323864E-4,4.2816917620367603E-16,-21.1894605223517,1528.109319126948,1.297432336504664E-15,4.455407919912155E-18,0.001016260342989303,21.11591569887698,29993.03160700947,6.113136283438352E-10,1.1706770810498574E-21,32.10655733925935,-3.398917574652586E-35,1.4124500149670934E-30,-0.002757529538592299,0.0,0.0,6.718855644083851E-19,-1266.9549419326188,994.8787126040268,8.909148452340255E-4,629.8663927449489,411.86365215584016,2.166033496091625E-19,1.0727030140300775E-12,-0.003899921268840033,-0.0,0.0,0.0,0.0212246123701334,0.19862140715122223,12.51083755493164,21.11591569887698
0.6700000166893005,2.0955639119296797E7,1023.833468104802,4.4124177270155255E-16,2.0955639144307613E7,2.339022088335696E-4,4.4124177270155265E-16,-21.5104865057203,1528.1093035576512,1.3170867211318216E-15,4.520852575135616E-18,0.0010472876538836417,21.435827366234015,29992.818848297,6.395228173506487E-10,1.206419481962551E-21,32.10655799225718,-3.4504163491273296E-35,1.4124500149546071E-30,-0.0027993103081238925,0.0,0.0,6.718855644083851E-19,-1286.1496419740408,994.8796263519652,8.909218101228718E-4,629.8724738531971,411.8644087098424,3.796047906184481E-19,1.2109370020128578E-12,-0.004019017501478815,-0.0,0.0,-0.0,0.021546151489019394,0.20468692481517792,12.700380325317383,21.435827366234015
0.6800000071525574,2.0955638902586807E7,1039.1145610615722,4.545109159320213E-16,2.095563892834978E7,2.445321786126442E-4,4.545109159320213E-16,-21.83151129573315,1528.1092877542294,1.336740954447458E-15,4.586218992196501E-18,0.0010787814434310699,21.755737840212532,29992.60289046541,6.685867148955997E-10,1.2426992712830118E-21,32.10655865507373,3.8825130377025984E-19,9.625993822507397E-24,-0.002841091078510194,0.0,0.0,6.718855644083851E-19,-1305.344270412752,994.8805538385182,8.909288797811218E-4,629.8786464479949,411.8651766396877,3.7137897930084577E-19,1.3583984242377347E-12,-0.004139905957826432,-0.0,0.0,-0.0,0.02186768874526024,0.21084372699260712,12.889922142028809,21.755737840212532
0.6899999976158142,2.0955638682666574E7,1054.3956538591372,4.679765974157325E-16,2.095563870919285E7,2.554794186835352E-4,4.679765974157324E-16,-22.15253487456573,1528.1092717166823,1.356395322065031E-15,4.651793876009544E-18,0.001110741706648596,22.075647102987695,29992.383733533323,6.985180765022879E-10,1.2795164258606869E-21,32.10655932770897,3.882513037667243E-19,9.767553994167799E-24,-0.0028828718497639597,0.0,0.0,6.718855644083851E-19,-1324.5388261792616,994.8814950635682,8.90936054210079E-4,629.8849105309924,411.86595594531065,4.126886866303549E-19,1.5156225038718796E-12,-0.004262586696216053,-0.0,0.0,-0.0,0.022189222276210785,0.21709179878234863,13.079463005065918,22.075647102987695
0.699999988079071,2.0955638459536117E7,1069.6767464951565,4.816388232104784E-16,2.0955638486836847E7,2.6674859350350744E-4,4.816388232104784E-16,-22.473557224392952,1528.10925544501,1.3760498628222416E-15,4.717617155769343E-18,0.0011431684385535125,22.395555136734075,29992.161377530545,7.293296555197812E-10,1.3168709622921859E-21,32.106560010162795,-3.604912678932718E-35,1.4124500149160206E-30,-0.0029246526218979422,0.0,0.0,6.718855644083851E-19,-1343.7333082040445,994.8824500269492,8.909433334107109E-4,629.8912661035531,411.86674662660585,5.079350869087653E-19,1.6831510258072478E-12,-0.004387059775842779,-0.0,0.0,0.0,0.02251075580716133,0.22343116998672485,13.269003868103027,22.395555136734075
0.7099999785423279,2.095563823319544E7,1084.9578389672884,4.954975933360146E-16,2.0955638261281762E7,2.7834436764351267E-4,4.954975933360147E-16,-22.794578327389114,1528.1092389392122,1.3957041313614886E-15,4.783244565403766E-18,0.001176061635755012,22.71546192362563,29991.9358224459,7.61034205609329E-10,1.3547628806657374E-21,32.10656070243525,1.9412565187974923E-19,5.025335054562368E-24,-0.0029664333949248967,0.0,0.0,6.718855644083851E-19,-1362.9277154175377,994.8834187286703,8.909507173853541E-4,629.8977131682441,411.86754868361385,4.11107056361475E-19,1.8612153711614205E-12,-0.00451332525677198,-0.0,0.0,-0.0,0.02283228561282158,0.2298618108034134,13.458542823791504,22.71546192362563
0.7200000286102295,2.0955638003644556E7,1100.2389312731916,5.095529092078051E-16,2.0955638032527614E7,2.9027140612924995E-4,5.095529092078051E-16,-23.11559816572791,1528.1092221992894,1.4153591663039133E-15,4.849715817622105E-18,0.0012094212932709572,23.035367445835693,29991.707068298012,7.936444816768888E-10,1.3931921848861313E-21,32.10656140452628,3.882513037558081E-19,1.0192231702307716E-23,-0.0030082141688575763,0.0,0.0,6.718855644083851E-19,-1382.1220467501416,994.8844011686124,8.909582061353965E-4,629.9042517268115,411.86836211626905,6.208316741928757E-19,2.050354895461937E-12,-0.004641383199928176,-0.0,0.0,-0.0,0.023153813555836678,0.23638375103473663,13.64808177947998,23.035367445835693
0.7300000190734863,2.0955637770883482E7,1115.520023410525,5.238047679583617E-16,2.0955637800574422E7,3.0253437330429733E-4,5.238047679583618E-16,-23.43661672158243,1528.1092052252413,1.4350121782774075E-15,4.914242631919967E-18,0.0012432474065742418,23.35527168553705,29991.47511510551,8.271732367647819E-10,1.432158867148433E-21,32.10656211643581,-1.1278227055919536E-34,4.2373500446272334E-30,-0.0030499949437087347,0.0,0.0,6.718855644083851E-19,-1401.316301132223,994.8853973466557,8.909657996622575E-4,629.9108817810363,411.8691869245061,6.335057656573526E-19,2.2510204322375E-12,-0.004771233667099596,-0.0,0.0,0.0,0.023475339636206627,0.24299699068069458,13.83761978149414,23.35527168553705
0.7400000095367432,2.0955637534912232E7,1130.8011153769473,5.382531641226972E-16,2.0955637565422192E7,3.151379332848592E-4,5.382531641226973E-16,-23.757633977125124,1528.1091880170677,1.4546665849969704E-15,4.980243814940104E-18,0.0012775399704559225,23.67517462490179,29991.239962875843,8.616332232950587E-10,1.471662912546257E-21,32.10656283816385,-3.810907800815938E-35,1.4124500148619438E-30,-0.0030917757194911266,0.0,0.0,6.718855644083851E-19,-1420.5104774941074,994.8864072627279,8.909734979677484E-4,629.9176033330499,411.87002310829916,4.3211684227088244E-19,2.463802631400325E-12,-0.004902876720940082,-0.0,0.0,0.0,0.023796861991286278,0.24970151484012604,14.0271577835083,23.67517462490179
0.75,2.095563729573081E7,1146.0822071701173,5.528980974671941E-16,2.095563732707094E7,3.2808675109663454E-4,5.528980974671942E-16,-24.078649914527833,1528.1091705747688,1.4743200347827702E-15,5.045368778531323E-18,0.0013122989803894631,23.995076246101412,29991.001611623913,8.970371961778825E-10,1.5117043204770392E-21,32.10656356971034,-7.724813168310146E-35,2.82490002969591E-30,-0.0031335564962175037,0.0,0.0,6.718855644083851E-19,-1439.7045747660848,994.8874309167239,8.909813010534645E-4,629.9244163848022,411.8708706675961,2.7875554376791443E-19,2.6891544413750268E-12,-0.0050363124249659915,-0.0,0.0,0.0,0.02411838248372078,0.2564973533153534,14.216693878173828,23.995076246101412
0.7599999904632568,2.0955637053339235E7,1161.3632987876936,5.677395605626299E-16,2.0955637085520666E7,3.413854917653225E-4,5.6773956056263E-16,-24.39966451596175,1528.1091528983445,1.49397280394607E-15,5.109894925677487E-18,0.0013475244325307334,24.31497653130678,29990.76006134972,9.333979103248585E-10,1.5522830706648724E-21,32.10656431107527,-7.827810737345937E-35,2.8249000296675568E-30,-0.0031753372739006204,0.0,0.0,6.718855644083851E-19,-1458.8985918784067,994.8884683086025,8.909892089215197E-4,629.9313209387034,411.8717296023976,4.650691366985791E-19,2.9273808309210247E-12,-0.0051715408435601936,-0.0,0.0,-0.0,0.024439901113510132,0.26338446140289307,14.406229972839355,24.31497653130678
0.7699999809265137,2.095563680773752E7,1176.6443902273352,5.82777551683421E-16,2.0955636840771407E7,3.550388189523801E-4,5.827775516834211E-16,-24.72067776359741,1528.109134987795,1.513625180057583E-15,5.1741109188512716E-18,0.001383216320534775,24.63487546268809,29990.515312090516,9.707281169190131E-10,1.5933991584289202E-21,32.10656506225853,-7.930808308770674E-35,2.8249000296388284E-30,-0.00321711805255323,0.0,0.0,6.718855644083851E-19,-1478.0925277612853,994.8895194381614,8.90997221572834E-4,629.9383169961293,411.872599912572,4.2920403213728753E-19,3.1793144641003258E-12,-0.005308562041962261,-0.0,0.0,-0.0,0.024761417880654335,0.270362913608551,14.595765113830566,24.63487546268809
0.7799999713897705,2.0955636558925685E7,1191.9254814867002,5.980120660022665E-16,2.0955636592823163E7,3.6905139609189064E-4,5.980120660022665E-16,-25.041689639604705,1528.10911684312,1.53327809736972E-15,5.23895210226447E-18,0.0014193746396485305,24.954773022414884,29990.267363846302,1.0090405665231805E-9,1.6350525706082915E-21,32.106565823260134,-8.033805882615774E-35,2.8249000296097245E-30,-0.003258898832188084,0.0,0.0,6.718855644083851E-19,-1497.286381344893,994.8905843053583,8.91005339009577E-4,629.9454045595539,411.8734815981201,4.55555682546823E-19,3.4454565888058324E-12,-0.005447376086282447,-0.0,0.0,-0.0,0.02508293278515339,0.2774326503276825,14.785298347473145,24.954773022414884
0.7900000214576721,2.0955636306903735E7,1207.2065725634482,6.13443108614501E-16,2.0955636341675952E7,3.8342788889167423E-4,6.134431086145011E-16,-25.36270012615285,1528.1090984643197,1.5529307130897422E-15,5.303576775020513E-18,0.0014559993855739763,25.274669192656045,29990.016216635704,1.0483480159184235E-9,1.6772433211725264E-21,32.10656659408002,-8.136803458912668E-35,2.824900029580245E-30,-0.0033006796128179374,0.0,0.0,6.718855644083851E-19,-1516.4801515593626,994.8916629100698,8.910135612333378E-4,629.9525836309522,411.8743746589766,5.490759487456441E-19,3.726205374688279E-12,-0.005587983043491133,-0.0,0.0,0.0,0.025404443964362144,0.28459370136260986,14.974832534790039,25.274669192656045
0.800000011920929,2.095563605167169E7,1222.4876634552375,6.290706821873149E-16,2.0955636087329786E7,3.9817296033106686E-4,6.290706821873149E-16,-25.683709205410384,1528.109079851394,1.5725830403941171E-15,5.367999205467867E-18,0.0014930905528765025,25.594563955579773,29989.761870469898,1.0886632144272477E-9,1.7199714174527532E-21,32.106567374718146,-8.239801037692772E-35,2.824900029550389E-30,-0.003342460394455539,0.0,0.0,6.718855644083851E-19,-1535.6738373347864,994.8927552522046,8.910218882459743E-4,629.9598542125418,411.8752790951025,3.9674387878691506E-19,4.02220516540057E-12,-0.005730382981423807,-0.0,0.0,0.0,0.02572595328092575,0.29184606671333313,15.1643648147583,25.594563955579773
0.8100000023841858,2.0955635793229565E7,1237.7687541597268,6.448947690665316E-16,2.0955635829784684E7,4.132912752083939E-4,6.448947690665316E-16,-26.004716859545184,1528.1090610043427,1.592234824630253E-15,5.431965832938915E-18,0.001530648135894412,25.91445729335361,29989.50432536751,1.1299989163470815E-9,1.763236811218998E-21,32.106568165174465,-8.342798618987522E-35,2.8249000295201594E-30,-0.0033842411771136463,0.0,0.0,6.718855644083851E-19,-1554.8674376012166,994.893861331638,8.910303200491321E-4,629.9672163063615,411.87619490643226,3.0585779482606314E-19,4.334155494167367E-12,-0.005874575968778063,-0.0,0.0,-0.0,0.02604745887219906,0.2991897463798523,15.353896141052246,25.91445729335361
0.8199999928474426,2.0955635531577364E7,1253.049844674575,6.609153812992454E-16,2.0955635569040652E7,4.287874983219808E-4,6.609153812992455E-16,-26.325723070724408,1528.109041923166,1.611888388758021E-15,5.4978007092733126E-18,0.0015686721303305342,26.234349188144368,29989.24358133599,1.1723678759769097E-9,1.8070395354494072E-21,32.10656896544896,-8.445796202828338E-35,2.824900029489553E-30,-0.0034260219608050102,0.0,0.0,6.718855644083851E-19,-1574.060951288662,994.8949811482936,8.910388566448502E-4,629.9746699148023,411.87712209294045,9.498695075537444E-19,4.662448276025083E-12,-0.006020562075117472,-0.0,0.0,-0.0,0.026368962600827217,0.30662477016448975,15.543426513671875,26.234349188144368
0.8299999833106995,2.095563526671511E7,1268.3309349974406,6.771325338496006E-16,2.095563530509771E7,4.4466629265116353E-4,6.771325338496008E-16,-26.64672782111453,1528.1090226078636,1.6315411492771327E-15,5.562921426190409E-18,0.0016071625296142445,26.554239622118182,29988.97963839397,1.2157828426439113E-9,1.8513796310982607E-21,32.10656977554156,-8.548793789246633E-35,2.8249000294585706E-30,-0.0034678027455423794,0.0,0.0,6.718855644083851E-19,-1593.2543773270909,994.8961147020457,8.910474980348289E-4,629.9822150399665,411.8780606545615,6.711045661572784E-19,5.00799305091699E-12,-0.006168341370866821,-0.0,0.0,-0.0,0.026690464466810226,0.3141511082649231,15.732956886291504,26.554239622118182
0.8399999737739563,2.0955634998642813E7,1283.6120251259829,6.935462089443903E-16,2.095563503795587E7,4.6093232299426745E-4,6.935462089443905E-16,-26.967731092881305,1528.1090030584357,1.6511945341982034E-15,5.628757086359484E-18,0.001646119329676315,26.87412857744047,29988.712496552616,1.2602565706502456E-9,1.896257049611612E-21,32.10657059545224,-8.651791378273851E-35,2.8249000294272148E-30,-0.0035095835313385137,0.0,0.0,6.718855644083851E-19,-1612.4477146464283,994.8972619928007,8.910562442210428E-4,629.9898516842035,411.8790105912567,8.035828737804499E-19,5.371125562197356E-12,-0.0063179139273161,-0.0,0.0,0.0,0.027011964470148087,0.32176879048347473,15.922486305236816,26.87412857744047
