time,gePosition_ft_X,gePosition_ft_Y,gePosition_ft_Z,feVelocity_ft_s_X,feVelocity_ft_s_Y,feVelocity_ft_s_Z,altitudeMsl_ft,longitude_deg,latitude_deg,localGravity_ft_s2,eulerAngle_deg_Yaw,eulerAngle_deg_Pitch,eulerAngle_deg_Roll,bodyAngularRateWrtEi_deg_s_Roll,bodyAngularRateWrtEi_deg_s_Pitch,bodyAngularRateWrtEi_deg_s_Yaw,altitudeRateWrtMsl_ft_min,speedOfSound_ft_s,airDensity_slug_ft3,ambientPressure_lbf_ft2,ambientTemperature_dgR,aero_bodyForce_lbf_X,aero_bodyForce_lbf_Y,aero_bodyForce_lbf_Z,aero_bodyMoment_ftlbf_L,aero_bodyMoment_ftlbf_M,aero_bodyMoment_ftlbf_N,mach,dynamicPressure_lbf_ft2,trueAirspeed_nmi_h
0.0,2.09556463253E7,0.0,0.0,0.0,0.0,0.0,30000.0,0.0,0.0,32.1065363982,0.0,9.999999999960825E-10,0.0,0.0,0.0,0.0,0.0,994.853991834,8.91300230208E-4,630.333405472,411.83924,-0.0,-0.0,-0.0,0.0,0.0,0.0,0.0,0.0,0.0
0.1,2.09556461659E7,7.77706156561E-7,0.0,0.0,2.32534041515E-5,3.19950775185,29999.8405578,2.12636156001E-12,0.0,32.1065368581,-7.29211518373329E-15,9.999999999731643E-10,-4.1780742375497725E-4,0.0,0.0,0.0,-191.970465111,994.854680629,8.91305280417E-4,630.337770165,411.839806895,1.56339955692E-15,2.17745377677E-12,-8.95761963039E-5,0.0,0.0,0.0,0.003216055384,0.00456207916516,1.89565651189
0.2,2.09556456859E7,6.22163664799E-6,0.0,0.0,9.32466120958E-5,6.3989982036,29999.3606323,1.70108584072E-11,0.0,32.1065382983,-1.4584230589774203E-14,9.9999999989295E-10,-8.356148602685786E-4,0.0,0.0,0.0,-383.939892216,994.856753923,8.91320481687E-4,630.350908015,411.841513267,6.25367106974E-15,4.35935715907E-12,-3.58308958759E-4,0.0,0.0,0.0,0.00643207997437,0.0182485292175,3.79130277404
0.3,2.09556448861E7,2.09979519706E-5,0.0,0.0,2.0990089638E-4,9.59845353884,29998.5607593,5.74114532324E-11,0.0,32.1065407206,-2.1876346440315774E-14,9.999999997611699E-10,-0.0012534223222965635,0.0,0.0,0.0,-575.9072123304,994.8602094,8.91345817045E-4,630.372804353,411.844357209,1.40710315442E-14,6.56819598312E-12,-8.06210720878E-4,0.0,0.0,0.0,0.00964804245908,0.0410599833907,5.68692823085
0.4,2.09556437663E7,4.97726836085E-5,0.0,0.0,3.73214646288E-4,12.7978559375,29997.4409433,1.36085759885E-10,0.0,32.1065441248,-2.916846295778022E-14,9.999999995720937E-10,-0.0016712298225981294,0.0,0.0,0.0,-767.87135625,994.86504704,8.91381286351E-4,630.403459057,411.848338706,2.50158416099E-14,8.86340190504E-12,-0.00143330214522,0.0,0.0,0.0,0.0128639115235,0.0729974940204,7.58252232447
0.5,2.09556423265E7,9.72116688246E-5,0.0,0.0,5.83185603318E-4,15.9971875769,29996.0011904,2.65790867027E-10,0.0,32.1065485109,-3.646058036430327E-14,9.999999993314516E-10,-0.0020890373739330457,0.0,0.0,0.0,-959.831254614,994.871266819,8.9142688941E-4,630.442871959,411.853457735,3.90886054739E-14,1.13596705403E-11,-0.00223961212071,0.0,0.0,0.0,0.016079655852,0.114062532408,9.47807449562
0.6,2.09556405668E7,1.67980485312E-4,0.0,0.0,8.39810857315E-4,19.1964306313,29994.2415087,4.59283161413E-10,0.0,32.106553879,-4.375269888219256E-14,9.99999999039243E-10,-0.0025068449890553535,0.0,0.0,0.0,-1151.785837878,994.8788687,8.9148262597E-4,630.49104284,411.85971427,5.62899708556E-14,1.42459188714E-11,-0.00322517775894,0.0,0.0,0.0,0.0192952441283,0.164256988632,11.3735741831
0.7,2.09556384872E7,2.66744386016E-4,0.0,0.0,0.00114308685215,22.3955672706,29992.1619078,7.29318151621E-10,0.0,32.106560229,-5.104481873364112E-14,9.999999986954684E-10,-0.0029246526807190933,0.0,0.0,0.0,-1343.734036236,994.887852642,8.91548495721E-4,630.547971433,411.867108274,7.66207289025E-14,1.78030068104E-11,-0.00439004438933,0.0,0.0,0.0,0.0225106450344,0.223583171301,13.2690108232
0.8,2.09556360877E7,3.98168233744E-4,0.0,0.0,0.00149300937665,25.5945796601,29989.7623993,1.08865029123E-9,0.0,32.1065675608,-5.833694014095657E-14,9.999999982943979E-10,-0.0033424604616783056,0.0,0.0,0.0,-1535.674779606,994.898218595,8.91624498298E-4,630.613657423,411.875639707,1.00081814088E-13,2.24237976194E-11,-0.00573426555325,0.0,0.0,0.0,0.0257258272508,0.292043807254,15.1643738494
0.9,2.09556333683E7,5.66916435838E-4,0.0,0.0,0.00188957357113,28.7934499592,29987.0429965,1.55003280212E-9,0.0,32.1065758744,-6.562906332598817E-14,9.999999978474908E-10,-0.00376026834469276,0.0,0.0,0.0,-1727.606997552,994.909966501,8.91710633279E-4,630.688100446,411.885308522,1.26674304089E-13,2.86307724566E-11,-0.00725790299708,0.0,0.0,0.0,0.0289407594563,0.369642041211,17.0596526917
1.0,2.0955630329E7,7.77652878828E-4,0.0,0.0,0.00233277392545,31.9921603205,29984.0037146,2.1262174978E-9,0.0,32.1065851699,-7.292118851178839E-14,9.999999973375584E-10,-0.004178076342505038,0.0,0.0,0.0,-1919.52961923,994.923096296,8.91806900186E-4,630.771300087,411.896114665,1.56399419649E-13,3.7094932871E-11,-0.00896102666418,0.0,0.0,0.0,0.0321554103273,0.456381435358,18.9548367762
1.1,2.09556269699E7,0.00103504086305,0.0,0.0,0.00282260427684,35.1906928896,29980.6445703,2.82995460655E-9,0.0,32.106595447,-8.021331591951894E-14,9.999999967817894E-10,-0.004595884467869181,0.0,0.0,0.0,-2111.441573376,994.937607906,8.91913298485E-4,630.863255884,411.908058075,1.89258524414E-13,4.86550204172E-11,-0.0108437146858,0.0,0.0,0.0,0.0353697485381,0.552265968888,20.8499155247
1.2,2.09556232909E7,0.00134374303721,0.0,0.0,0.00335905781117,38.3890298036,29976.9655824,3.67399259442E-9,0.0,32.1066067059,-8.75054457720604E-14,9.999999961687245E-10,-0.005013692733539229,0.0,0.0,0.0,-2303.341788216,994.953501251,8.92029827583E-4,630.963967327,411.921138687,2.25253124761E-13,6.43359801341E-11,-0.0129060533709,0.0,0.0,0.0,0.0385837427601,0.65730003748,22.7448783541
1.3,2.09556192921E7,0.00170842133287,0.0,0.0,0.00394212706351,41.5871531908,29972.9667713,4.67107798815E-9,0.0,32.1066189463,-9.47975782905745E-14,9.999999955040933E-10,-0.005431501152252033,0.0,0.0,0.0,-2495.229191448,994.970776242,8.92156486833E-4,631.073433856,411.935356428,2.64384869596E-13,8.53673647883E-11,-0.015148137195,0.0,0.0,0.0,0.041797361662,0.771488452732,24.639714676
1.4,2.09556149735E7,0.00213373689901,0.0,0.0,0.00457180391572,44.7850451696,29968.6481594,5.83395519814E-9,0.0,32.1066321683,-1.0208971369794179E-13,9.999999947878964E-10,-0.005849309736784552,0.0,0.0,0.0,-2687.1027101759996,994.989432783,8.9229327553E-4,631.19165486,411.950711219,3.06655550145E-13,1.13202836046E-10,-0.0175700687876,0.0,0.0,0.0,0.045010573909,0.894836441527,26.534413896
1.5,2.09556103351E7,0.00262435003643,0.0,0.0,0.0052480795955,47.9826878477,29964.0097705,7.17536634095E-9,0.0,32.1066463718,-1.0938185221589693E-13,9.999999940144033E-10,-0.006267118499781966,0.0,0.0,0.0,-2878.9612708619998,995.009470771,8.92440192912E-4,631.318629683,411.967202973,3.52067099715E-13,1.49539377368E-10,-0.0201719589191,0.0,0.0,0.0,0.0482233481632,1.02734964536,28.4289654136
1.6,2.09556053769E7,0.00318492013211,0.0,0.0,0.00597094467776,51.1800633213,29959.0516305,8.70805106193E-9,0.0,32.1066615566,-1.1667399406674758E-13,9.99999993189344E-10,-0.006684927454089988,0.0,0.0,0.0,-3070.803799278,995.030890093,8.92597238163E-4,631.454357617,411.9848316,4.00621593445E-13,1.96335596876E-10,-0.0229539264862,0.0,0.0,0.0,0.0514356530829,1.16903411958,30.3233586214
1.7,2.09556000991E7,0.00382010559355,0.0,0.0,0.00674038908437,54.3771536743,29953.7737672,1.04447463575E-8,0.0,32.1066777228,-1.2396613947165544E-13,9.999999923127184E-10,-0.00710273661242828,0.0,0.0,0.0,-3262.629220458,995.053690631,8.92764410406E-4,631.598837907,412.003597001,4.52321248035E-13,2.55830511919E-10,-0.0259160984965,0.0,0.0,0.0,0.0546474573222,1.31989633264,32.2175829048
1.8,2.09555945015E7,0.0045345637831,0.0,0.0,0.00755640208104,57.5739409778,29948.1762097,1.23981863977E-8,0.0,32.1066948702,-1.3125828865292815E-13,9.999999913845269E-10,-0.007520545987516507,0.0,0.0,0.0,-3454.436458668,995.077872257,8.92941708711E-4,631.752069747,412.023499072,5.07168421454E-13,3.30563813403E-10,-0.0290586100517,0.0,0.0,0.0,0.0578587295314,1.47994316521,34.1116276413
1.9,2.09555885843E7,0.00533295095206,0.0,0.0,0.00841897227792,60.7704072885,29942.2589895,1.45811023477E-8,0.0,32.1067129987,-1.385504418323003E-13,9.999999903990396E-10,-0.00793835559207433,0.0,0.0,0.0,-3646.22443731,995.103434837,8.93129132089E-4,631.914052283,412.044537701,5.65165612634E-13,4.23394553915E-10,-0.0323816043298,0.0,0.0,0.0,0.0610694383561,1.64918190929,36.0054822003
2.0,2.09555823474E7,0.00621992217491,0.0,0.0,0.00932808762991,63.9665346489,29936.0221394,1.700622219E-8,0.0,32.1067321082,-1.4584259923150665E-13,9.999999893619859E-10,-0.008356165438821414,0.0,0.0,0.0,-3837.992078934,995.130378228,8.93326679496E-4,632.084784612,412.066712772,6.26315461139E-13,5.37519919107E-10,-0.0358852325671,0.0,0.0,0.0,0.0642795524371,1.82762026728,37.8991359424
2.1,2.0955575791E7,0.00720013128337,0.0,0.0,0.0102837354345,67.1623050857,29929.4656943,1.96862705464E-8,0.0,32.1067521987,-1.5313476107228182E-13,9.999999882733662E-10,-0.00877397554047742,0.0,0.0,0.0,-4029.7383051419997,995.158702279,8.93534349828E-4,632.264265782,412.09002416,6.90620746826E-13,6.76495240066E-10,-0.0395696540373,0.0,0.0,0.0,0.0674890404105,2.01526635093,39.7925782191
2.2,2.0955568915E7,0.00827823080036,0.0,0.0,0.0112859023325,70.3577006093,29922.5896907,2.26339684988E-8,0.0,32.10677327,-1.6042692757636047E-13,9.999999871274505E-10,-0.009191785909819308,0.0,0.0,0.0,-4221.462036557999,995.188406834,8.93752141927E-4,632.45249479,412.114471735,7.58084389471E-13,8.44252743941E-10,-0.0434350360315,0.0,0.0,0.0,0.070697870907,2.21212868031,41.6857983721
2.3,2.09555617195E7,0.00945887187396,0.0,0.0,0.0123345743054,73.552703213,29915.394167,2.58620334109E-8,0.0,32.106795322,-1.6771909896490433E-13,9.999999859356983E-10,-0.009609596559509444,0.0,0.0,0.0,-4413.16219278,995.219491725,8.93980054578E-4,632.649470586,412.140055362,8.28709448396E-13,1.04512177553E-9,-0.0474815538357,0.0,0.0,0.0,0.0739060125518,2.41821618266,43.5787857331
2.4,2.09555542045E7,0.0107467042112,0.0,0.0,0.0134297366747,76.7472948723,29907.8791635,2.9383178749E-8,0.0,32.1068183546,-1.7501127546022103E-13,9.999999846866502E-10,-0.010027407502267494,0.0,0.0,0.0,-4604.837692338,995.251956779,8.94218086506E-4,632.85519207,412.166774897,9.02499122058E-13,1.28384898872E-9,-0.0517093907082,0.0,0.0,0.0,0.0771134339647,2.63353819124,45.4715296232
2.5,2.095554637E7,0.0121463760117,0.0,0.0,0.0145713741033,79.9414575438,29900.0447221,3.3210113903E-8,0.0,32.1068423677,-1.8230345728347225E-13,9.999999833803064E-10,-0.01044521875081312,0.0,0.0,0.0,-4796.487452628,995.285801815,8.94466236382E-4,633.069658091,412.194630191,9.79456747632E-13,1.56561586133E-9,-0.0561187378549,0.0,0.0,0.0,0.0803201037592,2.85810444411,47.3640193522
2.6,2.09555382162E7,0.0136625339017,0.0,0.0,0.0157594705918,83.1351731649,29891.8908867,3.73555440067E-8,0.0,32.106867361,-1.8959564465524677E-13,9.99999982028126E-10,-0.010863030317865983,0.0,0.0,0.0,-4988.110389894,995.321026644,8.94724502818E-4,633.292867451,412.223621088,1.05958580057E-12,1.89606102308E-9,-0.0607097944049,0.0,0.0,0.0,0.0835259905429,3.09192508282,49.2562442185
2.7,2.0955529743E7,0.015299822867,0.0,0.0,0.0169940094793,86.3284236522,29883.4177027,4.18321697579E-8,0.0,32.1068933346,-1.968878377978522E-13,9.9999998061865E-10,-0.011280842216145746,0.0,0.0,0.0,-5179.705419132,995.357631068,8.9499288437E-4,633.524818902,412.253747425,1.14288989416E-12,2.28129848416E-9,-0.0654827673834,0.0,0.0,0.0,0.0867310629168,3.33501065108,51.1481935085
2.8,2.09555209505E7,0.0170628861871,0.0,0.0,0.0182749734411,89.5211909018,29874.6252178,4.66526872388E-8,0.0,32.1069202882,-2.041800369318773E-13,9.999999791518778E-10,-0.01169865445831478,0.0,0.0,0.0,-5371.2714541079995,995.395614883,8.95271379536E-4,633.765511145,412.285009035,1.229372779E-12,2.72793891032E-9,-0.0704378716849,0.0,0.0,0.0,0.0899352894755,3.58737209338,53.0398564961
2.9,2.09555118388E7,0.018956365368,0.0,0.0,0.0196023444892,92.7134567874,29865.513481,5.18297877354E-8,0.0,32.1069482217,-2.1147224227848377E-13,9.999999776392693E-10,-0.01211646705703545,0.0,0.0,0.0,-5562.807407244,995.434977876,8.95559986756E-4,634.014942832,412.317405742,1.31903834256E-12,3.24310849507E-9,-0.0755753300449,0.0,0.0,0.0,0.0931386388065,3.84902075355,54.9312224421
3.0,2.09555024079E7,0.0209849000757,0.0,0.0,0.0209761039696,95.9052031604,29856.0825435,5.7376157557E-8,0.0,32.106977135,-2.187644540588333E-13,9.99999976069365E-10,-0.012534280025027416,0.0,0.0,0.0,-5754.312189624,995.475719826,8.95858704414E-4,634.273112567,412.350937365,1.41189060865E-12,3.83447050384E-9,-0.0808953730099,0.0,0.0,0.0,0.0963410794902,4.11996837323,56.8222805941
3.1,2.09554926578E7,0.0231531280694,0.0,0.0,0.0223962325629,99.0964118487,29846.332458,6.33044778555E-8,0.0,32.1070070279,-2.260566724935147E-13,9.999999744478944E-10,-0.012952093374953053,0.0,0.0,0.0,-5945.784710922,995.517840505,8.96167530835E-4,634.540018902,412.385603716,1.50793373686E-12,4.51024441432E-9,-0.0863982389073,0.0,0.0,0.0,0.0995425801,4.40022709033,58.7130201855
3.2,2.09554825886E7,0.0254656851346,0.0,0.0,0.0238627102813,102.287064656,29836.2632793,6.96274244438E-8,0.0,32.1070379002,-2.3334889780426253E-13,9.999999727748577E-10,-0.013369907119532015,0.0,0.0,0.0,-6137.22387936,995.561339678,8.96486464288E-4,634.81566034,412.4214046,1.60717202203E-12,5.27922774994E-9,-0.0920841738136,0.0,0.0,0.0,0.102743109201,4.68980943744,60.6034304358
3.3,2.09554722004E7,0.0279272050155,0.0,0.0,0.0253755164686,105.47714336,29825.8750639,7.63576676146E-8,0.0,32.1070697517,-2.406411302110927E-13,9.999999710445251E-10,-0.013787721271426676,0.0,0.0,0.0,-6328.6286016,995.606217099,8.96815502982E-4,635.100035335,412.458339817,1.70960989368E-12,6.15081595693E-9,-0.0979534315218,0.0,0.0,0.0,0.105942635353,4.98872834012,62.4935005492
3.4,2.09554614932E7,0.0305423193484,0.0,0.0,0.0269346297987,108.666629715,29815.1678701,8.35078719585E-8,0.0,32.1071025824,-2.47933369934594E-13,9.999999692626265E-10,-0.014205535843242103,0.0,0.0,0.0,-6519.9977829,995.652472517,8.97154645072E-4,635.39314229,412.496409159,1.81525191544E-12,7.13502330682E-9,-0.104006273508,0.0,0.0,0.0,0.109141127103,5.29699711522,64.383219715
3.5,2.09554504671E7,0.0333156575941,0.0,0.0,0.0285400282746,111.855505447,29804.141758,9.10906961817E-8,0.0,32.1071363919,-2.552256171959279E-13,9.999999674291615E-10,-0.01462335084769796,0.0,0.0,0.0,-6711.33032682,995.700105672,8.9750388865E-4,635.694979559,412.535612413,1.92410278438E-12,8.24250370304E-9,-0.110242968894,0.0,0.0,0.0,0.112338552995,5.6146294691,66.2725771066
3.6,2.09554391221E7,0.0362518469704,0.0,0.0,0.0301916892265,115.043752255,29792.7967896,9.91187929233E-8,0.0,32.1071711802,-2.6251787221511043E-13,9.999999655384007E-10,-0.015041166297399324,0.0,0.0,0.0,-6902.6251353,995.749116297,8.97863231755E-4,636.005545445,412.575949357,2.03616733045E-12,9.48457226589E-9,-0.116663794417,0.0,0.0,0.0,0.115534881562,5.94163949576,68.1615618814
3.7,2.09554274583E7,0.0393555123847,0.0,0.0,0.031889589311,118.231351809,29781.1330288,1.07604808573E-7,0.0,32.107206947,-2.698101352121573E-13,9.999999636018034E-10,-0.015458982205065851,0.0,0.0,0.0,-7093.88110854,995.799504115,8.98232672366E-4,636.324838202,412.617419765,2.15145051581E-12,1.08732259325E-8,-0.123269034387,0.0,0.0,0.0,0.118730081328,6.27804167503,70.05016318
3.8,2.09554154759E7,0.042631276366,0.0,0.0,0.0336337045082,121.418285753,29769.1505411,1.16561383087E-7,0.0,32.1072436921,-2.771024064076572E-13,9.999999616079102E-10,-0.015876798583302616,0.0,0.0,0.0,-7285.097145180001,995.851268843,8.98612208402E-4,636.652856031,412.660023404,2.26995743414E-12,1.2421166739E-8,-0.130058980651,0.0,0.0,0.0,0.12192412081,6.62385087055,71.9383701259
3.9,2.09554031747E7,0.0460837589971,0.0,0.0,0.0354240101235,124.604535698,29756.849394,1.26001149805E-7,0.0,32.1072814153,-2.84394686022199E-13,9.999999595567214E-10,-0.016294615444657393,0.0,0.0,0.0,-7476.27214188,995.904410189,8.99001837727E-4,636.989597087,412.703760034,2.39169331001E-12,1.4141819781E-8,-0.137033932553,0.0,0.0,0.0,0.125116968514,6.97908232784,73.8261718255
4.0,2.0955390555E7,0.0497175778469,0.0,0.0,0.0372604807831,127.790083227,29744.229657,1.35936735265E-7,0.0,32.1073201165,-2.916869742752255E-13,9.99999957459696E-10,-0.016712432801907144,0.0,0.0,0.0,-7667.40499362,995.958927855,8.99401558145E-4,637.335059471,412.748629408,2.51666349812E-12,1.60493581429E-8,-0.144194196897,0.0,0.0,0.0,0.12830859294,7.34375167224,75.7135573666
4.1,2.09553776167E7,0.0535373479017,0.0,0.0,0.0391430904342,130.974909892,29731.291401,1.4638075902E-7,0.0,32.1073597954,-2.9897927138617946E-13,9.999999553053746E-10,-0.017130250667542344,0.0,0.0,0.0,-7858.49459352,996.014821532,8.99811367403E-4,637.689241236,412.794631274,2.64487348263E-12,1.81587229616E-8,-0.151540087901,0.0,0.0,0.0,0.131498962575,7.71787490677,77.6005158192
4.2,2.095536436E7,0.0575476814975,0.0,0.0,0.0410718123419,134.158997211,29718.0346992,1.57345833455E-7,0.0,32.1074004518,-3.062715775756497E-13,9.99999953099487E-10,-0.017548069054225363,0.0,0.0,0.0,-8049.539832660001,996.072090906,9.00231263186E-4,638.052140382,412.841765371,2.77632887639E-12,2.04856476393E-8,-0.159071927157,0.0,0.0,0.0,0.134688045898,8.10146841001,79.487036234
4.3,2.09553507849E7,0.0617531882511,0.0,0.0,0.0430466190905,137.342326672,29704.4596264,1.68844563595E-7,0.0,32.1074420854,-3.13563893063079E-13,9.999999508363036E-10,-0.01796588797461857,0.0,0.0,0.0,-8240.53960032,996.130735653,9.00661243125E-4,638.423754861,412.890031434,2.91103542019E-12,2.30466761642E-8,-0.16679004359,0.0,0.0,0.0,0.13787581138,8.4945489339,81.3731076428
4.4,2.09553368916E7,0.0661584749916,0.0,0.0,0.0450674825781,140.524879729,29690.5662594,1.80889546928E-7,0.0,32.1074846961,-3.208562180673374E-13,9.999999485215543E-10,-0.01838370744121244,0.0,0.0,0.0,-8431.49278374,996.19075544,9.0110130479E-4,638.804082572,412.939429189,3.04899898198E-12,2.58591905972E-8,-0.174694773407,0.0,0.0,0.0,0.141062227479,8.89713360143,83.2587190574
4.5,2.095532268E7,0.0707681456918,0.0,0.0,0.0471343740192,143.706637802,29676.3546766,1.93493373212E-7,0.0,32.1075282836,-3.2814855280844044E-13,9.999999461552385E-10,-0.018801527466669344,0.0,0.0,0.0,-8622.39826812,996.25214993,9.01551445691E-4,639.193121365,412.989958358,3.19022555611E-12,2.89414281657E-8,-0.18278646006,0.0,0.0,0.0,0.144247262645,9.30923990435,85.1438594697
4.6,2.09553081503E7,0.0755868013989,0.0,0.0,0.0492472639382,146.887582274,29661.8249585,2.06668624293E-7,0.0,32.1075728477,-3.3544089750525816E-13,9.999999437373567E-10,-0.01921934806353706,0.0,0.0,0.0,-8813.25493644,996.314918775,9.02011663282E-4,639.590869038,413.041618655,3.33472126245E-12,3.23125098365E-8,-0.191065454191,0.0,0.0,0.0,0.147430885317,9.73088570079,87.0285178509
4.7,2.09552933025E7,0.080619040166,0.0,0.0,0.0514061221731,150.067694497,29646.9771874,2.20427873914E-7,0.0,32.107618388,-3.4273325237666045E-13,9.999999412679086E-10,-0.019637169244420657,0.0,0.0,0.0,-9004.06166982,996.379061618,9.02481954955E-4,639.997323338,413.094409786,3.4824923456E-12,3.59924574552E-8,-0.199532113589,0.0,0.0,0.0,0.150613063926,10.1620892128,88.9126831513
4.8,2.09552781368E7,0.085869456982,0.0,0.0,0.0536109178684,153.246955783,29631.8114475,2.34783687529E-7,0.0,32.1076649045,-3.5002561764209004E-13,9.999999387411647E-10,-0.020054991021867908,0.0,0.0,0.0,-9194.81734698,996.444578097,9.02962318046E-4,640.412481962,413.148331453,3.63354517405E-12,4.00022228959E-8,-0.208186803143,0.0,0.0,0.0,0.153793766888,10.602869024,90.7963442995
4.9,2.09552626531E7,0.0913426437029,0.0,0.0,0.0558616194787,156.42534741,29616.3278248,2.49748622118E-7,0.0,32.1077123967,-3.5731799351984395E-13,9.999999361628545E-10,-0.02047281340842659,0.0,0.0,0.0,-9385.5208446,996.51146784,9.03452749829E-4,640.836342554,413.20338335,3.78788623927E-12,4.43637042903E-8,-0.217029894786,0.0,0.0,0.0,0.156972962612,11.0532440768,92.6794902028
5.0,2.09552468517E7,0.0970431889819,0.0,0.0,0.058158194762,159.602850615,29600.5264071,2.65335225994E-7,0.0,32.1077608645,-3.64610380229365E-13,9.999999335272486E-10,-0.02089063641664448,0.0,0.0,0.0,-9576.1710369,996.579730467,9.03953247519E-4,641.268902707,413.259565164,3.94552215486E-12,4.90997772579E-8,-0.226061767449,0.0,0.0,0.0,0.160150619496,11.51323367,94.5621097457
5.1,2.09552307326E7,0.1029756782,0.0,0.0,0.0605006107808,162.7794466,29584.4072844,2.81556038615E-7,0.0,32.1078103075,-3.7190277798780414E-13,9.999999308400767E-10,-0.021308460059126653,0.0,0.0,0.0,-9766.766796,996.649365591,9.04463808274E-4,641.710159965,413.316876576,4.10645965561E-12,5.42343134871E-8,-0.235282807007,0.0,0.0,0.0,0.163326705925,11.9828574561,96.4441917905
5.2,2.09552142959E7,0.109144693394,0.0,0.0,0.0628888339006,165.955116528,29567.9705482,2.98423590397E-7,0.0,32.1078607256,-3.791951870146042E-13,9.999999281013386E-10,-0.021726284348306285,0.0,0.0,0.0,-9957.30699168,996.720372814,9.0498442919E-4,642.160111819,413.37531726,4.27070559662E-12,5.97922048435E-8,-0.244693406229,0.0,0.0,0.0,0.166501190274,12.4621354385,98.325725176
5.3,2.09551975416E7,0.11555481319,0.0,0.0,0.0653228297849,169.129841519,29551.2162921,3.15950402522E-7,0.0,32.1079121184,-3.8648760752748926E-13,9.99999925311034E-10,-0.02214410929673116,0.0,0.0,0.0,-10147.79049114,996.792751734,9.05515107304E-4,642.618755706,413.434886883,4.43826695228E-12,6.57993921222E-8,-0.254293964718,0.0,0.0,0.0,0.169674040908,12.9510879691,100.206698718
5.4,2.09551804699E7,0.122210612729,0.0,0.0,0.0678025633977,172.303602657,29534.1446115,3.34148986746E-7,0.0,32.1079644856,-3.9378003974475607E-13,9.999999224691632E-10,-0.022561934916949043,0.0,0.0,0.0,-10338.21615942,996.866501937,9.06055839592E-4,643.086089014,413.495585107,4.60915081539E-12,7.22828826689E-8,-0.264084888861,0.0,0.0,0.0,0.172845226179,13.4497357447,102.087101208
5.5,2.09551630809E7,0.1291166636,0.0,0.0,0.0703279988847,175.476380703,29516.7556038,3.53031845207E-7,0.0,32.108017827,-4.010724838835558E-13,9.999999195699969E-10,-0.02297976122145043,0.0,0.0,0.0,-10528.58284218,996.940975966,9.06639574115E-4,643.600017571,413.557421464,4.78353823506E-12,7.92736631797E-8,-0.274076552009,0.0,0.0,0.0,0.176014828386,13.9586070761,103.966921248
5.6,2.09551453747E7,0.136277533726,0.0,0.0,0.0728990992811,178.648155417,29499.0493683,3.72611470135E-7,0.0,32.1080721422,-4.0836494016161226E-13,9.999999166192644E-10,-0.023397588222668485,0.0,0.0,0.0,-10718.88932502,997.01640701,9.0725441047E-4,644.146851512,413.620392033,4.96139043222E-12,8.68006424394E-8,-0.284266732283,0.0,0.0,0.0,0.179182778773,14.4775888038,105.846146846
5.7,2.09551273513E7,0.143697787305,0.0,0.0,0.0755158272705,181.818907475,29481.0260062,3.92900343667E-7,0.0,32.1081274309,-4.156574087972225E-13,9.99999913611236E-10,-0.0238154159332083,0.0,0.0,0.0,-10909.1344485,997.093189057,9.07880258815E-4,644.703479491,413.684490433,5.14261375333E-12,9.48927278129E-8,-0.294650063732,0.0,0.0,0.0,0.182348977159,15.0064076421,107.724766555
5.8,2.09551090109E7,0.151381984753,0.0,0.0,0.0781781448709,184.988617636,29462.6856209,4.13910937715E-7,0.0,32.1081836929,-4.2294989000639155E-13,9.999999105573707E-10,-0.024233244365388453,0.0,0.0,0.0,-11099.317058159999,997.171321667,9.08517115567E-4,645.269898319,413.749716297,5.32721686373E-12,1.03581612225E-7,-0.305227042843,0.0,0.0,0.0,0.185513391867,15.5450888769,109.602768972
5.9,2.09550903536E7,0.159334682637,0.0,0.0,0.0808860133782,188.157266607,29444.0283175,4.35655713772E-7,0.0,32.1082409278,-4.302423840079893E-13,9.9999990744621E-10,-0.024651073531814022,0.0,0.0,0.0,-11289.43599642,997.250804394,9.09164977074E-4,645.84610475,413.81606925,5.51520855927E-12,1.12900202439E-7,-0.315998173581,0.0,0.0,0.0,0.188675991199,16.0936581749,111.48014267
6.0,2.09550713795E7,0.167560433603,0.0,0.0,0.0836393933669,191.324835048,29425.054203,4.58147122715E-7,0.0,32.1082991353,-4.3753489101687495E-13,9.999999042777534E-10,-0.02506890344486089,0.0,0.0,0.0,-11479.490102880001,997.331636779,9.09823839618E-4,646.432095475,413.883548912,5.70659776514E-12,1.22882640015E-7,-0.326963967321,0.0,0.0,0.0,0.19183674344,16.6521415802,113.356876188
6.1,2.09550520887E7,0.176063786299,0.0,0.0,0.0864382446864,194.491303563,29405.7633866,4.81397604611E-7,0.0,32.108358315,-4.4482741125134527E-13,9.9999990106346E-10,-0.025486734116962253,0.0,0.0,0.0,-11669.47821378,997.41381836,9.10493699412E-4,647.027867128,413.952154895,5.90139353462E-12,1.33564330561E-7,-0.338124942779,0.0,0.0,0.0,0.194995616855,17.220565511,115.232958036
6.2,2.09550324813E7,0.184849285306,0.0,0.0,0.0892825264584,197.656652706,29386.155979,5.05419588518E-7,0.0,32.1084184667,-4.5211994492740554E-13,9.99999897791871E-10,-0.025904565560551283,0.0,0.0,0.0,-11859.39916236,997.497348663,9.11174552604E-4,647.633416281,414.021886805,6.09960504785E-12,1.4498197144E-7,-0.349481625939,0.0,0.0,0.0,0.19815257969,17.7989567551,117.108376693
6.3,2.09550125574E7,0.193921471067,0.0,0.0,0.0921721970747,200.82086298,29366.2320934,5.30225492285E-7,0.0,32.10847959,-4.594124922616338E-13,9.999998944687159E-10,-0.026322397788118464,0.0,0.0,0.0,-12049.251778799999,997.582227207,9.11866395273E-4,648.248739449,414.092744239,6.30124161057E-12,1.57173578537E-7,-0.361034549978,0.0,0.0,0.0,0.201307600171,18.3873424673,118.983120606
6.4,2.09549923172E7,0.203284879804,0.0,0.0,0.0951072141938,203.983914829,29345.9918444,5.55827722355E-7,0.0,32.1085416846,-4.66705053469462E-13,9.999998910939945E-10,-0.026740230811982388,0.0,0.0,0.0,-12239.03488974,997.668453502,9.1256922343E-4,648.873833082,414.16472679,6.5063126528E-12,1.70178515248E-7,-0.372784255198,0.0,0.0,0.0,0.204460646505,18.9857501648,120.85717819
6.5,2.09549717607E7,0.212944043458,0.0,0.0,0.0980875347414,207.145788649,29325.435349,5.82238673568E-7,0.0,32.1086047501,-4.739976287674683E-13,9.999998876619773E-10,-0.027158064644518944,0.0,0.0,0.0,-12428.74731894,997.756027053,9.13283033018E-4,649.508693574,414.237834042,6.71482772758E-12,1.84037516324E-7,-0.384731288948,0.0,0.0,0.0,0.207611686881,19.5942077239,122.73053783
6.6,2.0954950888E7,0.222903489602,0.0,0.0,0.101113114902,210.306464775,29304.562726,6.09470728955E-7,0.0,32.1086687861,-4.812902183716578E-13,9.999998841783938E-10,-0.027575899298218614,0.0,0.0,0.0,-12618.3878865,997.844947351,9.14007819914E-4,650.153317256,414.312065572,6.92679650959E-12,1.98792724424E-7,-0.396876205545,0.0,0.0,0.0,0.210760689464,20.2127433757,124.603187875
6.7,2.09549296994E7,0.233167741377,0.0,0.0,0.104183910124,213.46592349,29283.374096,6.3753625954E-7,0.0,32.1087337923,-4.885828224963167E-13,9.999998806432443E-10,-0.027993734785399984,0.0,0.0,0.0,-12807.9554094,997.935213883,9.14743579923E-4,650.807700398,414.387420951,7.14222879384E-12,2.14487710255E-7,-0.409219566204,0.0,0.0,0.0,0.213907622403,20.8413857027,126.475116643
6.8,2.09549081949E7,0.24374131741,0.0,0.0,0.107299875108,216.62414502,29261.8695818,6.66447624139E-7,0.0,32.1087997683,-4.958754413580232E-13,9.99999877050799E-10,-0.028411571118381655,0.0,0.0,0.0,-12997.448701199999,998.026826125,9.15490308785E-4,651.47183921,414.463899743,7.36113449428E-12,2.3116750719E-7,-0.42176193895,0.0,0.0,0.0,0.217052453826,21.4801636343,128.346312418
6.9,2.09548863746E7,0.254628731745,0.0,0.0,0.110460963812,219.781109533,29240.0493082,6.96217169157E-7,0.0,32.1088667138,-5.031680751716361E-13,9.999998734067873E-10,-0.028829408309539513,0.0,0.0,0.0,-13186.866571980001,998.119783548,9.16248002168E-4,652.145729841,414.541501504,7.58352364241E-12,2.48878639476E-7,-0.434503898548,0.0,0.0,0.0,0.220195151839,22.1291064427,130.216763452
7.0,2.09548642387E7,0.265834493765,0.0,0.0,0.113667129446,222.936797139,29217.9134018,7.26857228385E-7,0.0,32.1089346284,-5.10460724151442E-13,9.999998697112094E-10,-0.029247246371249442,0.0,0.0,0.0,-13376.207828339999,998.21408561,9.17016655674E-4,652.829368378,414.620225783,7.80940638588E-12,2.67669148766E-7,-0.447446026413,0.0,0.0,0.0,0.223335684529,22.7882437395,132.086457959
7.1,2.09548417873E7,0.277363108117,0.0,0.0,0.116918324468,226.09118789,29195.4619913,7.58380122793E-7,0.0,32.1090035116,-5.177533885128728E-13,9.999998659640655E-10,-0.029665085315772742,0.0,0.0,0.0,-13565.471273399999,998.309731764,9.17796264833E-4,653.522750846,414.700072123,8.03879298702E-12,2.8758862664E-7,-0.460588910536,0.0,0.0,0.0,0.226474019963,23.4576054707,133.955384122
7.2,2.09548190205E7,0.289219074639,0.0,0.0,0.120214500582,229.244261778,29172.6952074,7.90798160331E-7,0.0,32.1090733631,-5.250460684696417E-13,9.999998621596257E-10,-0.030082925155428007,0.0,0.0,0.0,-13754.655706680001,998.406721452,9.18586825108E-4,654.225873209,414.781040059,8.27169382145E-12,3.0868824576E-7,-0.473933145394,0.0,0.0,0.0,0.229610126187,24.1372219126,135.823530086
7.3,2.09547959385E7,0.301406888279,0.0,0.0,0.123555608734,232.395998738,29149.6131828,8.24123635717E-7,0.0,32.1091441825,-5.323387642366082E-13,9.9999985830362E-10,-0.030500765902533825,0.0,0.0,0.0,-13943.75992428,998.505054111,9.19388331891E-4,654.93873137,414.863129119,8.50811937653E-12,3.3102079136E-7,-0.487479331869,0.0,0.0,0.0,0.232743971226,24.8271236682,137.690883962
7.4,2.09547725414E7,0.313931039024,0.0,0.0,0.126941599115,235.546378642,29126.2160522,8.58368830238E-7,0.0,32.1092159695,-5.396314760269123E-13,9.999998543960477E-10,-0.030918607569351497,0.0,0.0,0.0,-14132.78271852,998.604729165,9.20200780505E-4,655.661321169,414.946338824,8.74808024991E-12,3.54640684375E-7,-0.501228077162,0.0,0.0,0.0,0.235875523086,25.5273416618,139.557433826
7.5,2.09547488293E7,0.326796011822,0.0,0.0,0.130372421149,238.6953813,29102.5039522,8.93546011535E-7,0.0,32.1092887234,-5.469242040548403E-13,9.999998504369094E-10,-0.03133645016814232,0.0,0.0,0.0,-14321.722878,998.705746032,9.21024166203E-4,656.393638382,415.030668688,8.99158714802E-12,3.79604022809E-7,-0.515179994706,0.0,0.0,0.0,0.23900474975,26.2379071353,141.423167716
7.6,2.09547248023E7,0.340006286505,0.0,0.0,0.133848023497,241.842986464,29078.4770217,9.29667433404E-7,0.0,32.1093624441,-5.542169485341055E-13,9.999998464204752E-10,-0.03175429371122489,0.0,0.0,0.0,-14510.57918784,998.808104122,9.21858484166E-4,657.135678726,415.116118218,9.23865088448E-12,4.05968606857E-7,-0.529335704075,0.0,0.0,0.0,0.242131619182,26.9588516434,143.288073636
7.7,2.09547004607E7,0.353566337713,0.0,0.0,0.137368354053,244.98917382,29054.1354014,9.66745335578E-7,0.0,32.109437131,-5.615097096772753E-13,9.999998423524747E-10,-0.032172138210745896,0.0,0.0,0.0,-14699.3504292,998.911802834,9.22703729508E-4,657.887437854,415.202686912,9.4892823786E-12,4.33793974337E-7,-0.543695830901,0.0,0.0,0.0,0.245256099324,27.6902070492,145.15213955
7.8,2.09546758045E7,0.367480634814,0.0,0.0,0.140933359937,248.133922993,29029.4792341,1.00479194353E-6,0.0,32.1095127837,-5.688024876980627E-13,9.999998382329083E-10,-0.03258998367896665,0.0,0.0,0.0,-14888.03537958,999.016841561,9.23559897269E-4,658.648911354,415.290374263,9.74349265376E-12,4.63141429556E-7,-0.558261006777,0.0,0.0,0.0,0.248378158098,28.4320055196,147.015353386
7.9,2.0954650834E7,0.38175364183,0.0,0.0,0.144542987498,251.277213545,29004.5086647,1.04381946824E-6,0.0,32.1095894018,-5.760952828067435E-13,9.99999834056046E-10,-0.033007830128148445,0.0,0.0,0.0,-15076.6328127,999.123219685,9.24426982421E-4,659.420094754,415.379179756,1.00012928358E-11,4.94074079427E-7,-0.573031869169,0.0,0.0,0.0,0.251497763406,29.1842795204,148.877703036
8.0,2.09546255492E7,0.396389817359,0.0,0.0,0.148197182308,254.419024972,28979.2238399,1.08384010601E-6,0.0,32.1096669848,-5.833880952233333E-13,9.999998298276173E-10,-0.033425677570380695,0.0,0.0,0.0,-15265.14149832,999.23093658,9.25304979861E-4,660.200983518,415.469102869,1.02626941516E-11,5.26656861783E-7,-0.58800906132,0.0,0.0,0.0,0.254614883127,29.9470618117,150.739176351
8.1,2.09545999502E7,0.411393614495,0.0,0.0,0.151895889157,257.559336708,28953.6249088,1.12486603825E-6,0.0,32.1097455323,-5.906809251495134E-13,9.999998255476227E-10,-0.03384352601798199,0.0,0.0,0.0,-15453.56020248,999.339991613,9.2619388442E-4,660.991573045,415.560143071,1.0527707927E-11,5.60956584245E-7,-0.603193232161,0.0,0.0,0.0,0.25772948512,30.7203854434,152.599761148
8.2,2.09545740373E7,0.426769480749,0.0,0.0,0.155639052055,260.698128119,28927.7120224,1.16690943125E-6,0.0,32.1098250439,-5.979737728030077E-13,9.999998212103322E-10,-0.034261375482984434,0.0,0.0,0.0,-15641.887687139999,999.450384139,9.27093690853E-4,661.791858672,415.652299826,1.07963455855E-11,5.97041951994E-7,-0.618585036212,0.0,0.0,0.0,0.260841537224,31.5042837498,154.4594452
8.3,2.09545478106E7,0.442521857973,0.0,0.0,0.159426614224,263.835378507,28901.4853338,1.20998243595E-6,0.0,32.109905519,-6.052666383958104E-13,9.999998168272051E-10,-0.034679225977592036,0.0,0.0,0.0,-15830.122710419999,999.562113507,9.28004393844E-4,662.601835673,415.74557259,1.10686186465E-11,6.34983606836E-7,-0.634185133485,0.0,0.0,0.0,0.263951007256,32.298790345,156.318216245
8.4,2.09545212703E7,0.458655182281,0.0,0.0,0.163258518101,266.971067108,28874.9449979,1.25409718779E-6,0.0,32.1099869573,-6.125595221399162E-13,9.999998123867821E-10,-0.035097077514008805,0.0,0.0,0.0,-16018.26402648,999.675179055,9.28925988008E-4,663.421499255,415.83996081,1.13445387237E-11,6.74854156481E-7,-0.649994189389,0.0,0.0,0.0,0.267057863013,33.1039391182,158.17606198
8.5,2.09544944165E7,0.475173883967,0.0,0.0,0.167134705326,270.105173089,28848.0911722,1.29926580642E-6,0.0,32.1100693582,-6.198524242415897E-13,9.999998078890632E-10,-0.03551493010426684,0.0,0.0,0.0,-16206.31038534,999.789580115,9.29858467885E-4,664.250844563,415.935463927,1.1624117523E-11,7.16728214947E-7,-0.666012874631,0.0,0.0,0.0,0.270162072271,33.9197642281,160.032970064
8.6,2.09544672493E7,0.492082387428,0.0,0.0,0.171055116748,273.237675552,28820.9240159,1.34550039554E-6,0.0,32.1101527213,-6.271453449185549E-13,9.99999803345508E-10,-0.035932783760455556,0.0,0.0,0.0,-16394.26053312,999.905316006,9.30801827942E-4,665.089866677,416.032081376,1.19073668412E-11,7.60682433496E-7,-0.682241865112,0.0,0.0,0.0,0.273263602784,34.7463000982,161.888928114
8.7,2.0954439769E7,0.509385111081,0.0,0.0,0.175019692417,276.36855353,28793.4436904,1.39281304265E-6,0.0,32.110237046,-6.344382843713471E-13,9.99999798744657E-10,-0.036350638494721664,0.0,0.0,0.0,-16582.1132118,1000.02238604,9.31756062576E-4,665.938560613,416.129812581,1.21942985639E-11,8.06795536186E-7,-0.698681841833,0.0,0.0,0.0,0.276362422288,35.5835814114,163.743923708
8.8,2.09544119757E7,0.527086467288,0.0,0.0,0.179028371579,279.497785988,28765.6503592,1.44121581885E-6,0.0,32.110322332,-6.417312428234198E-13,9.999997940865102E-10,-0.03676849431915457,0.0,0.0,0.0,-16769.86715928,1000.14078953,9.32721166109E-4,666.79692132,416.228656963,1.2484924664E-11,8.55148358658E-7,-0.715333490784,0.0,0.0,0.0,0.279458498496,36.431643105,165.597944383
8.9,2.09543838695E7,0.54519086227,0.0,0.0,0.183081092682,282.625351822,28737.5441878,1.49072077861E-6,0.0,32.1104085787,-6.490242204753082E-13,9.999997893825266E-10,-0.03718635124572908,0.0,0.0,0.0,-16957.52110932,1000.26052575,9.33697132791E-4,667.664943685,416.32861393,1.27792571996E-11,9.05823879236E-7,-0.732197502851,0.0,0.0,0.0,0.2825517991,37.2905203656,167.450977636
9.0,2.09543554507E7,0.563702696031,0.0,0.0,0.18717779336,285.751229858,28709.1253441,1.54133995955E-6,0.0,32.1104957855,-6.563172175390067E-13,9.999997846212473E-10,-0.03760420928653463,0.0,0.0,0.0,-17145.073791479997,1000.38159401,9.34683956796E-4,668.542622528,416.429682888,1.30773083126E-11,9.58907258921E-7,-0.749274573701,0.0,0.0,0.0,0.285642291775,38.1602486231,169.303010922
9.1,2.09543267193E7,0.582626362272,0.0,0.0,0.191318410442,288.875398853,28680.3939979,1.59308538224E-6,0.0,32.110583952,-6.636102342265096E-13,9.99999779808402E-10,-0.03802206845360331,0.0,0.0,0.0,-17332.52393118,1000.50399357,9.35681632229E-4,669.429952603,416.531863231,1.33790902261E-11,1.01448587897E-6,-0.766565403683,0.0,0.0,0.0,0.288729944172,39.0408635461,171.154031655
9.2,2.09542976756E7,0.601966248314,0.0,0.0,0.195502879941,291.997837493,28651.3503211,1.64596904996E-6,0.0,32.1106730777,-6.709032707440818E-13,9.999997749439901E-10,-0.03843992875890994,0.0,0.0,0.0,-17519.870249580003,1000.6277237,9.36690153117E-4,670.3269286,416.635154349,1.36846152436E-11,1.07264937337E-6,-0.784070697719,0.0,0.0,0.0,0.291814723923,39.9324010359,173.004027208
9.3,2.09542683198E7,0.621726735014,0.0,0.0,0.199731137053,295.118524395,28621.9944879,1.70000294847E-6,0.0,32.1107631621,-6.781963273037178E-13,9.999997700222829E-10,-0.03885779021442935,0.0,0.0,0.0,-17707.1114637,1000.75278366,9.37709513415E-4,671.23354514,416.739555623,1.39938957461E-11,1.13348967241E-6,-0.801791165195,0.0,0.0,0.0,0.294896598641,40.8348972213,174.852984911
9.4,2.0954238652E7,0.641912196682,0.0,0.0,0.204003116154,298.237438102,28592.3266744,1.75519904582E-6,0.0,32.1108542045,-6.854894041059526E-13,9.999997650490092E-10,-0.039275652832136354,0.0,0.0,0.0,-17894.24628612,1000.8791727,9.38739707002E-4,672.149796782,416.845066424,1.43069441907E-11,1.19710103645E-6,-0.819727519855,0.0,0.0,0.0,0.297975535917,41.748388453,176.700892051
9.5,2.09542086724E7,0.662527001002,0.0,0.0,0.208318750798,301.354557088,28562.3470591,1.81156929209E-6,0.0,32.1109462046,-6.927825013685103E-13,9.999997600241692E-10,-0.03969351662400576,0.0,0.0,0.0,-18081.27342528,1001.00689007,9.39780727684E-4,673.075678016,416.95168612,1.46237731087E-11,1.26358009469E-6,-0.837880479686,0.0,0.0,0.0,0.301051503323,42.6729112978,178.547735875
9.6,2.09541783811E7,0.683575508945,0.0,0.0,0.212677973712,304.469859753,28532.0558225,1.86912561918E-6,0.0,32.1110391617,-7.000756192919262E-13,9.99999754947763E-10,-0.040111381601955105,0.0,0.0,0.0,-18268.19158518,1001.13593498,9.40832569192E-4,674.011183265,417.059414068,1.49443951036E-11,1.33302588642E-6,-0.85625076681,0.0,0.0,0.0,0.304124468412,43.6085025331,180.393503586
9.7,2.09541477785E7,0.705062074691,0.0,0.0,0.217080716793,307.583324426,28501.4531474,1.9278799406E-6,0.0,32.1111330752,-7.073687580881944E-13,9.999997498140614E-10,-0.0405292477779019,0.0,0.0,0.0,-18454.99946556,1001.26630666,9.41895225181E-4,674.956306887,417.168249617,1.52688228488E-11,1.40553989936E-6,-0.874839107371,0.0,0.0,0.0,0.307194398717,44.5551991409,182.238182344
9.8,2.09541168645E7,0.726991045541,0.0,0.0,0.221526911106,310.694929361,28470.5392186,1.98784415123E-6,0.0,32.1112279447,-7.146619179635799E-13,9.999997446287933E-10,-0.04094711516376367,0.0,0.0,0.0,-18641.69576166,1001.39800433,9.4296868923E-4,675.911043171,417.278192111,1.55970690863E-11,1.4812261019E-6,-0.89364623142,0.0,0.0,0.0,0.31026126175,45.5130383027,184.081759267
9.9,2.09540856395E7,0.749366761835,0.0,0.0,0.22601648688,313.804652743,28439.3142232,2.04903012707E-6,0.0,32.1113237696,-7.219550991300771E-13,9.999997393862294E-10,-0.04136498377134335,0.0,0.0,0.0,-18828.279164580003,1001.53102718,9.44052954845E-4,676.875386341,417.389240885,1.5929146624E-11,1.56019099568E-6,-0.9126728728,0.0,0.0,0.0,0.313325025007,46.4820573926,185.924221426
10.0,2.09540541037E7,0.772193556869,0.0,0.0,0.230549373505,316.912472678,28407.7783505,2.11144972505E-6,0.0,32.1114205493,-7.292483017824917E-13,9.999997340978289E-10,-0.04178285361261575,0.0,0.0,0.0,-19014.748360679998,1001.66537442,9.45148015453E-4,677.849330552,417.501395265,1.6265068334E-11,1.6425436453E-6,-0.931919769032,0.0,0.0,0.0,0.316385655961,47.4622939724,187.765555854
10.1,2.09540222571E7,0.795475756811,0.0,0.0,0.235125499527,320.018367201,28375.9317918,2.17511478278E-6,0.0,32.1115182833,-7.365415261328179E-13,9.999997287521328E-10,-0.04220072469926922,0.0,0.0,0.0,-19201.10203206,1001.80104522,9.46253864407E-4,678.832869891,417.61465457,1.66048471507E-11,1.72839572799E-6,-0.951387661197,0.0,0.0,0.0,0.31944312207,48.4537857849,189.605749535
10.2,2.09539901001E7,0.819217680612,0.0,0.0,0.239744792646,323.122314274,28343.7747409,2.24003711835E-6,0.0,32.1116169709,-7.438347723930502E-13,9.999997233548703E-10,-0.04261859704322127,0.0,0.0,0.0,-19387.33885644,1001.93803876,9.47370494983E-4,679.825998378,417.729018111,1.69484960684E-11,1.81786156442E-6,-0.971077293815,0.0,0.0,0.0,0.322497390772,49.4565707484,191.444789412
10.3,2.09539576327E7,0.84342363993,0.0,0.0,0.244407179717,326.224291782,28311.3073936,2.30622853003E-6,0.0,32.1117166115,-7.511280407579943E-13,9.99999717900312E-10,-0.04303647065627484,0.0,0.0,0.0,-19573.45750692,1002.07635421,9.48497900381E-4,680.828709964,417.844485193,1.72960281395E-11,1.91105816444E-6,-0.990989414731,0.0,0.0,0.0,0.325548429486,50.4706869502,193.282662383
10.4,2.09539248553E7,0.868097939032,0.0,0.0,0.249112586739,329.324277535,28278.5299479,2.37370079611E-6,0.0,32.1118172046,-7.584213314396445E-13,9.999997123999173E-10,-0.043454345550175556,0.0,0.0,0.0,-19759.4566521,1002.21599072,9.49636073721E-4,681.840998533,417.961055111,1.76474564721E-11,2.00810527409E-6,-1.01112477499,0.0,0.0,0.0,0.328596205612,51.4961726407,195.119355301
10.5,2.09538917679E7,0.893244874723,0.0,0.0,0.253860938856,332.422249268,28245.4426041,2.44246567464E-6,0.0,32.1119187496,-7.657146446442655E-13,9.999997068364972E-10,-0.04387222173666907,0.0,0.0,0.0,-19945.334956079998,1002.35694744,9.5078500805E-4,682.862857898,418.078727152,1.80027942282E-11,2.10912540726E-6,-1.03148412872,0.0,0.0,0.0,0.331640686535,52.5330662273,196.954854975
10.6,2.09538583709E7,0.918868736246,0.0,0.0,0.258652160356,335.518184642,28212.0455648,2.51253490319E-6,0.0,32.1120212459,-7.730079805723928E-13,9.999997012272403E-10,-0.044290099227558284,0.0,0.0,0.0,-20131.09107852,1002.4992235,9.51944696335E-4,683.894281806,418.197500596,1.83620546214E-11,2.21424389756E-6,-1.052068233,0.0,0.0,0.0,0.334681839621,53.5814062679,198.789148169
10.7,2.09538246643E7,0.944973805207,0.0,0.0,0.26348617466,338.612061241,28178.3390347,2.58392019863E-6,0.0,32.1121246928,-7.803013394245614E-13,9.999996955606877E-10,-0.044707978034474266,0.0,0.0,0.0,-20316.72367446,1002.64281804,9.53115131467E-4,684.935263932,418.317374716,1.87252509149E-11,2.32358893976E-6,-1.07287784775,0.0,0.0,0.0,0.337719632217,54.6412314647,200.622221602
10.8,2.09537906485E7,0.971564355482,0.0,0.0,0.268362904327,341.703856571,28144.3232208,2.65663325687E-6,0.0,32.1122290897,-7.875947214127658E-13,9.999996898482985E-10,-0.04512585816916264,0.0,0.0,0.0,-20502.23139426,1002.78773018,9.54296306256E-4,685.985797884,418.438348774,1.90923964188E-11,2.43729162858E-6,-1.09391373559,0.0,0.0,0.0,0.340754031657,55.712580658,202.454061948
10.9,2.09537563236E7,0.998644653132,0.0,0.0,0.273282271049,344.793548065,28109.9983324,2.73068575266E-6,0.0,32.112334436,-7.948881267375412E-13,9.999996840728838E-10,-0.04554373964331175,0.0,0.0,0.0,-20687.612883899998,1002.93395901,9.55488213438E-4,687.045877199,418.560422027,1.94635044887E-11,2.55548600345E-6,-1.11517666174,0.0,0.0,0.0,0.343785005253,56.7954928196,204.284655836
11.0,2.09537216899E7,1.02621895632,0.0,0.0,0.278244195642,347.881113077,28075.3645809,2.80608933933E-6,0.0,32.1124407311,-8.021815555994229E-13,9.999996782516327E-10,-0.04596162246849534,0.0,0.0,0.0,-20872.86678462,1003.08150364,9.56690845667E-4,688.115495344,418.683593722,1.98385885228E-11,2.67830909521E-6,-1.13666739385,0.0,0.0,0.0,0.346812520306,57.8900070464,206.113989848
11.1,2.09536867475E7,1.0542915152,0.0,0.0,0.28324859805,350.966528884,28040.4221802,2.88285564853E-6,0.0,32.1125479743,-8.094750082046755E-13,9.999996723730857E-10,-0.04637950665645905,0.0,0.0,0.0,-21057.991733040002,1003.23036316,9.5790419552E-4,689.194645718,418.8078631,2.02176619601E-11,2.8059009742E-6,-1.15838670193,0.0,0.0,0.0,0.349836544097,58.9961625539,207.942050523
11.2,2.09536514967E7,1.08286657188,0.0,0.0,0.288295397337,354.049772687,28005.1713464,2.96099629005E-6,0.0,32.112656165,-8.167684847538344E-13,9.999996664429727E-10,-0.04679739221871932,0.0,0.0,0.0,-21242.98636122,1003.38053665,9.59128255494E-4,690.283321648,418.933229391,2.06007382778E-11,2.93840478214E-6,-1.18033535817,0.0,0.0,0.0,0.352857043893,60.1139986695,209.768824353
11.3,2.09536159376E7,1.11194836028,0.0,0.0,0.293384511686,357.130821608,27969.6122977,3.04052285154E-6,0.0,32.1127653025,-8.240619854417053E-13,9.999996604612932E-10,-0.0472152791669072,0.0,0.0,0.0,-21427.849296480003,1003.53202318,9.60363018008E-4,691.381516389,419.059691819,2.09878309894E-11,3.07596679138E-6,-1.20251413683,0.0,0.0,0.0,0.355873986945,61.2435548261,211.594297782
11.4,2.09535800706E7,1.14154110607,0.0,0.0,0.298515858397,360.209652694,27933.7452548,3.12144689826E-6,0.0,32.1128753861,-8.313555104802824E-13,9.99999654422318E-10,-0.04763316751259644,0.0,0.0,0.0,-21612.57916164,1003.68482181,9.616084754E-4,692.489223129,419.1872496,2.13789536422E-11,3.2187364389E-6,-1.22492381411,0.0,0.0,0.0,0.358887340489,62.3848705553,213.418457212
11.5,2.09535438958E7,1.17164902658,0.0,0.0,0.303689353878,363.286242912,27897.5704406,3.20377997287E-6,0.0,32.1129864152,-8.38649060070101E-13,9.999996483317766E-10,-0.04805105726730349,0.0,0.0,0.0,-21797.17457472,1003.83893159,9.62864619928E-4,693.606434982,419.315901941,2.1774119815E-11,3.36686639066E-6,-1.24756516801,0.0,0.0,0.0,0.361897071748,63.5379854807,215.241288996
11.6,2.09535074134E7,1.20227633071,0.0,0.0,0.308904913649,366.360569152,27861.0880804,3.28753359516E-6,0.0,32.1130983892,-8.459426344059668E-13,9.99999642189669E-10,-0.04846894844254481,0.0,0.0,0.0,-21981.63414912,1003.99435155,9.64131443772E-4,694.733144992,419.44564804,2.21733431156E-11,3.52051255846E-6,-1.27043897822,0.0,0.0,0.0,0.364903147927,64.7029393111,217.062779442
11.7,2.09534706237E7,1.23342721882,0.0,0.0,0.314162452334,369.432608225,27824.2984018,3.37271926183E-6,0.0,32.1132113072,-8.53236233688415E-13,9.999996359902657E-10,-0.048886841049836836,0.0,0.0,0.0,-22165.9564935,1004.15108073,9.6540893903E-4,695.869346132,419.576487088,2.2576637179E-11,3.67983417755E-6,-1.29354602596,0.0,0.0,0.0,0.367905536222,65.8797718335,218.882914812
11.8,2.09534335269E7,1.26510588267,0.0,0.0,0.319461883658,372.502336865,27787.2016345,3.45934844622E-6,0.0,32.1133251687,-8.605298581237104E-13,9.999996297450258E-10,-0.04930473510063873,0.0,0.0,0.0,-22350.1402119,1004.30911816,9.66697097719E-4,697.0150313,419.708418269,2.29840156645E-11,3.84499383753E-6,-1.31688709384,0.0,0.0,0.0,0.370904203812,67.0685229066,220.701681321
11.9,2.09533961233E7,1.29731650534,0.0,0.0,0.324803120448,375.569731727,27749.7980109,3.5474325981E-6,0.0,32.1134399729,-8.678235079066587E-13,9.9999962344249E-10,-0.04972263060640965,0.0,0.0,0.0,-22534.18390362,1004.46846284,9.67995911776E-4,698.170193327,419.841440755,2.33954922535E-11,4.01615752396E-6,-1.34046296576,0.0,0.0,0.0,0.373899117863,68.2692324535,222.519065137
12.0,2.09533584131E7,1.33006326109,0.0,0.0,0.330186074624,378.634769387,27712.0877655,3.63698314339E-6,0.0,32.1135557192,-8.751171832320654E-13,9.999996170826585E-10,-0.050140527578608755,0.0,0.0,0.0,-22718.08616322,1004.62911376,9.69305373057E-4,699.334824968,419.975553713,2.38110806472E-11,4.193494688E-6,-1.36427442673,0.0,0.0,0.0,0.376890245532,69.4819404549,224.335052383
12.1,2.09533203964E7,1.36335031529,0.0,0.0,0.3356106572,381.697426343,27674.0711351,3.72801148392E-6,0.0,32.1136724067,-8.824108843119252E-13,9.999996106712608E-10,-0.0505584260285806,0.0,0.0,0.0,-22901.84558058,1004.79106994,9.70625473335E-4,700.508918908,420.110756301,2.4230794564E-11,4.37717827466E-6,-1.38832226277,0.0,0.0,0.0,0.379877553959,70.7066869421,226.149629134
12.2,2.09532820737E7,1.39718182437,0.0,0.0,0.34107677828,384.757679014,27635.7483591,3.82052899719E-6,0.0,32.1137900349,-8.897046113295842E-13,9.999996042140265E-10,-0.050976325967727054,0.0,0.0,0.0,-23085.46074084,1004.95433033,9.71956204303E-4,701.692467757,420.247047667,2.46546477374E-11,4.56738477617E-6,-1.41260726074,0.0,0.0,0.0,0.382861010276,71.9435119898,227.962781419
12.3,2.0953243445E7,1.43156193567,0.0,0.0,0.346584347051,387.815503741,27597.1196789,3.91454703614E-6,0.0,32.1139086029,-8.969983644913075E-13,9.999995976937666E-10,-0.05139422740739267,0.0,0.0,0.0,-23268.93022446,1005.11889392,9.73297557571E-4,702.885464053,420.384426952,2.50826539132E-11,4.76429428955E-6,-1.43713020821,0.0,0.0,0.0,0.385840581603,73.1924557089,229.77449522
12.4,2.09532045106E7,1.46649478737,0.0,0.0,0.352133271787,390.870876785,27558.1853387,4.01007692887E-6,0.0,32.1140281101,-9.04292143986171E-13,9.999995911276704E-10,-0.051812130358864734,0.0,0.0,0.0,-23452.2526071,1005.28475966,9.74649524667E-4,704.087900261,420.522893289,2.55148268471E-11,4.96809055875E-6,-1.46189189335,0.0,0.0,0.0,0.388816235048,74.4535582395,231.584756474
12.5,2.09531652709E7,1.50198450841,0.0,0.0,0.35772345984,393.923774329,27518.9455848,4.10712997837E-6,0.0,32.1141485557,-9.115859500261691E-13,9.999995845042783E-10,-0.05223003483354509,0.0,0.0,0.0,-23635.426459740003,1005.45192651,9.76012097036E-4,705.299768774,420.662445801,2.59511803025E-11,5.17896102297E-6,-1.48689310471,0.0,0.0,0.0,0.39178793771,75.7268597437,233.393551068
12.6,2.0953125726E7,1.53803521839,0.0,0.0,0.363354817638,396.974172476,27479.4006658,4.20571746234E-6,0.0,32.1142699389,-9.188797827946484E-13,9.9999957782932E-10,-0.05264794084266372,0.0,0.0,0.0,-23818.45034856,1005.62039341,9.77385266041E-4,706.521061909,420.803083604,2.63917280476E-11,5.39709687389E-6,-1.51213463118,0.0,0.0,0.0,0.394755656678,77.012400398,235.200864846
12.7,2.09530858761E7,1.57465102748,0.0,0.0,0.369027250685,400.022047251,27439.550833,4.30585063288E-6,0.0,32.114392259,-9.261736424864145E-13,9.999995710970659E-10,-0.05306584839750788,0.0,0.0,0.0,-24001.32283506,1005.79015928,9.78769022962E-4,707.751771909,420.944805804,2.68364838533E-11,5.62269309892E-6,-1.53761726176,0.0,0.0,0.0,0.397719359032,78.3102203863,237.006683601
12.8,2.09530457217E7,1.61183603631,0.0,0.0,0.374740663552,403.0673746,27399.3963399,4.40754071625E-6,0.0,32.1145155153,-9.334675293077321E-13,9.99999564318975E-10,-0.05348375750919297,0.0,0.0,0.0,-24184.042476,1005.96122304,9.80163358993E-4,708.991890945,421.087611501,2.72854614903E-11,5.85594853944E-6,-1.56334178546,0.0,0.0,0.0,0.400679011845,79.6203598925,238.810993083
12.9,2.09530052628E7,1.64959433589,0.0,0.0,0.380494959881,406.110130389,27358.9374424,4.51079891261E-6,0.0,32.1146397069,-9.407614434476775E-13,9.999995574835887E-10,-0.053901668189006255,0.0,0.0,0.0,-24366.60782334,1006.13358361,9.81568265248E-4,710.241411112,421.231499783,2.77386747268E-11,6.09706593836E-6,-1.58930899113,0.0,0.0,0.0,0.403634582179,80.9428590929,240.613778994
13.0,2.09529644997E7,1.68793000753,0.0,0.0,0.386290042378,409.150290407,27318.1743989,4.6156363958E-6,0.0,32.1147648332,-9.480553851010563E-13,9.999995505966358E-10,-0.0543195804481204,0.0,0.0,0.0,-24549.01742442,1006.30723989,9.82983732756E-4,711.500324431,421.376469731,2.8196137326E-11,6.34625198425E-6,-1.61551966735,0.0,0.0,0.0,0.40658603709,82.2777581488,242.415026987
13.1,2.09529234328E7,1.72684712271,0.0,0.0,0.392125812807,412.187830362,27277.1074703,4.72206431304E-6,0.0,32.1148908932,-9.55349354462674E-13,9.999995436523873E-10,-0.05473749429765079,0.0,0.0,0.0,-24731.26982172,1006.48219076,9.8440975246E-4,712.768622847,421.522520419,2.86578630432E-11,6.60371738276E-6,-1.64197460224,0.0,0.0,0.0,0.409533343627,83.6250971991,244.214722671
13.2,2.09528820622E7,1.76634974304,0.0,0.0,0.398002171995,415.222725884,27235.7369196,4.8300937847E-6,0.0,32.1150178862,-9.626433517273362E-13,9.999995366565729E-10,-0.05515540974877011,0.0,0.0,0.0,-24913.36355304,1006.6584351,9.8584631522E-4,714.046298231,421.66965091,2.91238656234E-11,6.86967688834E-6,-1.66867458333,0.0,0.0,0.0,0.412476468835,84.9849163527,246.012851609
13.3,2.09528403883E7,1.80644192011,0.0,0.0,0.403919019821,418.254952524,27194.0630126,4.93973590403E-6,0.0,32.1151458115,-9.699373770841192E-13,9.99999529609192E-10,-0.05557332681253643,0.0,0.0,0.0,-25095.297151439998,1006.83597178,9.87293411811E-4,715.333342378,421.81786026,2.95941587989E-11,7.1443493759E-6,-1.69562039741,0.0,0.0,0.0,0.415415379749,86.3572556808,247.809399313
13.4,2.09527984113E7,1.84712769541,0.0,0.0,0.409876255216,421.284485755,27152.0860174,5.0510017369E-6,0.0,32.1152746681,-9.772314307278284E-13,9.99999522510245E-10,-0.055991245500007863,0.0,0.0,0.0,-25277.0691453,1007.01479966,9.88751032922E-4,716.629747009,421.967147514,3.00687562863E-11,7.42795787858E-6,-1.72281283041,0.0,0.0,0.0,0.418350043402,87.7421552094,249.604351253
13.5,2.09527561315E7,1.88841110027,0.0,0.0,0.415873776165,424.311300971,27109.8062046,5.16390232158E-6,0.0,32.1154044554,-9.845255128532698E-13,9.99999515354002E-10,-0.05640916582218517,0.0,0.0,0.0,-25458.67805826,1007.19491758,9.9021916916E-4,717.935503766,422.117511711,3.05476717843E-11,7.72072964201E-6,-1.75025266719,0.0,0.0,0.0,0.421280426822,89.1396549116,251.39769285
13.6,2.09527135492E7,1.93029615572,0.0,0.0,0.421911479694,427.335373487,27067.2238471,5.27844866841E-6,0.0,32.1155351724,-9.918196236495193E-13,9.99999508146193E-10,-0.05682708779018374,0.0,0.0,0.0,-25640.122409220003,1007.37632439,9.91697811042E-4,719.250604218,422.26895188,3.10309189705E-11,8.02289619236E-6,-1.77794069142,0.0,0.0,0.0,0.424206497034,90.5497946997,253.189409479
13.7,2.09526706645E7,1.97278687242,0.0,0.0,0.427989261876,430.35667854,27024.3392206,5.39465175959E-6,0.0,32.1156668184,-9.991137633056528E-13,9.999995008868178E-10,-0.057245011414889795,0.0,0.0,0.0,-25821.4007124,1007.55901891,9.93186949002E-4,720.575039856,422.42146704,3.15185114993E-11,8.33469338073E-6,-1.80587768544,0.0,0.0,0.0,0.427128221058,91.9726144177,254.979486468
13.8,2.09526274779E7,2.01588725056,0.0,0.0,0.434107017824,433.375191289,26981.152603,5.51252254893E-6,0.0,32.1157993924,-1.0064079320222058E-12,9.999994935701465E-10,-0.0576629367071322,0.0,0.0,0.0,-26002.51147734,1007.74299995,9.94686573387E-4,721.908802094,422.575056203,3.20104629988E-11,8.65636143331E-6,-1.83406443009,0.0,0.0,0.0,0.430045565914,93.4081538335,256.767909099
13.9,2.09525839896E7,2.05960127975,0.0,0.0,0.440264641689,436.390886815,26937.6642747,5.63207196153E-6,0.0,32.1159328938,-1.013702129976795E-12,9.999994862019093E-10,-0.058080863678312826,0.0,0.0,0.0,-26183.4532089,1007.92826632,9.96196674458E-4,723.251882271,422.729718372,3.25067870685E-11,8.9881450182E-6,-1.86250170456,0.0,0.0,0.0,0.432958498618,94.8564526306,258.554662609
14.0,2.09525401998E7,2.10393293894,0.0,0.0,0.446462026655,439.403740119,26893.8745188,5.75331089358E-6,0.0,32.1160673215,-1.0209963573699554E-12,9.999994787821058E-10,-0.058498792339146004,0.0,0.0,0.0,-26364.224407140002,1008.11481681,9.97717242388E-4,724.604271647,422.88545254,3.30074972763E-11,9.3302932938E-6,-1.89119028622,0.0,0.0,0.0,0.435866986187,96.3175504008,260.339732188
14.1,2.09524961089E7,2.14888619632,0.0,0.0,0.452699064942,442.413726128,26849.7836207,5.87625021205E-6,0.0,32.1162026748,-1.0282906143793047E-12,9.999994713050066E-10,-0.05891672269994495,0.0,0.0,0.0,-26544.82356768,1008.30265022,9.99248267265E-4,725.965961406,423.042257693,3.35126071556E-11,9.6830599553E-6,-1.9201309505,0.0,0.0,0.0,0.438770995637,97.791486636,262.123102978
14.2,2.09524517172E7,2.19446500921,0.0,0.0,0.458975647798,445.420819688,26805.3918685,6.00090075444E-6,0.0,32.1163389528,-1.0355849012053774E-12,9.99999463782071E-10,-0.059334654772168836,0.0,0.0,0.0,-26725.24918128,1008.4917653,0.00100078973909,727.336942653,423.200132804,3.40221302034E-11,1.0046703314E-5,-1.9493244707,0.0,0.0,0.0,0.441670493985,99.2783007201,263.904760078
14.3,2.09524070249E7,2.24067332399,0.0,0.0,0.465291665496,448.424995571,26760.6995525,6.12727332855E-6,0.0,32.1164761546,-1.0428792180315204E-12,9.999994562018393E-10,-0.05975258856613089,0.0,0.0,0.0,-26905.49973426,1008.68216083,0.00100234164777,728.717206417,423.359076843,3.45360798765E-11,1.04214863312E-5,-1.97877161785,0.0,0.0,0.0,0.444565448247,100.778031922,265.684688539
14.4,2.09523620323E7,2.28751507598,0.0,0.0,0.471647007334,451.426228468,26715.7069659,6.25537871215E-6,0.0,32.1166142794,-1.0501735650468095E-12,9.999994485643117E-10,-0.06017052409329028,0.0,0.0,0.0,-27085.57370808,1008.87383555,0.00100390398314,730.106743647,423.519088766,3.50544695895E-11,1.08076766897E-5,-2.00847316055,0.0,0.0,0.0,0.447455825444,102.290719384,267.462873368
14.5,2.09523167397E7,2.33499418932,0.0,0.0,0.478041561636,454.424492996,26670.4144041,6.38522765275E-6,0.0,32.1167533262,-1.0574679424345913E-12,9.999994408809478E-10,-0.06058846136396024,0.0,0.0,0.0,-27265.46957976,1009.06678821,0.00100547673492,731.505545217,423.680167522,3.55773127118E-11,1.1205546833E-5,-2.0384298648,0.0,0.0,0.0,0.450341592598,103.816402121,269.239299526
14.6,2.09522711475E7,2.38311457695,0.0,0.0,0.484475215738,457.419763695,26624.8221654,6.51683086736E-6,0.0,32.1168932941,-1.064762350383942E-12,9.999994331402878E-10,-0.061006400388454014,0.0,0.0,0.0,-27445.185821699997,1009.26101753,0.00100705989278,732.913601918,423.842312052,3.61046225647E-11,1.16153740494E-5,-2.06864249387,0.0,0.0,0.0,0.453222716735,105.355119005,271.013951927
14.7,2.09522252559E7,2.43188014041,0.0,0.0,0.490947855995,460.412015028,26578.9305504,6.65019904214E-6,0.0,32.1170341823,-1.072056789078208E-12,9.99999425348062E-10,-0.06142434117823075,0.0,0.0,0.0,-27624.72090168,1009.45652224,0.00100865344626,734.330904465,424.005521285,3.66364124189E-11,1.20374405069E-5,-2.0991118081,0.0,0.0,0.0,0.456099164887,106.906908759,272.786815443
14.8,2.09521790652E7,2.48129476983,0.0,0.0,0.497459367778,463.401221384,26532.7398623,6.78534283222E-6,0.0,32.1171759898,-1.079351258712195E-12,9.999994174985402E-10,-0.06184228374360369,0.0,0.0,0.0,-27804.07328304,1009.65330104,0.00101025738484,735.757443495,424.169794144,3.71726954913E-11,1.24720333148E-5,-2.12983856477,0.0,0.0,0.0,0.458970904087,108.471809952,274.557874898
14.9,2.09521325757E7,2.53136234378,0.0,0.0,0.504009635467,466.387357072,26486.2504068,6.92227286138E-6,0.0,32.1173187157,-1.08664575945779E-12,9.999994095974523E-10,-0.06226022809545905,0.0,0.0,0.0,-27983.24142432,1009.85135263,0.00101187169791,737.193209562,424.335129541,3.77134849425E-11,1.29194445933E-5,-2.16082351794,0.0,0.0,0.0,0.461837901379,110.049860986,276.327115073
15.0,2.09520857878E7,2.58208672918,0.0,0.0,0.51059854245,469.370396331,26439.4624924,7.06099972179E-6,0.0,32.117462359,-1.0939402915097993E-12,9.999994016447979E-10,-0.06267817424411003,0.0,0.0,0.0,-28162.22377986,1010.0506757,0.00101349637475,738.638193145,424.501526379,3.82587938741E-11,1.33799715182E-5,-2.19206741825,0.0,0.0,0.0,0.464700123811,111.641100094,278.094520703
15.1,2.09520387017E7,2.63347178121,0.0,0.0,0.517225971123,472.350313321,26392.3764299,7.20153397375E-6,0.0,32.117606919,-1.1012348550458392E-12,9.999993936405774E-10,-0.06309612219986992,0.0,0.0,0.0,-28341.01879926,1010.25126893,0.00101513140456,740.09238464,424.668983553,3.88086353254E-11,1.38539163902E-5,-2.22357101281,0.0,0.0,0.0,0.467557538438,113.245565324,279.86007648
15.2,2.09519913178E7,2.6855213432,0.0,0.0,0.523891802887,475.327082129,26344.992533,7.34388614541E-6,0.0,32.1177523945,-1.1085294502549861E-12,9.999993855790615E-10,-0.06351407197362488,0.0,0.0,0.0,-28519.624927740002,1010.45313096,0.00101677677647,741.555774365,424.837499948,3.9363022271E-11,1.43415866808E-5,-2.25533504501,0.0,0.0,0.0,0.470410112326,114.863294536,281.62376705
15.3,2.09519436364E7,2.73823924655,0.0,0.0,0.530595918142,478.300676768,26297.3111176,7.48806673247E-6,0.0,32.1178987847,-1.1158240773148568E-12,9.99999377465979E-10,-0.06393202357568817,0.0,0.0,0.0,-28698.04060608,1010.65626047,0.00101843247949,743.028352557,425.007074439,3.99219676177E-11,1.4843295111E-5,-2.28736025435,0.0,0.0,0.0,0.47325781255,116.494325394,283.385577018
15.4,2.09518956578E7,2.7916293106,0.0,0.0,0.537338196288,481.271071176,26249.3325026,7.63408619797E-6,0.0,32.1180460885,-1.1231187364145272E-12,9.999993693013303E-10,-0.06434997701694599,0.0,0.0,0.0,-28876.26427056,1010.8606561,0.00102009850255,744.510109372,425.177705892,4.04854842016E-11,1.53593596948E-5,-2.31964737629,0.0,0.0,0.0,0.476100606194,118.138695354,285.145490941
15.5,2.09518473823E7,2.84569534204,0.0,0.0,0.54411849859,484.238224,26201.0570096,7.78195497054E-6,0.0,32.1181943051,-1.130413427725885E-12,9.99999361079386E-10,-0.0647679323071386,0.0,0.0,0.0,-29054.29344,1011.06356613,0.00102192403104,746.175986462,425.349462753,4.10595767275E-11,1.58924231886E-5,-2.35254045508,0.0,0.0,0.0,0.478939748125,119.813926449,286.903484319
