time,eiPosition_ft_X,eiPosition_ft_Y,eiPosition_ft_Z,gePosition_ft_X,gePosition_ft_Y,gePosition_ft_Z,eiVelocity_ft_s_X,eiVelocity_ft_s_Y,eiVelocity_ft_s_Z,feVelocity_ft_s_X,feVelocity_ft_s_Y,feVelocity_ft_s_Z,altitudeMsl_ft,longitude_deg,latitude_deg,localGravity_ft_s2,eulerAngle_deg_Yaw,eulerAngle_deg_Pitch,eulerAngle_deg_Roll,bodyAngularRateWrtEi_deg_s_Roll,bodyAngularRateWrtEi_deg_s_Pitch,bodyAngularRateWrtEi_deg_s_Yaw,altitudeRateWrtMsl_ft_min,speedOfSound_ft_s,airDensity_slug_ft3,ambientPressure_lbf_ft2,ambientTemperature_dgR,aero_bodyForce_lbf_X,aero_bodyForce_lbf_Y,aero_bodyForce_lbf_Z,aero_bodyMoment_ftlbf_L,aero_bodyMoment_ftlbf_M,aero_bodyMoment_ftlbf_N,mach,dynamicPressure_lbf_ft2,trueAirspeed_nmi_h
0.0,2.0955646325460006E7,0.0,0.0,2.0955646325460006E7,0.0,0.0,0.0,1528.1098290458178,0.0,0.0,0.0,0.0,30000.000000003725,0.0,0.0,32.10653595184196,0.0,1.2722218725854067E-14,0.0,0.0,0.0,9.277188200394804E-19,-0.0,994.8490287717559,8.907042526446323E-4,629.6799295020096,411.8388729485991,0.0,0.0,-0.0,0.0,0.0,0.0,0.0,0.0,0.0
0.10000000000000007,2.095564616493007E7,152.81098251439366,-4.567732209316804E-24,2.095564616548723E7,7.777063813774188E-7,-4.567732209316804E-24,-3.2106506276494073,1528.1098173397852,-1.827094661059761E-22,-1.8270946681454782E-22,2.333117134052223E-5,3.1995074749867607,29999.840027227998,2.1263621747299945E-12,9.341229218958342E-28,32.10653644282899,0.0,1.2722218726192307E-14,-4.178074153504015E-4,0.0,0.0,9.277188200394804E-19,-191.97044849920565,994.8497158371389,8.907094884904801E-4,629.6845007109948,411.8394417993945,1.4395319551571143E-20,1.4631438630915427E-16,-8.951630371269115E-5,0.0,0.0,0.0,0.0032160711554101713,0.004559028859899879,1.8956333996077142
0.20000000000000015,2.0955645683333144E7,305.62196268754184,-7.308407962643485E-23,2.0955645685561772E7,6.2216349984711705E-6,-7.308407962643485E-23,-6.421283449922018,1528.1097822211004,-1.4616863111488494E-21,-1.4616863334517862E-21,9.332435980665171E-5,6.398997144257054,29999.36010177061,1.7010853897424263E-11,1.4946041246784086E-26,32.10653791581203,0.0,1.2722218727206875E-14,-8.356148434589361E-4,0.0,0.0,9.277188200394804E-19,-383.93982865542324,994.8517770611271,8.907251964031524E-4,629.6982147033459,411.8411483771874,5.758197322427777E-20,4.936593485024367E-15,-3.580695367723129E-4,0.0,0.0,0.0,0.006432111086779924,0.018236335553302292,3.791256250046978
0.3000000000000002,2.095564488067456E7,458.43293817819824,-3.69991132494449E-22,2.0955644885688975E7,2.0997948078638196E-5,-3.69991132494449E-22,-9.631880660576124,1528.1097236899543,-4.9332508252253235E-21,-4.933250994508635E-21,2.0997859235106527E-4,9.598451201229514,29998.560228973627,5.741144259236905E-11,7.566494311034872E-26,32.106540370774894,0.0,1.2722218728897317E-14,-0.0012534222970835588,0.0,0.0,9.277188200394804E-19,-575.9070720737708,994.8552124124254,8.907513766330914E-4,629.7210718113721,411.84399266313864,1.2956204605131333E-19,3.754066916112911E-14,-8.05672664814253E-4,0.0,0.0,0.0,0.009648088569844247,0.04103258041473255,5.6868580016369
0.4000000000000003,2.0955643756958783E7,611.2439066451167,-1.1693678609694422E-21,2.0955643765873305E7,4.97726704041801E-5,-1.1693678609694422E-21,-12.842424451640195,1528.1096417463398,-1.1693829119166808E-20,-1.1693829833535457E-20,3.7329224473960445E-4,12.79785183759298,29997.440413303673,1.3608572378479617E-10,2.391412790863319E-25,32.106543807704206,0.0,1.2722218731262895E-14,-0.0016712297889818735,0.0,0.0,9.277188200394804E-19,-767.8711102555787,994.8600218579311,8.907880297429158E-4,629.7530727157119,411.84797464162676,2.3033901301854467E-19,1.583875425898929E-13,-0.00143234729679892,0.0,0.0,0.0,0.012863972379889952,0.07294886397973611,7.58242810367171
0.5000000000000003,2.0955642312192027E7,764.0548657470504,-2.854943341778307E-21,2.095564232612097E7,9.721162931614069E-5,-2.854943341778307E-21,-16.05289701254811,1528.109536390247,-2.284000603094628E-20,-2.2840008210306864E-20,5.83263046458552E-4,15.99718124244175,29996.00066096708,2.657907590101581E-10,5.838494671008512E-25,32.106548226581396,0.0,1.2722218734302553E-14,-0.0020890373319109577,0.0,0.0,9.277188200394804E-19,-959.830874546505,994.8662053515029,8.908351565218333E-4,629.7942183706217,411.85309429094855,3.5991773896086226E-19,4.83308393499979E-13,-0.002238123684367203,0.0,0.0,0.0,0.01607973129152846,0.11398672695205246,9.477956003908409
0.6000000000000004,2.0955640546382334E7,916.8658131427502,-5.920115276061709E-21,2.0955640566440012E7,1.6798039849030832E-4,-5.920115276061709E-21,-19.263280529274326,1528.1094076216634,-3.946857802732216E-20,-3.946858345013237E-20,8.398880730783745E-4,19.196421601410744,29994.24098001048,4.5928292403687917E-10,1.2106916794191984E-24,32.10655362738237,0.0,1.272221873801494E-14,-0.002506844938627175,0.0,0.0,9.277188200394804E-19,-1151.7852960846446,994.87376283353,8.908927579823492E-4,629.844510001118,411.8593515829612,5.18304478415579E-19,1.202950841828697E-12,-0.003223040720928844,0.0,0.0,0.0,0.019295334078476813,0.1641481501571862,11.373431148054358
0.7000000000000005,2.0955638459539477E7,1069.6767464909656,-1.0967973797076523E-20,2.0955638486840203E7,2.6674422458927705E-4,-1.0967973797076523E-20,-22.47355718346924,1528.1092554405725,-6.267660609913711E-20,-6.26766178207515E-20,0.001143163754268289,22.395555095810906,29992.161380201578,7.293177102693866E-10,2.243002711434014E-24,32.106560010077885,0.0,1.2722218742398408E-14,-0.0029246526218860147,0.0,0.0,9.277188200394804E-19,-1343.7333057486544,994.8826942314454,8.909608353641763E-4,629.9039491064138,411.86674648350674,7.055068754362875E-19,2.60039546795894E-12,-0.004387145940504922,0.0,0.0,0.0,0.02251074951332589,0.22343555448345534,13.268842979255028
0.8000000000000006,2.0955636051675044E7,1222.487663450447,-1.871133056704574E-20,2.095563608733314E7,3.9816796285785383E-4,-1.871133056704574E-20,-25.68370915159471,1528.1090798469563,-9.356146864867785E-20,-9.35614915020698E-20,0.0014930858674483247,25.59456390176472,29989.761873137206,1.0886495506030722E-9,3.826555932109228E-24,32.10656737463325,0.0,1.272221874745101E-14,-0.003342460394441907,0.0,0.0,9.277188200394804E-19,-1535.673834105883,994.8929994592627,8.910393901307001E-4,629.9725374568577,411.87527895202726,9.215339633619229E-19,5.0706239561869304E-12,-0.005730495516291783,0.0,0.0,0.0,0.02572594636732399,0.2918518008088527,15.164180937581792
0.9000000000000007,2.0955633322802395E7,1375.2985616799401,-2.9972753162280184E-20,2.0955633367932174E7,5.669160186702049E-4,-2.9972753162280184E-20,-28.893718604059597,1528.1088808407935,-1.3322091436751107E-19,-1.3322095555090925E-19,0.0018896495409531163,28.793430189341777,29987.04247217253,1.5500316615516221E-9,6.1295703159006936E-24,32.106575721008475,0.0,1.2722218753170498E-14,-0.003760268269048046,0.0,0.0,9.277188200394804E-19,-1727.6058113605066,994.904678417883,8.911284239713084E-4,630.0502770959979,411.8849489418169,1.1663961645466734E-18,9.13863613476111E-12,-0.007253154258981514,0.0,0.0,0.0,0.02894089341014702,0.36940018991550844,17.05943445951977
1.0000000000000007,2.0955630272936665E7,1528.1094388381875,-4.5684604745539074E-20,2.095563032865244E7,7.776522620354109E-4,-4.5684604745539074E-20,-32.10356770435572,1528.10865842206,-1.8275311510314357E-19,-1.8275318484806335E-19,0.002332849252837669,31.99213612169473,29984.003192439675,2.1262158114380054E-9,9.342718555942265E-24,32.106585049158255,0.0,1.272221875955432E-14,-0.00417807625845621,0.0,0.0,9.277188200394804E-19,-1919.5281673016839,994.917730995016,8.912279388007835E-4,630.1371703400887,411.89575639995564,1.4401052900466166E-18,1.547823026467289E-11,-0.008955195614813304,0.0,0.0,0.0,0.0321555594096755,0.4560844623904468,18.954592977455903
1.0999999999999897,2.095562690209478E7,1680.9202925839325,-6.688908902443663E-20,2.0955626969510876E7,0.0010350399771777985,-6.688908902443663E-20,-35.31323860819371,1528.1084125907282,-2.432567187130003E-19,-2.4325683103901443E-19,0.002822678828735684,35.19066385419518,29980.644050873816,2.8299521844842755E-9,1.3679136258253383E-23,32.10659535903192,0.0,1.2722218766599629E-14,-0.004595884375416597,0.0,0.0,9.277188200394804E-19,-2111.4398312517105,994.9321570650704,8.913379367584598E-4,630.2332197773943,411.90770126721634,1.742674539262787E-18,2.4931247106019853E-11,-0.01083670166335389,0.0,0.0,0.0,0.03536991313177408,0.5519087985125447,20.84964591916693
1.1999999999999786,2.0955623210295472E7,1833.7311205759122,-9.473830049453586E-20,2.09556232905262E7,0.0013437417962297582,-9.473830049453586E-20,-38.52271346263933,1528.1081433467677,-3.1583090190394944E-19,-3.1583107545790033E-19,0.0033591314421810735,38.38899553357002,29976.96506619826,3.6739892014617413E-9,1.9374432216690292E-23,32.106606650573404,0.0,1.2722218774303269E-14,-0.0050136926326776275,0.0,0.0,9.277188200394804E-19,-2303.339732014201,994.947956489221,8.914584202087233E-4,630.3384282686695,411.92078347811776,2.074118499543193E-18,3.852631436309713E-11,-0.012897763115022724,0.0,0.0,0.0,0.038583923340066724,0.6568778181264899,22.744582707307757
1.2999999999999676,2.0955619197559234E7,1986.5419204728637,-1.3049427996561412E-19,2.0955619291718915E7,0.0017084196370005245,-1.3049427996561412E-19,-41.73197440525009,1528.1078506901424,-4.0157542305592856E-19,-4.0157568202612314E-19,0.0039421996130726035,41.587113297038,29972.96625891328,4.671073351484475E-9,2.668669976833094E-23,32.106618923721356,0.0,1.2722218782661798E-14,-0.00543150104298579,0.0,0.0,9.277188200394804E-19,-2495.22679782228,994.9651291154591,8.915893917413845E-4,630.4527989475363,411.9350029609645,2.4344531457427936E-18,5.7498177378491194E-11,-0.01513847930835572,0.0,0.0,0.0,0.04179755879571141,0.7709965805034247,24.639392758899813
1.3999999999999566,2.095561486390832E7,2139.3526899335193,-1.7552907536942624E-19,2.095561497311127E7,0.0021337346354339815,-1.7552907536942624E-19,-44.941003563211865,1528.107534620829,-5.015906750280062E-19,-5.015910501570739E-19,0.004571875226336875,44.78499927144645,29968.647651270032,5.833949009280804E-9,3.589652922895122E-23,32.10663217840918,0.0,1.2722218791671463E-14,-0.005849309619085463,0.0,0.0,9.277188200394804E-19,-2687.0999562867873,994.9836747787078,8.91730854172546E-4,630.576335221295,411.9503596379393,2.823695839743135E-18,8.329932979451393E-11,-0.01755895820701815,0.0,0.0,0.0,0.04501078825717101,0.8942705841888136,26.534065484819635
1.4999999999999456,2.095561020936683E7,2292.163426616603,-2.3132480784712037E-19,2.0955610334727366E7,0.00262434706867265,-2.3132480784712037E-19,-48.149783052476174,1528.1071951387826,-6.169777379450609E-19,-6.16978267616254E-19,0.005248149491663656,47.98263557240852,29964.009267363697,7.175358226779526E-9,4.730702140821528E-23,32.1066464145647,0.0,1.2722218801328203E-14,-0.006267118373718695,0.0,0.0,9.277188200394804E-19,-2878.958134344511,995.0035933004251,8.918828105415666E-4,630.7090407683329,411.96685342477224,3.241865329917345E-18,1.1763321661913575E-10,-0.02015931639647774,0.0,0.0,0.0,0.04822358048000715,1.0267057668330064,28.42859028928762
1.5999999999999346,2.0955605233960614E7,2444.9741281808456,-2.994737431142902E-19,2.0955605376593057E7,0.0031849163128148117,-2.994737431142902E-19,-51.358294976897525,1528.1068322439626,-7.488384319636066E-19,-7.488391633691974E-19,0.005971012974598729,51.18000430344051,29959.05113305524,8.708040619551139E-9,6.124380220416749E-23,32.10666163211055,0.0,1.2722218811627674E-14,-0.0066849273196251,0.0,0.0,9.277188200394804E-19,-3070.800258206431,995.0248844889438,8.920452641136354E-4,630.8509195404353,411.98448423101854,3.688981750566463E-18,1.6246218731358528E-10,-0.022939679080499542,0.0,0.0,0.0,0.051435904216643756,1.1683085050127218,30.322956569356997
1.6999999999999236,2.095559993771733E7,2597.784792284968,-3.8167836810150005E-19,2.0955600098736007E7,0.0038201007553639865,-3.8167836810150005E-19,-54.566521427371356,1528.1064459363254,-8.982753700151525E-19,-8.98276360421224E-19,0.006740455585307362,54.37708755509993,29953.77327600494,1.0444733129369856E-8,7.805503827658363E-23,32.106677830963925,0.0,1.2722218822565218E-14,-0.007102736469541624,0.0,0.0,9.277188200394804E-19,-3262.625253305996,995.0475481393314,8.922182183786864E-4,631.0019757619073,412.00325195993946,4.165066621302468E-18,2.2003032414950483E-10,-0.025900180077309307,0.0,0.0,0.0,0.05464772821615081,1.3190856140356508,32.21715371440303
1.7999999999999126,2.095559432066642E7,2750.595416587683,-4.79751472867948E-19,2.095559450118564E7,0.00453455773625433,-4.79751472867948E-19,-57.77444448097206,1528.1060362158262,-1.066392010525228E-18,-1.066393328605084E-18,0.007556466581624498,57.573867404123426,29948.175725638866,1.239816986490505E-8,9.811145379870399E-23,32.10669501103671,0.0,1.2722218834135874E-14,-0.007520545836202374,0.0,0.0,9.277188200394804E-19,-3454.4320442474054,995.0715840335383,8.92401677052519E-4,631.1622139306246,412.0231565086215,4.670142846395621E-18,2.928809034925176E-10,-0.029040961815535022,0.0,0.0,0.0,0.057859021224014026,1.4790443477337614,34.111171105612364
1.8999999999999015,2.095558838283912E7,2903.4059987477026,-5.956162377857484E-19,2.095558858397321E7,0.005332943486889619,-5.956162377857484E-19,-60.98204620009181,1528.105603082416,-1.254292710106612E-18,-1.2542944373679092E-18,0.008419034564109147,60.77032591256569,29942.25851320848,1.4581081936979997E-8,1.218063482868329E-22,32.106713172235395,0.0,1.2722218846334395E-14,-0.00793835543233846,0.0,0.0,9.277188200394804E-19,-3646.2195547539413,995.096991940146,8.925956440748532E-4,631.3316388164143,412.04419776776444,5.204234714063697E-18,3.838775435390014E-10,-0.03236217532978701,0.0,0.0,0.0,0.0610697519819269,1.6481923982381932,36.00499811547276
1.9999999999998905,2.0955582124268472E7,3056.216536423736,-7.313063259921718E-19,2.0955582347131748E7,0.006219913061083826,-7.313063259921718E-19,-64.18930863157966,1528.1051465360442,-1.4630827762248213E-18,-1.4630850085202485E-18,0.009328147476745314,63.96644512693854,29936.021671745926,1.700619727168679E-8,1.4955561550726084E-22,32.10673231446105,0.0,1.2722218859155207E-14,-0.00835616527067781,0.0,0.0,9.277188200394804E-19,-3837.9867076163123,995.1237716145645,8.92800123610817E-4,631.5102554624358,412.06637562184,5.767367895731893E-18,4.962229597257939E-10,-0.035863980256055736,0.0,0.0,0.0,0.06427988922755871,1.8265378957448704,37.89862410726302
2.0999999999998797,2.0955575544989314E7,3209.0270272744815,-8.88965981106985E-19,2.0955575790696107E7,0.007200120262573995,-8.88965981106985E-19,-67.39621380588082,1528.1046665766569,-1.6938685198344704E-18,-1.6938713689537276E-18,0.010283792606923001,67.1622070773502,29929.465236105025,1.968624041412762E-8,1.8179776345992431E-22,32.106752437609366,0.0,1.2722218872592457E-14,-0.008773975363944964,0.0,0.0,9.277188200394804E-19,-4029.732424641012,995.1519227988601,8.930151200496211E-4,631.6980691841105,412.08968994894633,6.35956944523318E-18,6.334779616540602E-10,-0.03954654482673924,0.0,0.0,0.0,0.06748940169434381,2.014089408261251,39.792038434543066
2.1999999999998687,2.0955568645038247E7,3361.8374689586335,-1.0708501302118793E-18,2.095556891470287E7,0.008278217592352144,-1.0708501302118793E-18,-70.60274373617737,1528.1041632041986,-1.947757307984318E-18,-1.947760903325352E-18,0.011285956587200736,70.35759377664611,29922.589242868125,2.2633932386342604E-8,2.189939354381879E-22,32.10677354157084,0.0,1.2722218886639979E-14,-0.009191785724860952,0.0,0.0,9.277188200394804E-19,-4221.455626598767,995.1814452221621,8.932406380076314E-4,631.8950855718986,412.11414062113903,6.980867797992655E-18,7.995792863369264E-10,-0.043410045865571116,0.0,0.0,0.0,0.07069825811123454,2.2108559413480107,41.68523044064486
2.2999999999998577,2.0955561424453683E7,3514.647859134885,-1.2793244920888148E-18,2.0955561719190463E7,0.009458856179267006,-1.2793244920888148E-18,-73.80888041752803,1528.103636418611,-2.2258576163901875E-18,-2.225862106732116E-18,0.012334625390436244,73.5525872195486,29915.393730461597,2.5861990499492795E-8,2.616279321640992E-22,32.10679562623038,0.0,1.27222189012913E-14,-0.009609596366143076,0.0,0.0,9.277188200394804E-19,-4413.155233172916,995.2123386001713,8.934766823245982E-4,632.1013104881022,412.1397275040205,7.631292770120496E-18,9.988613402930477E-10,-0.04745466878198006,0.0,0.0,0.0,0.07390642720251162,2.416846937831778,43.57818945816262
2.3999999999998467,2.0955553883275885E7,3667.458195461915,-1.5168656907139015E-18,2.095555420419915E7,0.010746685693480584,-1.5168656907139015E-18,-77.0146058260098,1528.103086219833,-2.5292790819726363E-18,-2.5292846373087177E-18,0.013429784326471298,76.7471693817986,29907.87873914838,2.9383128119163537E-8,3.1020623499842696E-22,32.106818691467495,0.0,1.2722218916539647E-14,-0.010027407300504712,0.0,0.0,9.277188200394804E-19,-4604.830162907916,995.2446026351981,8.937232580639295E-4,632.3167500672041,412.1664504567663,8.310875557480664E-18,1.236077643387358E-9,-0.05168060756529874,0.0,0.0,0.0,0.07711387768756492,2.632072277510192,45.47090480844441
2.4999999999998357,2.0955546021546848E7,3820.2684755984087,-1.7860613740032583E-18,2.0955546369770918E7,0.01214635432091904,-1.7860613740032583E-18,-80.21990191786004,1528.1025126078014,-2.859132555358479E-18,-2.8591393688350515E-18,0.014571418049693054,79.94132221929773,29900.044310916215,3.3210054597434005E-8,3.6525803022475237E-22,32.106842737156484,0.0,1.2722218932377951E-14,-0.010445218540655204,0.0,0.0,9.277188200394804E-19,-4796.479333157864,995.2782370166489,8.939803705163683E-4,632.5414107191889,412.1943093325225,9.019648734748035E-18,1.5164151248014278E-9,-0.05608806477890052,0.0,0.0,0.0,0.08032057828063756,2.8565422768532915,47.363365801083724
2.5999999999998247,2.095553783931043E7,3973.0786972030323,-2.089610337807172E-18,2.0955538215949632E7,0.013662508650370109,-2.089610337807172E-18,-83.42475062861809,1528.1019155824508,-3.2165301533448708E-18,-3.2165384432693194E-18,0.015759510549276927,83.13502766724997,29891.8904896304,3.735547496610608E-8,4.273352344068636E-22,32.10686776316601,0.0,1.272221894879883E-14,-0.010863030099299585,0.0,0.0,9.277188200394804E-19,-4988.1016600349985,995.3132414203757,8.942480251950134E-4,632.7752991253013,412.2233039778624,9.7576462543415E-18,1.8455196960864346E-9,-0.06067725155356515,0.0,0.0,0.0,0.08352649769065523,3.0902676886656275,49.255561733411
2.6999999999998137,2.0955529336612266E7,4125.888857934452,-2.4303226551486287E-18,2.0955529742780928E7,0.015299793642721937,-2.4303226551486287E-18,-86.62913387226891,1528.1012951437142,-3.602585311322494E-18,-3.602595323265508E-18,0.01699404515439915,86.32826763930525,29883.417320925742,4.1832089854518884E-8,4.970125208186485E-22,32.106893769359445,0.0,1.2722218965794601E-14,-0.011280841989138488,0.0,0.0,9.277188200394804E-19,-5179.696058358315,995.3496155091478,8.945262278388829E-4,633.0184222412767,412.2534342331709,1.0524903445386136E-17,2.229512043244641E-9,-0.06544838758102497,0.0,0.0,0.0,0.08673160462097229,3.333259701757581,51.14748188998619
2.7999999999998026,2.0955520513499774E7,4278.698955451329,-2.811119810702151E-18,2.0955520950312223E7,0.01706285255632034,-2.811119810702151E-18,-89.83303354038651,1528.10065129152,-4.018412835658357E-18,-4.018424844634327E-18,0.018275004530998628,89.52102402670293,29874.62485222146,4.6652595287381644E-8,5.748873469456562E-22,32.106920755594835,0.0,1.2722218983357275E-14,-0.011698654222867937,0.0,0.0,9.277188200394804E-19,-5371.261441602176,995.3873589325934,8.948149844124475E-4,633.2707872970536,412.284699932591,1.1321457012594126E-17,2.6750090914742515E-9,-0.07040170110700611,0.0,0.0,0.0,0.08993586776915613,3.5855299405909444,53.03911554209126
2.8999999999997916,2.0955511370022256E7,4431.508987412305,-3.235034840508704E-18,2.0955511838592824E7,0.018956326850983363,-3.235034840508704E-18,-93.03643150127854,1528.0999840257978,-4.4651289560334444E-18,-4.465143268767186E-18,0.019602370678274045,92.71327869741637,29865.51313282177,5.182968242424941E-8,6.615799830574577E-22,32.10694872172455,0.0,1.2722219001478563E-14,-0.012116466813179086,0.0,0.0,9.277188200394804E-19,-5562.796721844982,995.4264713267762,8.951143011023573E-4,633.5324017940382,412.3171009036667,1.2147345035057294E-17,3.1891461421038095E-9,-0.07553742892371983,0.0,0.0,0.0,0.09313925582680782,3.847090464896518,54.93045194722344
2.9999999999997806,2.0955501906230785E7,4584.318951476029,-3.7052124769221325E-18,2.09555024076738E7,0.020984856166703647,-3.7052124769221325E-18,-96.23930959913133,1528.0992933464725,-4.943851377735974E-18,-4.943868335023181E-18,0.02097612492991857,95.90501349529804,29856.082213796675,5.7376037503205173E-8,7.57733541849881E-22,32.106977667595686,0.0,1.2722219020149858E-14,-0.01253427977275818,0.0,0.0,9.277188200394804E-19,-5754.300809717882,995.4669523147134,8.95424184321378E-4,633.8032735086729,412.3506369677661,1.3002606965076988E-17,3.779595514602731E-9,-0.08085581636258633,0.0,0.0,0.0,0.09634173747930005,4.117953769303533,56.82148034858865
3.0999999999997696,2.0955492122178253E7,4737.128845301143,-4.224909298782568E-18,2.095549265760804E7,0.02315307823584245,-4.224909298782568E-18,-99.4416496531559,1528.0985792534682,-5.455699333907241E-18,-5.455719313036006E-18,0.022396247954407533,99.09621023922551,29846.33214803785,6.330434160269442E-8,8.640140091561856E-22,32.107007593049886,0.0,1.2722219039362266E-14,-0.012952093114286292,0.0,0.0,9.277188200394804E-19,-5945.772614353531,995.5088015061443,8.957446407065823E-4,634.0834104909914,412.3853079398831,1.3887283626877534E-17,4.454585704435327E-9,-0.08635711728623441,0.0,0.0,0.0,0.09954328140558069,4.398132782932196,58.71218997459545
3.1999999999997586,2.0955482017919376E7,4889.938666546267,-4.797493886812013E-18,2.095548258845027E7,0.025465628800281248,-4.797493886812013E-18,-102.64343345673475,1528.097841746704,-6.001793637738265E-18,-6.00181705502326E-18,0.02386271974774538,102.28685072224829,29836.26299026981,6.962727041691178E-8,9.811102757261972E-22,32.107038497923305,0.0,1.2722219059106569E-14,-0.013369906850439123,0.0,0.0,9.277188200394804E-19,-6137.211043334897,995.55201849749,8.960756771190109E-4,634.3728210644595,412.42111362859725,1.4801417215283637E-17,5.2229271737042325E-9,-0.09204159408027693,0.0,0.0,0.0,0.10274385627796183,4.687640868974817,60.602570038349704
3.2999999999997476,2.0955471593510702E7,5042.748412870025,-5.4264469842269604E-18,2.095547220025704E7,0.027927141571740588,-5.4264469842269604E-18,-105.84464277656917,1528.097080826105,-6.5832567346146965E-18,-6.583284048001956E-18,0.02537551964436547,105.47691671073508,29825.874797038734,7.635749414921116E-8,1.1097341700723504E-21,32.107070382046615,0.0,1.2722219079373254E-14,-0.013787720993886867,0.0,0.0,9.277188200394804E-19,-6328.615002644105,995.5966028719098,8.964173006440643E-4,634.6715138264626,412.45805383611383,1.5745051294357538E-17,6.0940224204904114E-9,-0.0979095176448362,0.0,0.0,0.0,0.10594343076189919,4.986491824264201,62.4926097371492
3.3999999999997366,2.0955460849010557E7,5195.55808193103,-6.11536166256298E-18,2.0955461493086666E7,0.030542248125224436,-6.11536166256298E-18,-109.04525935182791,1528.096296491586,-7.201212754209706E-18,-7.20124446595487E-18,0.026934626302526632,108.66638994352252,29815.167626664042,8.350767722266711E-8,1.2506204923816052E-21,32.107103245245206,0.0,1.2722219100152493E-14,-0.014205535557294037,0.0,0.0,9.277188200394804E-19,-6519.983396611351,995.6425541995172,8.967695185931241E-4,634.9794976498712,412.4961283584356,1.6718230796010403E-17,7.077898477969484E-9,-0.10396116738590883,0.0,0.0,0.0,0.10914197351575458,5.2946998788338675,64.38229825197939
3.4999999999997256,2.095544978447918E7,5348.367671387879,-6.867943492705754E-18,2.0955450466999397E7,0.03331557786859474,-6.867943492705754E-18,-112.2452648932967,1528.0954887430626,-7.856787562520759E-18,-7.856824221982698E-18,0.02854001770536134,111.85525213106473,29804.141539394855,9.109047819878508E-8,1.4045270494921042E-21,32.107137087338664,0.0,1.272221912143416E-14,-0.01462335055331918,0.0,0.0,9.277188200394804E-19,-6711.315127863883,995.6898720367174,8.971323384984367E-4,635.2967816787186,412.5353369848063,1.7721002018439382E-17,8.185226371398834E-9,-0.1101968312056468,0.0,0.0,0.0,0.11233945319065351,5.612279695423064,66.27162474700948
3.5999999999997145,2.0955438399978556E7,5501.177178899171,-7.688010721123021E-18,2.0955439122057218E7,0.03625175801545799,-7.688010721123021E-18,-115.4446410825281,1528.094657580451,-8.551108813849561E-18,-8.551151020340483E-18,0.030191671169617632,115.0434849545831,29792.79659721628,9.91185497052656E-8,1.5722346909334428E-21,32.10717190814141,0.0,1.272221914320781E-14,-0.015041165994614854,0.0,0.0,9.277188200394804E-19,-6902.609097274986,995.7385559270476,8.975057681195104E-4,635.6233753339545,412.5756794983997,1.8753412624718254E-17,9.427332481827541E-9,-0.1166168054935935,0.0,0.0,0.0,0.11553583843018125,5.939246369030421,68.16057836908857
3.6999999999997035,2.095542669557253E7,5653.986602123493,-8.579494451291505E-18,2.0955427458323974E7,0.039355413436048536,-8.579494451291505E-18,-118.64336957099295,1528.0938030036625,-9.285306002723204E-18,-9.285354408455484E-18,0.03188956333276323,118.23107006521789,29781.132863972336,1.0760453803018641E-7,1.754547346029337E-21,32.10720770746222,0.0,1.2722219165462694E-14,-0.01545898189382735,0.0,0.0,9.277188200394804E-19,-7093.864203913074,995.788605400659,8.978898154391049E-4,635.9592883100978,412.61715567588226,1.9815511641148824E-17,1.0816230844299702E-8,-0.12322139511643189,0.0,0.0,0.0,0.11873109787022647,6.275615426391836,70.04914824724321
3.7999999999996925,2.0955414671326816E7,5806.795938719424,-9.546438830313025E-18,2.095541547586538E7,0.04263116660801014,-9.546438830313025E-18,-121.84143197923258,1528.0929250126082,-1.0060510515754227E-17,-1.0060565828873858E-17,0.03363367015483205,121.41798908318027,29769.15040537715,1.1656108298932007E-7,1.9522920620615043E-21,32.107244485104346,0.0,1.2722219188187754E-14,-0.015876798263596476,0.0,0.0,9.277188200394804E-19,-7285.079344990816,995.8400199742778,8.982844886628908E-4,636.304530575106,412.6597652873729,2.0907349455616103E-17,1.2364641742684315E-8,-0.13001091340775645,0.0,0.0,0.0,0.12192520013877589,6.621402825459551,71.93732349217487
3.8999999999996815,2.0955402327308953E7,5959.605186345538,-1.0593001240713339E-17,2.0955403174748976E7,0.046083637569270586,-1.0593001240713339E-17,-125.03880989601222,1528.0920236071988,-1.0877855683435713E-17,-1.0877918671137643E-17,0.035423966919551735,124.60422359690592,29756.849288973957,1.2600081779917145E-7,2.1663190434934364E-21,32.10728224086551,0.0,1.2722219211371627E-14,-0.016294615116555455,0.0,0.0,9.277188200394804E-19,-7476.253415814355,995.8927991513915,8.986897962208233E-4,636.6591123717486,412.7035080965893,2.202897781592801E-17,1.4086010652131522E-8,-0.13698568215774853,0.0,0.0,0.0,0.12511811385568294,6.976624954876343,73.82509319575833
3.9999999999996705,2.0955389663588274E7,6112.414342660385,-1.1723452497417308E-17,2.0955390555044096E7,0.04971744384138477,-1.1723452497417308E-17,-128.23548487747505,1528.0910987873413,-1.173847683187403E-17,-1.1738548323604599E-17,0.03726042823225098,127.78975516220896,29744.229584094137,1.3593636886926732E-7,2.3975016922527594E-21,32.10732097453809,0.0,1.272221923500263E-14,-0.016712432465330697,0.0,0.0,9.277188200394804E-19,-7667.385309732537,995.9469424224345,8.991057467685327E-4,637.0230442189979,412.7483838609929,2.3180449828110007E-17,1.5994530489061492E-8,-0.14414603160257186,0.0,0.0,0.0,0.12830980763243316,7.341298633435416,75.71244643054077
4.099999999999704,2.0955376680236004E7,6265.2234053225175,-1.2942177049894043E-17,2.095537761682197E7,0.05353720036039311,-1.2942177049894043E-17,-131.4314384462978,1528.0901505529428,-1.2643511334451816E-17,-1.2643592225193159E-17,0.03914302801591098,130.9745653014377,29731.291361968964,1.4638035561498968E-7,2.6467366490708687E-21,32.107360685908766,0.0,1.2722219259068776E-14,-0.01713025032254161,0.0,0.0,9.277188200394804E-19,-7858.4739180862625,996.0024492643192,8.995323491836636E-4,637.3963369090081,412.7943923313916,2.4361819954517703E-17,1.8105166231587214E-8,-0.15149230041263587,0.0,0.0,0.0,0.13150025007199317,7.71544110948268,77.59937224924109
4.199999999999737,2.0955363377325248E7,6418.032371990481,-1.425367318946471E-17,2.09553643601557E7,0.05754751940147074,-1.425367318946471E-17,-134.62665209084733,1528.0891789039088,-1.3594098663420722E-17,-1.3594189917064597E-17,0.04107173950718028,134.15863550263114,29718.03469569981,1.5734539025342892E-7,2.9149438358783666E-21,32.10740137475863,0.0,1.2722219283557769E-14,-0.01754806870080042,0.0,0.0,9.277188200394804E-19,-8049.518130157869,996.0593191405741,8.999696125668937E-4,637.7790015081899,412.8415332520456,2.5573144011997427E-17,2.043368012423118E-8,-0.15902483568115722,0.0,0.0,0.0,0.13468940976858812,8.099070060334174,79.48585968425053
4.299999999999771,2.0955349754930872E7,6570.841240322808,-1.5662553261766187E-17,2.0955350785120156E7,0.06175301054046223,-1.5662553261766187E-17,-137.82110726433842,1528.0881838401428,-1.459138044142443E-17,-1.4591483094229323E-17,0.043046535264858535,137.34194721867675,29704.459660153836,1.6884407770008534E-7,3.2030664992548865E-21,32.10744304086345,0.0,1.2722219308456992E-14,-0.017965887612712037,0.0,0.0,9.277188200394804E-19,-8240.516833120604,996.1175515018024,9.004175462454013E-4,638.1710493604359,412.88980636103855,2.6814479170069134E-17,2.2996642290088627E-8,-0.16674399291286038,0.0,0.0,0.0,0.13787725530743192,8.492203591700612,81.37189774713345
4.399999999999804,2.0955335813129682E7,6723.650007978016,-1.717354388436328E-17,2.0955336891792145E7,0.06615828053763195,-1.717354388436328E-17,-141.01478538399277,1528.0871653615493,-1.5636500492946165E-17,-1.5636615657086947E-17,0.04506738715674281,140.52448186646956,29690.5663321428,1.8088901525288846E-7,3.51207125493182E-21,32.10748568399318,0.0,1.2722219333753524E-14,-0.018383707070873754,0.0,0.0,9.277188200394804E-19,-8431.468911988173,996.1771457849263,9.008761597669992E-4,638.5724920821796,412.9392113896408,2.808588394878886E-17,2.58114666265536E-8,-0.17465013601068557,0.0,0.0,0.0,0.14106375526462253,8.894860237010404,83.2574754281292
4.4999999999998375,2.0955321552000303E7,6876.458672614622,-1.879148616950187E-17,2.095532268025029E7,0.07076793330803977,-1.879148616950187E-17,-144.20766783019852,1528.0861234680308,-1.6730604895678506E-17,-1.6730733762868743E-17,0.047134266365309666,143.70622082607164,29676.354790288955,1.9349279251306338E-7,3.8429481333464016E-21,32.10752930391232,0.0,1.2722219359434126E-14,-0.018801527087875185,0.0,0.0,9.277188200394804E-19,-8622.373249564298,996.2381014137735,9.013454629045932E-4,638.9833415664964,412.98974806278676,2.938741821683917E-17,2.8896424869777478E-8,-0.1827436372639141,0.0,0.0,0.0,0.14424887820685692,9.3070589568049,85.14258169565407
4.599999999999871,2.0955306971623246E7,7029.267231891123,-2.05213359519951E-17,2.0955308150575105E7,0.0755865698258189,-2.05213359519951E-17,-147.3997359456729,1528.0850581594848,-1.7874842031817427E-17,-1.7874985877013237E-17,0.049247143376535185,146.8871454398749,29661.825115103275,2.0666799112526845E-7,4.196710626245507E-21,32.10757390037978,0.0,1.272221938548525E-14,-0.019219347676297963,0.0,0.0,9.277188200394804E-19,-8813.228726392494,996.3004177987533,9.018254656536265E-4,639.4036099810706,413.0414160987966,3.0719143189358856E-17,3.227068145498748E-8,-0.1910248773346728,0.0,0.0,0.0,0.14743259269127248,9.728819138051053,87.02720549580533
4.699999999999904,2.0955292072080873E7,7182.075683466019,-2.236816402223495E-17,2.0955293302848965E7,0.08061878808434075,-2.236816402223495E-17,-150.59097103462398,1528.0839694358135,-1.907036263927233E-17,-1.9070522824502897E-17,0.05140598799232526,150.06723701176264,29646.977388963103,2.2042718467053412E-7,4.5743957343376305E-21,32.10761947314879,0.0,1.2722219411893026E-14,-0.019637168848715678,0.0,0.0,9.277188200394804E-19,-9004.034220705758,996.3640943369645,9.02316178232855E-4,639.83330976908,413.0942152094553,3.2081121425807085E-17,3.595429876979323E-8,-0.19949424524465217,0.0,0.0,0.0,0.15061486726522805,10.16016059346499,88.9113357518643
4.799999999999938,2.095527685345743E7,7334.884024997784,-2.4337156364320818E-17,2.09552781371561E7,0.08586918298981638,-2.4337156364320818E-17,-153.78135436191573,1528.0828572969167,-2.0318319862794757E-17,-2.031849784103344E-17,0.05361076931835332,153.2464768062747,29631.811696097255,2.3478293837720154E-7,4.977064015991313E-21,32.10766602196704,0.0,1.272221943864328E-14,-0.020054990617693554,0.0,0.0,9.277188200394804E-19,-9194.788608376482,996.4291304122717,9.028176110848683E-4,640.2724536498646,413.14814510006556,3.347341682776374E-17,3.9968273499257586E-8,-0.20815213836142799,0.0,0.0,0.0,0.15379567046609074,10.601103560815373,90.79496136380193
4.899999999999971,2.0955261315839022E7,7487.6922541448885,-2.6433614399296347E-17,2.095526265358262E7,0.09134234632130145,-2.6433614399296347E-17,-156.97086715223287,1528.0817217426925,-2.1619869305019082E-17,-2.1620066624138702E-17,0.05586145576368523,156.4248460477725,29616.32812261954,2.497478090134147E-7,5.405799636978221E-21,32.10771354657662,0.0,1.2722219465721507E-14,-0.020472812995788365,0.0,0.0,9.277188200394804E-19,-9385.49076286635,996.4955253951736,9.03329774875014E-4,640.7210546182023,413.2032054693287,3.489609463660942E-17,4.433455856524976E-8,-0.2169989623840344,0.0,0.0,0.0,0.15697497082105355,11.051668702188644,92.67807120778396
5.000000000000004,2.0955245459313624E7,7640.500368565802,-2.866295523348634E-17,2.0955246852216512E7,0.09704286666304762,-2.866295523348634E-17,-160.1594905892482,1528.0805627730397,-2.297616907741828E-17,-2.2976387384289928E-17,0.0581580150437789,159.60232591960616,29600.52675651014,2.6533434470399983E-7,5.8617104212592306E-21,32.107762046714,0.0,1.2722219493112902E-14,-0.020890635995548225,0.0,0.0,9.277188200394804E-19,-9576.139555176369,996.5632786428962,9.038526804920449E-4,641.1791259450956,413.2593960094104,3.634922143120141E-17,4.907608018763728E-8,-0.22603513132851255,0.0,0.0,0.0,0.16015273684692116,11.511877103253019,94.56065413567745
5.100000000000038,2.0955229283971153E7,7793.308365918977,-3.103071191192439E-17,2.0955230733147692E7,0.10297532929770048,-3.103071191192439E-17,-163.3472058147912,1528.0793803878553,-2.438837985116444E-17,-2.4388620895754432E-17,0.06050041416730372,162.77889756328315,29584.40768769011,2.815550846402847E-7,6.3459279028115786E-21,32.10781152210978,0.0,1.2722219520802337E-14,-0.02130845962951233,0.0,0.0,9.277188200394804E-19,-9766.73385379699,996.6323894990859,9.043863390456856E-4,641.6466811758656,413.3167164056759,3.7832865125362304E-17,5.421677763799393E-8,-0.2352610675122932,0.0,0.0,0.0,0.16332893704996068,11.981750272463104,96.44269897455827
5.200000000000071,2.0955212789903354E7,7946.116243862852,-3.354253367686196E-17,2.0955214296467893E7,0.10914431617491527,-3.354253367686196E-17,-166.53399392801776,1528.0781745870374,-2.5857664907897966E-17,-2.585793054754954E-17,0.0628886194481632,165.9545420776382,29567.971007891,2.98422558996123E-7,6.859607378495199E-21,32.107861972489175,0.0,1.2722219548774356E-14,-0.02172628391021085,0.0,0.0,9.277188200394804E-19,-9957.272524658292,996.7028572943822,9.04930761870979E-4,642.1237341341899,413.37516633715336,3.934709496557358E-17,5.978160796067727E-8,-0.24467720153985487,0.0,0.0,0.0,0.16650353992561182,12.461310140329472,98.3241945262192
5.300000000000105,2.0955195977203898E7,8098.9240000558575,-3.6204186231349984E-17,2.0955197542270806E7,0.11555440581817678,-3.6204186231349984E-17,-169.7198359845819,1528.076945370482,-2.7385190190402617E-17,-2.738548239411932E-17,0.06532259649133333,169.12924051800485,29551.21681080386,3.1594928867494865E-7,7.403927961956403E-21,32.10791339757154,0.0,1.27222195770132E-14,-0.0221441088501647,0.0,0.0,9.277188200394804E-19,-10147.754431080291,996.7746813457917,9.054859605233844E-4,642.6102989180415,413.4347454760038,4.0891981528228195E-17,6.579658778805292E-8,-0.2542839722856388,0.0,0.0,0.0,0.16967651395839192,12.950579058548525,100.20512956667923
5.400000000000138,2.0955178845968332E7,8251.731632156423,-3.9021552007882407E-17,2.0955180470651966E7,0.12221017327591,-3.9021552007882407E-17,-172.90471299580912,1528.0756927380867,-2.897212435317851E-17,-2.897244520602918E-17,0.06780231020003871,172.30297389538887,29534.145191963762,3.34147785177928E-7,7.980092638566775E-21,32.10796579707061,0.0,1.2722219605502781E-14,-0.022561934461885376,0.0,0.0,9.277188200394804E-19,-10338.178433723333,996.8478609571983,9.060519467826296E-4,643.1063899033041,413.4954534879318,4.246759671717655E-17,7.228880474797592E-8,-0.2640818268787893,0.0,0.0,0.0,0.1728478276216169,13.449579799225317,102.08549284569366
5.500000000000171,2.0955161396294106E7,8404.539137822934,-4.200063044209267E-17,2.0955163081708834E7,0.12911619000592456,-4.200063044209267E-17,-176.08860592787119,1528.074416689747,-3.0619638812917286E-17,-3.0619990520560505E-17,0.07032772476720352,175.4757231756432,29516.75624883175,3.530305502898251E-7,8.589328321395385E-21,32.10801917069443,0.0,1.2722219634226697E-14,-0.022979760757874647,0.0,0.0,9.277188200394804E-19,-10528.543390538593,996.9223954190245,9.066287326500334E-4,643.6120217416675,413.5572900318935,4.407401376092564E-17,7.92864519932902E-8,-0.27407122068573625,0.0,0.0,0.0,0.17601744937726357,13.958335553986524,103.96527308626533
5.600000000000205,2.09551436282806E7,8557.346514713827,-4.514753825149212E-17,2.0955145375540785E7,0.13627702388357132,-4.514753825149212E-17,-179.27149570096216,1528.0731172253595,-3.2328907798871934E-17,-3.232929269209085E-17,0.07289880367437117,178.64746927864363,29499.050080783665,3.726100761031181E-7,9.232885908212127E-21,32.10807351814529,0.0,1.2722219663168216E-14,-0.023397587750624633,0.0,0.0,9.277188200394804E-19,-10718.848156718617,996.9982840082948,9.072163303488969E-4,644.1272093612192,413.6202547601368,4.571130720989531E-17,8.681885216123404E-8,-0.28425261729313367,0.0,0.0,0.0,0.17918534767576666,14.476869933111463,105.84445898415628
5.700000000000238,2.0955125542029046E7,8710.153760487472,-4.846850971924016E-17,2.095512735224906E7,0.14369723904809995,-4.846850971924016E-17,-182.45336318847743,1528.071794344824,-3.410110840311907E-17,-3.410152894252925E-17,0.07551550969786368,181.81819307746838,29481.026789058,3.928988445997187E-7,9.912040339520064E-21,32.10812883911981,0.0,1.2722219692310295E-14,-0.0238154154526173,0.0,0.0,9.277188200394804E-19,-10909.091584648102,997.0755259888731,9.078147523262714E-4,644.6519679682456,413.68434731838596,4.7379552933680134E-17,9.491646960237229E-8,-0.29462648849083295,0.0,0.0,0.0,0.1823514909557857,15.005206964664957,107.72303920740148
5.800000000000272,2.095510713764265E7,8862.960872802252,-5.196989698293529E-17,2.095510901193686E7,0.15138139586798616,-5.196989698293529E-17,-185.6341892161934,1528.070448048036,-3.593742063071431E-17,-3.5937879411470406E-17,0.07817780489103181,184.98787539757734,29462.68647685647,4.139093275579712E-7,1.0628090657614555E-20,32.108185133308815,0.0,1.2722219721635565E-14,-0.024233243876324428,0.0,0.0,9.277188200394804E-19,-11099.27252385464,997.1541206110469,9.084240112496447E-4,645.1863130445831,413.74956734548437,4.9078828117983565E-17,1.0361096077827125E-7,-0.3051933142528177,0.0,0.0,0.0,0.1855158476440888,15.543371093526353,109.60100239582283
5.900000000000305,2.0955088415226553E7,9015.767849316535,-5.5658170328416E-17,2.0955090354709327E7,0.1593340508548149,-5.5658170328416E-17,-188.8139545614493,1528.0690783348932,-3.7839027449731094E-17,-3.78395272064078E-17,0.08088565059034401,188.1564970159941,29444.029249325395,4.356539863189892E-7,1.1382360066666952E-20,32.10824240039723,0.0,1.2722219751126332E-14,-0.024651073034207358,0.0,0.0,9.277188200394804E-19,-11289.389820959645,997.2340671116224,9.090441200075878E-4,645.7302603484455,413.81591447346017,5.080921126166462E-17,1.1293518755919472E-7,-0.3159535827188393,0.0,0.0,0.0,0.18867838615534924,16.09138718045421,111.47833716054424
6.000000000000338,2.095506937488775E7,9168.574687688682,-5.953991848855974E-17,2.0955071380673468E7,0.16755975663094702,-5.953991848855974E-17,-191.99263995233093,1528.067685205294,-3.980711484118871E-17,-3.980765845268285E-17,0.08363900741825751,191.3240386604897,29425.055213466287,4.581452717000446E-7,1.2176195993830377E-20,32.10830064006444,0.0,1.272221978076458E-14,-0.02506890293871691,0.0,0.0,9.277188200394804E-19,-11479.442319629381,997.3153647143226,9.096750917127527E-4,646.2838259173185,413.8833883278444,5.257078217385288E-17,1.22923234751823E-7,-0.3269077901764762,0.0,0.0,0.0,0.19183907489188376,16.649280501172615,113.3550320835081
6.100000000000372,2.0955050016735226E7,9321.38138557705,-6.36218489470692E-17,2.0955052089938264E7,0.17606306180545594,-6.36218489470692E-17,-195.1702260668566,1528.0662686591377,-4.1842871848861876E-17,-4.1843462343406443E-17,0.08643783527081964,194.49048100876857,29405.764478262514,4.813956236571354E-7,1.3010970151365493E-20,32.108359851983856,0.0,1.2722219810531966E-14,-0.025486733602293036,0.0,0.0,9.277188200394804E-19,-11669.428860526114,997.3980126292605,9.103169396976931E-4,646.8470260645624,413.95198852721995,5.436362197059452E-17,1.336104534553757E-7,-0.3380564410402778,0.0,0.0,0.0,0.19499788224356562,17.217076745308958,115.23107571699313
6.200000000000405,2.0955030340879846E7,9474.187940639966,-6.791078824723314E-17,2.0955032482614573E7,0.18484851093820343,-6.791078824723314E-17,-198.3466935321647,1528.0648286963228,-4.3947490628969024E-17,-4.39481311892509E-17,0.08928209332274255,197.65580468765614,29386.157154571265,5.054174711885456E-7,1.3888078599783543E-20,32.10842003582329,0.0,1.272221984040982E-14,-0.025904565037364737,0.0,0.0,9.277188200394804E-19,-11859.348281259368,997.482010053418,9.109696775184823E-4,647.4198773828609,414.02171468360604,5.618781307185446E-17,1.4503347552022456E-7,-0.34940004783312256,0.0,0.0,0.0,0.1981547765875488,17.79480201544453,117.10645658313268
6.300000000000439,2.0955010347434457E7,9626.994350535753,-7.241368230564991E-17,2.0955012558815263E7,0.19392064443587387,-7.241368230564991E-17,-201.52202292370328,1528.0633653167504,-4.612216649973387E-17,-4.6122860468059063E-17,0.09217174002016461,200.81999027228835,29366.233355261385,5.302232320523524E-7,1.4808941812004297E-20,32.1084811912445,0.0,1.2722219870379151E-14,-0.026322397256349772,0.0,0.0,9.277188200394804E-19,-12049.199416337302,997.5673561700712,9.11633318950152E-4,648.0023967404965,414.09256640196753,5.804343919796318E-17,1.5723024902876438E-7,-0.3609391311641226,0.0,0.0,0.0,0.2013097262881974,18.382482825989207,118.98116317343498
6.400000000000472,2.095499003651386E7,9779.800612922745,-7.713759673090102E-17,2.0954992318655126E7,0.20328399851007184,-7.713759673090102E-17,-204.6961947644216,1528.0618785203221,-4.8368097990824116E-17,-4.836884887441519E-17,0.09510673307928913,203.98301828530333,29345.99319512397,5.558253126536267E-7,1.5775004738526306E-20,32.10854331790345,0.0,1.2722219900420637E-14,-0.026740230271654536,0.0,0.0,9.277188200394804E-19,-12238.9810971182,997.6540501491908,9.123078779896928E-4,648.5946012842643,414.1645432805328,5.993058536642695E-17,1.702400641135908E-7,-0.3726742197087882,0.0,0.0,0.0,0.20446269969682768,18.980146102171236,120.8551839483038
6.500000000000505,2.0954969408234745E7,9932.606725459256,-8.208971714716186E-17,2.0954971762250844E7,0.2129431051137587,-8.208971714716186E-17,-207.8691895239647,1528.0603683069417,-5.068648689265823E-17,-5.068729836899369E-17,0.09808702948930911,207.1448691960359,29325.436790842563,5.822361078724024E-7,1.6787736873606857E-20,32.108606415450446,0.0,1.2722219930514633E-14,-0.02715806409567393,0.0,0.0,9.277188200394804E-19,-12428.692151762154,997.7420911475848,9.129933688570723E-4,649.1965084406546,414.23764491089963,6.184933788856059E-17,1.8410357084716833E-7,-0.3846058501880894,0.0,0.0,0.0,0.20761366515149812,19.587819178970836,122.72850733656149
6.600000000000539,2.095494846271584E7,10085.412685803565,-8.727734952273669E-17,2.095495088972117E7,0.22290249177402277,-8.727734952273669E-17,-211.04098761786872,1528.0588346765123,-5.307853830557909E-17,-5.3079414227874E-17,0.1011125854973333,210.30552341971296,29304.56426116824,6.094680006081844E-7,1.784863232244889E-20,32.10867048352958,0.0,1.2722219960641156E-14,-0.027575898740790836,0.0,0.0,9.277188200394804E-19,-12618.331405182777,997.8314783081674,9.136898059894245E-4,649.8081359110404,414.3118708774122,6.379978436557456E-17,1.9886283034033092E-7,-0.3967345673441233,0.0,0.0,0.0,0.2107625909769822,20.205529799880985,124.6011217349722
6.700000000000572,2.0954927200077772E7,10238.218491613985,-9.270792050350417E-17,2.0954929701186713E7,0.2331666816721718,-9.270792050350417E-17,-214.21156940675937,1528.057277628936,-5.554546068889017E-17,-5.554640509161064E-17,0.10418335661510862,213.464961316652,29283.375726711005,6.375333620006962E-7,1.8959209869392255E-20,32.108735521779366,0.0,1.2722219990779899E-14,-0.027993734219376388,0.0,0.0,9.277188200394804E-19,-12807.89767899912,997.9222107608689,9.143972040480224E-4,650.4295016780954,414.3872207579029,6.578201368542753E-17,2.1456132655163084E-7,-0.40906092392054216,0.0,0.0,0.0,0.21390944548440496,20.833306115910577,126.47301550776677
6.800000000000606,2.095490562044317E7,10391.024140548774,-9.83889777512592E-17,2.0954908196770113E7,0.24374019351767817,-9.83889777512592E-17,-217.38091519555272,1528.0556971641277,-5.808846590975503E-17,-5.808948301426138E-17,0.10729929762388674,216.62316319146174,29261.871310111135,6.664445510869595E-7,2.0121013047106166E-20,32.10880152983217,0.0,1.2722220020910217E-14,-0.02841157054378932,0.0,0.0,9.277188200394804E-19,-12997.389791487705,998.0142876219189,9.151155779125856E-4,651.0606240010945,414.46369412308275,6.779611601874509E-17,2.3124398027720528E-7,-0.42158548063717416,0.0,0.0,0.0,0.21705419697121892,21.471176684291915,128.34417698616951
6.900000000000639,2.0954883723936588E7,10543.829630266224,-1.0432819028693819E-16,2.095488637659593E7,0.2546275413013781,-1.0432819028693819E-16,-220.54900523265786,1528.0540932819931,-6.070876929195222E-17,-6.07098635122099E-17,0.1104603625542482,219.78010929224507,29240.05113592744,6.962139141282227E-7,2.1335610206780426E-20,32.10886850731467,0.0,1.2722220051011146E-14,-0.028829407726376228,0.0,0.0,9.277188200394804E-19,-13186.806557534705,998.1077079943434,9.158449426850337E-4,651.7015214195123,414.54129053693833,6.984218281530108E-17,2.489572115305684E-7,-0.43430880616814294,0.0,0.0,0.0,0.22019681372092606,22.119170467366317,130.2145944679256
7.000000000000672,2.095486151068463E7,10696.63495842459,-1.1053334883871222E-16,2.095486424079077E7,0.2658332344001151,-1.1053334883871222E-16,-223.71581970918217,1528.0524659824428,-6.340758966448371E-17,-6.340876561284626E-17,0.11366650468976398,222.93577980980413,29217.915330771357,7.268537848978091E-7,2.2604594589312133E-20,32.10893645384729,0.0,1.2722220081061371E-14,-0.029247245779470854,0.0,0.0,9.277188200394804E-19,-13376.146788588248,998.2024709674081,9.165853136850181E-4,652.352212749407,414.6200095562551,7.192030679981697E-17,2.67748957486256E-7,-0.4472314771157461,0.0,0.0,0.0,0.2233372640030287,22.77731683125377,132.08425621683037
7.100000000000706,2.0954838980815824E7,10849.440122682123,-1.170123661949333E-16,2.0954841789483145E7,0.2773617774984407,-1.170123661949333E-16,-226.8813387581387,1528.0508152653902,-6.618614941003254E-17,-6.618741190317011E-17,0.1169176765710809,226.09015487684775,29195.46402314678,7.583764844687586E-7,2.392958439748486E-20,32.109005369044866,0.0,1.2722220111039268E-14,-0.02966508471539429,0.0,0.0,9.277188200394804E-19,-13565.409292610864,998.2985756173231,9.173367064552973E-4,653.0127170884542,414.6998507311867,7.403058196840893E-17,2.876686886810508E-7,-0.46035407798836175,0.0,0.0,0.0,0.22647551607270616,23.445645544727725,133.95315046225952
7.200000000000739,2.0954816134460714E7,11002.245120697078,-1.2377327756191933E-16,2.0954819022803623E7,0.2892176704860958,-1.2377327756191933E-16,-230.04554245365767,1528.04914113075,-6.904567451327054E-17,-6.904702857812798E-17,0.12021382998542064,229.24321456720315,29172.69734362513,7.907943209352304E-7,2.5312222869137377E-20,32.10907525251592,0.0,1.272222014092285E-14,-0.0300829245464546,0.0,0.0,9.277188200394804E-19,-13754.592874032189,998.396021006511,9.180991367558967E-4,653.6830538111302,414.7808136046318,7.61731035840889E-17,3.087674543759875E-7,-0.4736772011724721,0.0,0.0,0.0,0.22961153817081192,24.12418677779025,135.82126539870214
7.3000000000007725,2.0954792971751846E7,11155.049950127694,-1.3082424092656163E-16,2.0954795940884747E7,0.3014054083495541,-1.3082424092656163E-16,-233.20841081019734,1528.0474435784402,-7.198739460900739E-17,-7.198884548887287E-17,0.12355491596604837,232.39493889502634,29149.61542474851,8.241195891176716E-7,2.6754178351318606E-20,32.109146103863104,0.0,1.2722220170689816E-14,-0.03050076528494665,0.0,0.0,9.277188200394804E-19,-13943.69633370158,998.4948061840411,9.188726205673622E-4,654.3632425718912,414.86289771257873,7.834796817287002E-17,3.3109790867341737E-7,-0.48720144690844525,0.0,0.0,0.0,0.23274529852361148,24.812971100438645,137.688589185293
7.400000000000806,2.0954769492823757E7,11307.854608632178,-1.3817353742373967E-16,2.095477254386105E7,0.313929481113731,-1.3817353742373967E-16,-236.36992378176055,1528.0457226083813,-7.501254303017942E-17,-7.501409619084529E-17,0.12694088479148288,235.54530781401937,29126.218401052058,8.583645704051381E-7,2.82571443754257E-20,32.10921792268307,0.0,1.2722220200317514E-14,-0.030918606943151794,0.0,0.0,9.277188200394804E-19,-14132.718468841162,998.5949301855527,9.196571740900236E-4,655.0533033048505,414.9461025840256,8.055527351947777E-17,3.5471433704242623E-7,-0.5009274232638656,0.0,0.0,0.0,0.23587676534263777,25.512029481307113,139.55510994534865
7.500000000000839,2.095474569781295E7,11460.659093868775,-1.458295717085264E-16,2.095474883186904E7,0.32679437383851706,-1.458295717085264E-16,-239.53006126111256,1528.043978220496,-7.812235685567574E-17,-7.812401799168297E-17,0.1303716859828546,238.69430121664766,29102.506409041584,8.935415327475156E-7,2.982283973332176E-20,32.10929070856655,0.0,1.2722220229782965E-14,-0.031336449533337994,0.0,0.0,9.277188200394804E-19,-14321.65807299886,998.6963920333696,9.204528137447606E-4,655.7532562247798,415.0304277410594,8.279511866309246E-17,3.796726867373187E-7,-0.5148557461070585,0.0,0.0,0.0,0.2390059068245027,26.221393286318452,141.4208157659034
7.600000000000873,2.095472158685803E7,11613.463403495685,-1.5380087233316785E-16,2.0954724805047333E7,0.34000456639111754,-1.5380087233316785E-16,-242.68880307900199,1528.04221041471,-8.13180769579987E-17,-8.131985199897199E-17,0.1338472682921333,241.84189893336105,29078.47958733514,9.296627300347228E-7,3.1453008554430016E-20,32.10936446109788,0.0,1.272222025906284E-14,-0.03175429306775914,0.0,0.0,9.277188200394804E-19,-14510.513936001664,998.7991907359146,9.212595561682601E-4,656.46312182327,415.11587269835275,8.506760389250126E-17,4.060306174098289E-7,-0.5289870390769433,0.0,0.0,0.0,0.24213269115087926,26.941094277148608,143.28569469724857
7.700000000000906,2.0954697160099562E7,11766.267535171122,-1.6209609212881974E-16,2.095470046353649E7,0.3535645335125501,-1.6209609212881974E-16,-245.84612900338374,1528.0404191909527,-8.460094805074446E-17,-8.460284316780713E-17,0.13736757971192703,244.98808073181695,29054.138076491654,9.667404022802246E-7,3.3149420383800693E-20,32.109439179855634,0.0,1.2722220288133484E-14,-0.032172137558655244,0.0,0.0,9.277188200394804E-19,-14699.284843909018,998.903325288462,9.220774182187726E-4,657.1829208741298,415.2024369637727,8.737283074208012E-17,4.3384750578791824E-7,-0.5433219335580478,0.0,0.0,0.0,0.24525708648816655,27.67116460995424,145.1497347524715
7.8000000000009395,2.0954672417680126E7,11919.071486553281,-1.7072400859202492E-16,2.0954675807479087E7,0.36747874467097486,-1.7072400859202492E-16,-249.0020187386462,1528.0386045491564,-8.797221873592231E-17,-8.79742403482391E-17,0.14093256746637406,248.13282631610736,29029.482019089162,1.0047867752216697E-6,3.491387026114757E-20,32.109514864412255,0.0,1.2722220316970886E-14,-0.032589983018252035,0.0,0.0,9.277188200394804E-19,-14887.969578966442,999.0087946728233,9.229064169734956E-4,657.9126744314261,415.2901200381025,8.971090198694993E-17,4.6318449081253523E-7,-0.5578610686503863,0.0,0.0,0.0,0.24837906098740992,28.411636833838568,147.01292390699777
7.900000000000973,2.0954647359744366E7,12071.875255300354,-1.7969352427591214E-16,2.095465083701977E7,0.381751663993005,-1.7969352427591214E-16,-252.15645192483998,1528.0367664892565,-9.143314155108626E-17,-9.14352963324328E-17,0.14454217800564126,251.27611532598758,29004.511559773237,1.0438140601347429E-6,3.674817880084991E-20,32.10959151433398,0.0,1.2722220345550701E-14,-0.03300782945876081,0.0,0.0,9.277188200394804E-19,-15076.566919559255,999.1155978571602,9.237465697269503E-4,658.6524038283983,415.3789214148691,9.208192163809458E-17,4.941045119636908E-7,-0.5726050911391026,0.0,0.0,0.0,0.251498582784196,29.16254388930533,148.87525009813447
8.000000000001005,2.0954621986438956E7,12224.678839070533,-1.8901366718609984E-16,2.0954625552305236E7,0.39638775020020756,-1.8901366718609984E-16,-255.30940813691058,1528.034905011192,-9.498497301628549E-17,-9.49872679017478E-17,0.14819635700584768,254.41792733610922,28979.226845238358,1.0838344536612035E-6,3.8654192272916707E-20,32.109669129180894,0.0,1.2722220373848241E-14,-0.0334256768923782,0.0,0.0,9.277188200394804E-19,-15265.075640166553,999.2237337960852,9.245978939916059E-4,659.4021306783544,415.4688405804091,9.448599493758562E-17,5.266723358093444E-7,-0.5875546554647744,0.0,0.0,0.0,0.25461561999848076,29.923919106746407,150.73670122461542
8.10000000000095,2.095459629791264E7,12377.482235521993,-1.986935911812851E-16,2.0954599953484207E7,0.41139145649007336,-1.986935911812851E-16,-258.46086688393353,1528.0330201149059,-9.862897368082407E-17,-9.863141587356142E-17,0.1518950493641803,257.558241855255,28953.62802420929,1.1248601374850773E-6,4.063378268490903E-20,32.10974770850696,0.0,1.272222040183847E-14,-0.03384352533128589,0.0,0.0,9.277188200394804E-19,-15453.4945113153,999.333201430762,9.254604074985065E-4,660.1618768755766,415.5598770139348,9.692322835371528E-17,5.609545935558099E-7,-0.6027104236931476,0.0,0.0,0.0,0.25773014073441747,30.695796204900375,152.5972651461479
8.200000000000895,2.095457029431618E7,12530.285442312905,-2.087425763785002E-16,2.0954574040707465E7,0.4267672305144945,-2.087425763785002E-16,-261.6108076083528,1528.0311118003465,-1.0236640816983928E-16,-1.0236900514801583E-16,0.155638199200573,260.69703832557724,28927.71524746716,1.1669032782754532E-6,4.268884786481689E-20,32.10982725185993,0.0,1.2722220429496012E-14,-0.03426137478765054,0.0,0.0,9.277188200394804E-19,-15641.822299534635,999.4439996888148,9.263341281963916E-4,660.9316645949013,415.6520301874412,9.939372957587439E-17,5.970198036738959E-7,-0.6180730654832864,0.0,0.0,0.0,0.2608421130802355,31.47820928923041,154.45692968296171
8.30000000000084,2.0954543975802407E7,12683.08845710145,-2.1917002956301552E-16,2.0954547814127833E7,0.442519514290713,-2.1917002956301552E-16,-264.759209685223,1528.029180067465,-1.0619854523067862E-16,-1.0620130475434237E-16,0.15942574984957686,263.83429612184045,28901.48866783455,1.209976027444631E-6,4.4821311544886336E-20,32.10990775878148,0.0,1.2722220456795137E-14,-0.03467922527362357,0.0,0.0,9.277188200394804E-19,-15830.057767310427,999.556127484414,9.27219074252194E-4,661.7115162925188,415.74529956575867,1.0189760750946527E-16,6.349384175046218E-7,-0.6336432580559386,0.0,0.0,0.0,0.26395150510807697,32.27119285031317,156.31568261535998
8.400000000000784,2.0954517342526212E7,12835.89127754579,-2.299854846028719E-16,2.095452127390021E7,0.45865274408806656,-2.299854846028719E-16,-267.9060524214533,1528.0272249162147,-1.1012665777908114E-16,-1.101295878972555E-16,0.1632576438556078,266.96999455066447,28874.94844021648,1.254090520840079E-6,4.7033123446393314E-20,32.10998922880695,0.0,1.2722220483709772E-14,-0.03509707680134081,0.0,0.0,9.277188200394804E-19,-16018.199673039868,999.6695837181222,9.281152640496509E-4,662.5014547051126,415.83968460640716,1.0443497227050378E-16,6.747828578748229E-7,-0.6494216861599686,0.0,0.0,0.0,0.26705828487389643,33.07478176212922,158.1735116832711
8.500000000000728,2.0954490394644603E7,12988.693901304083,-2.411986028680204E-16,2.0954494420181602E7,0.47517135035015023,-2.411986028680204E-16,-271.0513150550568,1528.0252463465572,-1.1415202294515253E-16,-1.1415513200298448E-16,0.16713382297385004,270.1041128497751,28848.09472160414,1.2992588785332215E-6,4.932625936535971E-20,32.110071661465454,0.0,1.2722220510213505E-14,-0.03551492938292237,0.0,0.0,9.277188200394804E-19,-16206.246770986507,999.7843672769005,9.290227161891679E-4,663.3015028501063,415.9351847595825,1.0700593518023844E-16,7.166275443960192E-7,-0.6654090420388975,0.0,0.0,0.0,0.27016242041732613,33.889011280358915,160.03040458580455
8.600000000000673,2.095446313231658E7,13141.496326034488,-2.528191736540488E-16,2.0954467253131017E7,0.4920797576878355,-2.528191736540488E-16,-274.194976754401,1528.023244358458,-1.1827592211913612E-16,-1.1827921876505414E-16,0.17105422817112723,273.23663018725307,28820.927671018988,1.3454932048019706E-6,5.170272125920742E-20,32.11015505627993,0.0,1.272222053627955E-14,-0.03593278303047249,0.0,0.0,9.277188200394804E-19,-16394.197811235183,999.9004770343694,9.299414494896955E-4,664.1116840276904,416.0317994683551,1.0961060875989389E-16,7.605489183998443E-7,-0.6816060253982154,0.0,0.0,0.0,0.2732638797614695,34.71391704071768,161.88634898080585
8.700000000000617,2.0954435555703305E7,13294.298549395158,-2.6485711461047484E-16,2.095443977290962E7,0.5093823846909347,-2.6485711461047484E-16,-277.33701661746295,1528.021218951886,-1.2249964099697208E-16,-1.225031341901176E-16,0.1750187996096887,276.3675256607904,28793.447449620813,1.3928055876173556E-6,5.416453733434641E-20,32.110239412766916,0.0,1.2722220561880786E-14,-0.03635063775607916,0.0,0.0,9.277188200394804E-19,-16582.051539647426,1000.0179118503686,9.308714829850634E-4,664.9320218179645,416.12952816828493,1.1224910672466852E-16,8.066255105732361E-7,-0.6980133433680554,0.0,0.0,0.0,0.2763626309128899,35.54953505705497,163.74133248441635
8.800000000000562,2.0954407664968014E7,13447.100569044254,-2.7732247217358635E-16,2.0954411979680646E7,0.527083643940129,-2.7732247217358635E-16,-280.4774136710891,1528.0191701268177,-1.26824469625637E-16,-1.2682816864317356E-16,0.17902747665507024,279.49677829694974,28765.654220651835,1.4412080986777403E-6,5.671376213469251E-20,32.11032473043669,0.0,1.272222058698974E-14,-0.03676849357181409,0.0,0.0,9.277188200394804E-19,-16769.806697816985,1000.1366705712203,9.318128359258511E-4,665.7625400829654,416.22837028762086,1.1492154397824383E-16,8.549379497960212E-7,-0.7146317104690515,0.0,0.0,0.0,0.27945864186141317,36.39590171961542,165.595342670634
8.900000000000507,2.0954379460276045E7,13599.902382639915,-2.9022542200379995E-16,2.0954383873609435E7,0.5451879418593091,-2.9022542200379995E-16,-283.6161468702557,1528.017097883233,-1.3125170244826355E-16,-1.312556168929265E-16,0.1830801978675494,282.6243670504252,28737.548149440438,1.4907127930066635E-6,5.935247663110938E-20,32.11041100879322,0.0,1.2722220611578584E-14,-0.03718635048973226,0.0,0.0,9.277188200394804E-19,-16957.46202302551,1000.2567520297348,9.327655277792427E-4,666.6032629669223,416.32832524728633,1.1762803660695508E-16,9.055690126744475E-7,-0.7314618485760889,0.0,0.0,0.0,0.28255188057999814,37.25305379319272,167.4483670708751
