time,gePosition_ft_X,gePosition_ft_Y,gePosition_ft_Z,feVelocity_ft_s_X,feVelocity_ft_s_Y,feVelocity_ft_s_Z,altitudeMsl_ft,longitude_deg,latitude_deg,localGravity_ft_s2,eulerAngle_deg_Yaw,eulerAngle_deg_Pitch,eulerAngle_deg_Roll,bodyAngularRateWrtEi_deg_s_Roll,bodyAngularRateWrtEi_deg_s_Pitch,bodyAngularRateWrtEi_deg_s_Yaw,altitudeRateWrtMsl_ft_min,speedOfSound_ft_s,airDensity_slug_ft3,ambientPressure_lbf_ft2,ambientTemperature_dgR,aero_bodyForce_lbf_X,aero_bodyForce_lbf_Y,aero_bodyForce_lbf_Z,aero_bodyMoment_ftlbf_L,aero_bodyMoment_ftlbf_M,aero_bodyMoment_ftlbf_N,mach,dynamicPressure_lbf_ft2,trueAirspeed_nmi_h
0.0,2.09556463253E7,0.0,0.0,0.0,0.0,0.0,30000.0,0.0,0.0,32.1065364063,0.0,-0.0,0.0,9.999999999960824,19.999999999978947,29.999999999939774,0.0,994.853991834,8.91300230208E-4,630.333405472,411.83924,0.0,0.0,-0.0,0.0,-0.0,-0.0,0.0,0.0,0.0
0.1,2.09556461659E7,7.77706631909E-7,0.0,0.0,2.32534282532E-5,3.19951050373,29999.8405577,2.12636285968E-12,0.0,32.1065368957,3.007961821051008,1.994928737060043,1.0245719672801545,9.447842334295489,20.421538010791668,29.790520706687968,-191.97063022380001,994.85468063,8.91305280419E-4,630.337770167,411.839806896,0.0,0.0,0.0,-2.90265021582E-6,-2.53481078885E-5,-9.15248364562E-6,0.00321606953888,0.00456211932358,1.89566485527
0.2,2.09556456859E7,6.22165305976E-6,0.0,0.0,9.32470270527E-5,6.39902110512,29999.3606311,1.70109032793E-11,0.0,32.1065383687,6.035747125734354,3.974597809910866,2.0984912884028355,8.880575817867566,20.791372640195547,29.58182724292847,-383.9412663072,994.856753928,8.91320481722E-4,630.350908046,411.841513271,0.0,0.0,0.0,-5.45683044646E-6,-5.1615206296E-5,-1.81770428742E-5,0.00643212565292,0.0182487884096,3.79132969867
0.3,2.09556448861E7,2.09980791491E-5,0.0,0.0,2.09903031646E-4,9.59853190188,29998.5607535,5.74118009571E-11,0.0,32.1065408237,9.089040383899293,5.931255497297285,3.2210414293280794,8.300824774651892,21.108601511175934,29.375286532923422,-575.9119141128,994.860209425,8.91345817229E-4,630.372804512,411.844357229,0.0,0.0,0.0,-7.65110272053E-6,-7.86063388927E-5,-2.70759635813E-5,0.00964815500442,0.0410609413442,5.68699456956
0.4,2.09556437662E7,4.97732249083E-5,0.0,0.0,3.73221449763E-4,12.7980429917,29997.4409248,1.36087239878E-10,0.0,32.1065442606,12.173239819989277,7.857029168915145,4.391749346606316,7.711172481067422,21.37254790436962,29.17210363886817,-767.882579502,994.86504712,8.91381286939E-4,630.403459565,411.848338772,0.0,0.0,0.0,-9.47717836629E-6,-1.06123220729E-4,-3.58530042953E-5,0.0128641442567,0.0730001354383,7.5826595077
0.5,2.09556423265E7,9.72133305735E-5,0.0,0.0,5.83202294138E-4,15.9975544723,29996.0011449,2.65795410491E-10,0.0,32.1065486796,15.293378938307264,9.743944324684255,5.610304523566046,7.114182517249473,21.582845845849754,28.97333916843768,-959.8532683379999,994.871267015,8.91426890853E-4,630.442873206,411.853457897,0.0,0.0,0.0,-1.09298872504E-5,-1.33966143921E-4,-4.45131748425E-5,0.0160800800746,0.114068551242,9.4783245534
0.6,2.09556405667E7,1.67984636639E-4,0.0,0.0,8.39845581595E-4,19.1970664413,29994.2414138,4.59294511747E-10,0.0,32.1065540806,18.454037070971157,11.583951694139508,6.876461207115406,6.51238400398998,21.73943049856633,28.779899781735292,-1151.8239864779998,994.878869109,8.91482628974E-4,630.491045436,411.859714607,0.0,0.0,0.0,-1.2007120328E-5,-1.61935811912E-4,-5.30624976792E-5,0.0192959491248,0.164268992561,11.3739897477
0.7,2.0955638487E7,2.66753383968E-4,0.0,0.0,0.00114315133101,22.3965789965,29992.1617316,7.29342753344E-10,0.0,32.1065604635,21.65923802632084,13.368962843775384,8.189924222805555,5.908258403336888,21.842526985371975,28.592531673783252,-1343.79473979,994.887853403,8.91548501302E-4,630.547976257,411.867108901,0.0,0.0,0.0,-1.27097488465E-5,-1.89835089092E-4,-6.1507758229E-5,0.0225117380767,0.223604886486,13.2696551325
0.8,2.09556360874E7,3.98185813854E-4,0.0,0.0,0.00149311956602,25.5960922355,29989.762098,1.08869835784E-9,0.0,32.1065678284,24.91233715727512,15.090895465291684,9.550219817395352,5.3042277902111135,21.892637968099123,28.411816987749575,-1535.7655341299999,994.898219896,8.9162450784E-4,630.613665671,411.875640779,0.0,0.0,0.0,-1.30415233121E-5,-2.17470655779E-4,-6.98562504546E-5,0.0257274336022,0.292080283413,15.1653207509
0.9,2.09556333678E7,5.66948168089E-4,0.0,0.0,0.00188975031324,28.795606256,29987.0425131,1.55011956279E-9,0.0,32.1065761754,28.215898482969585,16.741729415277657,10.956554086239915,4.702644473854766,21.89053026383886,28.23817306196694,-1727.73637536,994.90996859,8.91710648591E-4,630.688113679,411.885310241,0.0,0.0,0.0,-1.30089550137E-5,-2.44654561221E-4,-7.81155236361E-5,0.0289430223769,0.369699857084,17.0609866469
1.0,2.09556303283E7,7.77706689033E-4,0.0,0.0,0.00233304360222,31.9951211557,29984.0029767,2.1263646229E-9,0.0,32.1065855043,31.571565126268712,18.313574338383876,12.407662986123631,4.105781823968986,21.837220734422814,28.07185436567059,-1919.707269342,994.923099484,8.91806923556E-4,630.771320284,411.896117288,0.0,0.0,0.0,-1.26211825273E-5,-2.71205669541E-4,-8.62931359498E-5,0.03215849108,0.45646890462,18.9566528661
1.1,2.09556269688E7,0.00103512761968,0.0,0.0,0.00282299946775,35.1946370323,29980.6434888,2.83019181213E-9,0.0,32.1065958153,34.979928213058244,19.798749282157004,13.901659655987917,3.5158261493465877,21.733961637267473,27.91295694010879,-2111.678221938,994.937612578,8.91913332739E-4,630.863285489,411.908061921,0.0,0.0,0.0,-1.18898252352E-5,-2.96950995115E-4,-9.43964199591E-5,0.0353738263947,0.552393346563,20.8523194555
1.2,2.09556232894E7,0.00134387720376,0.0,0.0,0.00335961794667,38.3941539834,29976.9640493,3.67435942591E-9,0.0,32.1066071082,38.44040140577532,21.189874076474265,15.43588665306391,2.9348694753666353,21.58222557961703,27.76142513010938,-2303.6492390040003,994.953507874,8.92029876142E-4,630.964009296,411.921144138,0.0,0.0,0.0,-1.08288255142E-5,-3.21726925115E-4,-1.02432264566E-4,0.038589015009,0.657479726916,22.7479864637
1.3,2.095561929E7,0.00170862168575,0.0,0.0,0.00394289908036,41.5936721069,29972.964658,4.6716257832E-9,0.0,32.1066193831,41.95111018596088,22.479971388327538,17.00678253993636,2.3649030756962754,21.3836901781141,27.617060366090367,-2495.620326414,994.970785372,8.92156553771E-4,631.073491708,411.935363942,0.0,0.0,0.0,-9.45428090349E-6,-3.45380327577E-4,-1.1040691736E-4,0.0418040436155,0.771735213192,24.6436539408
1.4,2.09556149706E7,0.00213402731101,0.0,0.0,0.00457284291269,44.7931915002,29968.6453148,5.8347492287E-9,0.0,32.1066326401,45.50880656662709,23.662577296547163,18.609773722315897,1.8078116294390267,21.140222486265223,27.479531737881462,-2687.591490012,994.989445072,8.92293365627E-4,631.191732728,411.950721332,0.0,0.0,0.0,-7.78426727024E-6,-3.6776954372E-4,-1.18325810627E-4,0.0450188989118,0.895167596453,26.5393219388
1.5,2.09556103313E7,0.00262476032582,0.0,0.0,0.00524944949257,47.9927122613,29964.0060197,7.17648813494E-9,0.0,32.106646879,49.10882071972247,24.731857021312457,20.23920316799,1.2653678960593058,20.85386322452238,27.348388087972353,-2879.562735678,995.009486974,8.92440311716E-4,631.318732361,411.967216309,0.0,0.0,0.0,-5.83865377326E-6,-3.88765263267E-4,-1.2619341361E-4,0.0482335676011,1.02778529136,28.4349905112
1.6,2.09556053721E7,0.00318548697745,0.0,0.0,0.00597271887091,51.1922344877,29959.0467723,8.70960090443E-9,0.0,32.1066621,52.74506065928632,25.682721209603166,21.88830722873212,0.739227825869464,20.526810823580306,27.223071344240612,-3071.534069262,995.030911081,8.92597392043E-4,631.454490609,411.984848873,0.0,0.0,0.0,-3.63891028017E-6,-4.08251281343E-4,-1.340131129E-4,0.0514480363918,1.16959733621,30.3306597132
1.7,2.09556000929E7,0.00382087351424,0.0,0.0,0.00674265110365,54.3917582771,29953.7675727,1.04468459719E-8,0.0,32.106678303,56.41006930237276,26.51093708167784,23.549249926841014,0.23092605108284195,20.161405275561016,27.10293080728456,-3263.505496626,995.053717391,8.92764606611E-4,631.599007479,412.003619025,0.0,0.0,0.0,-1.20790783457E-6,-4.26125135279E-4,-1.41787122141E-4,0.0546622919978,1.320613393,32.2263296018
1.8,2.09555944937E7,0.00453558618569,0.0,0.0,0.007559246249,57.5912837272,29948.1684206,1.24009818063E-8,0.0,32.106695488,60.095144792307686,27.2132279806,25.213220599009215,-0.25812826931053834,19.760111781110798,26.98723810811678,-3455.477023632,995.077905906,8.92941955425E-4,631.752282972,412.023526766,0.0,0.0,0.0,1.4302872125E-6,-4.42298619381E-4,-1.49516421539E-4,0.057876321139,1.4808437474,34.1220002356
1.9,2.09555885746E7,0.00533429124247,0.0,0.0,0.00842250436926,60.7908109358,29942.2493159,1.45847669131E-8,0.0,32.106713655,63.79052504025857,27.78735463249308,26.870595846568087,-0.7266552506233352,19.32550417797107,26.875202555927252,-3647.4486561480003,995.103476627,8.93129438493E-4,631.914317095,412.044572095,0.0,0.0,0.0,4.25062470021E-6,-4.56698175525E-4,-1.57200727019E-4,0.0610901105405,1.65029930889,36.0176716745
2.0,2.09555823356E7,0.00622165493657,0.0,0.0,0.00933242553128,63.9903400004,29936.0102584,1.70109598361E-8,0.0,32.106732804,67.48563150261887,28.232171872857197,28.51116079116181,-1.1735077041633815,18.860248145007112,26.76598660238616,-3839.420400024,995.130429554,8.93327055818E-4,632.085109853,412.066755014,0.0,0.0,0.0,7.22728692484E-6,-4.69265157435E-4,-1.64838488193E-4,0.0643036469335,1.82899161068,37.9133439799
2.1,2.09555757766E7,0.00720234352131,0.0,0.0,0.0102890098028,67.1898710189,29929.4512478,1.969231916E-8,0.0,32.1067529351,71.16936101476921,28.547655780532512,30.124378449193195,-1.5976741327515738,18.367084184330217,26.658721161446685,-4031.3922611340004,995.158764688,8.93534807407E-4,632.264661249,412.090075524,0.0,0.0,0.0,1.0333908614E-5,-4.79955966659E-4,-1.72426913766E-4,0.0675169170546,2.01693280982,39.8090172145
2.2,2.09555688976E7,0.00828102325145,0.0,0.0,0.0112922572584,70.3894040888,29922.5722841,2.26416035125E-8,0.0,32.1067740481,74.8304090477919,28.734898030512632,31.699690590013823,-1.9982812359099338,17.84881040288463,26.552520536614477,-4223.364245328001,995.188482031,8.93752693267E-4,632.452971291,412.114533624,0.0,0.0,0.0,1.35437993133E-5,-4.88742058708E-4,-1.79962022417E-4,0.0707299076459,2.21413568717,41.7046914421
2.3,2.09555616987E7,0.00946236038323,0.0,0.0,0.0123421679743,73.5889393079,29915.373367,2.58715715659E-8,0.0,32.1067961432,78.45760397835133,28.796066632813805,33.22682967723794,-2.374595848341119,17.308265132976036,26.446496727073505,-4415.336358474,995.219581582,8.93980713404E-4,632.650039984,412.140129317,0.0,0.0,0.0,1.6830166643E-5,-4.95609818558E-4,-1.87438716754E-4,0.0739426054551,2.42061364742,43.6003667274
2.4,2.09555541798E7,0.0107510211745,0.0,0.0,0.0134387420298,76.7884767739,29907.8544962,2.939498204E-8,0.0,32.1068192204,82.04023054857932,28.73433477403889,34.69612011459586,-2.726026228229756,16.74830945333458,26.33977290416909,-4607.3086064340005,995.252063343,8.94218867825E-4,632.855867333,412.166862602,0.0,0.0,0.0,2.01663386402E-5,-5.00560305689E-4,-1.94850877507E-4,0.0771549972353,2.63638071913,45.4960431358
2.5,2.0955546341E7,0.0121516718847,0.0,0.0,0.0145819795098,79.9880165844,29900.0156715,3.32245937037E-8,0.0,32.1068432796,85.56832196912644,28.553781874613485,36.09874829234465,-3.0521226107483206,16.171809694879936,26.231495874901526,-4799.280995064,995.285927315,8.94467156537E-4,633.070453345,412.19473348,0.0,0.0,0.0,2.35259831828E-5,-5.03608870118E-4,-2.0219147481E-4,0.0803670697448,2.86145155469,47.3917207336
2.6,2.09555381822E7,0.0136689787749,0.0,0.0,0.0157718805008,83.1875588373,29891.8568928,3.73731653774E-8,0.0,32.1068683208,89.03290375567578,28.259272896716098,37.42698461952918,-3.3525769459289414,15.581620036498007,26.12084737572634,-4991.253530238,995.321173499,8.94725579548E-4,633.293798027,412.223741953,0.0,0.0,0.0,2.6883322306E-5,-5.04784642387E-4,-2.09452693197E-4,0.083578809747,3.09584143036,49.2873995872
2.7,2.09555297035E7,0.0153076081082,0.0,0.0,0.017008445094,86.38710363,29883.3781597,4.1853455935E-8,0.0,32.1068943441,92.42617781569865,27.856323155230143,38.67434614475958,-3.6272217494475774,14.980565315906011,26.007054069350037,-5183.2262178,995.357801895,8.94994136867E-4,633.525901385,412.25388802,0.0,0.0,0.0,3.02133390987E-5,-5.04129902131E-4,-2.16626066778E-4,0.0867902040106,3.33956624623,51.1830797635
2.8,2.09555209048E7,0.0170722261493,0.0,0.0,0.0182916733834,89.5866510604,29874.579472,4.66782243061E-8,0.0,32.1069213494,95.7416414603832,27.35095629325217,39.835694570554296,-3.8760280084174394,14.371424197985913,25.889396148378932,-5375.199063624,995.395812506,8.952728285E-4,633.766763426,412.285171684,0.0,0.0,0.0,3.34919747955E-5,-5.01699331665E-4,-2.23702620999E-4,0.0900012393092,3.59264252625,53.0787613296
2.9,2.09555117861E7,0.0189674991649,0.0,0.0,0.0196215654673,92.7862012262,29865.4608294,5.18602294784E-8,0.0,32.1069493368,98.9741420344412,26.749562723357485,40.907270480406396,-4.099102101809592,13.756912854138944,25.76721448147796,-5567.172073572,995.435205332,8.95561654456E-4,634.016384159,412.317592945,0.0,0.0,0.0,3.66963136882E-5,-4.97559162883E-4,-2.30673017478E-4,0.0932119024213,3.85508741818,54.9744443525
3.0,2.09555023475E7,0.0209980934238,0.0,0.0,0.0209981214475,95.985754225,29856.0222316,5.74122304992E-8,0.0,32.1069783062,102.11987285784802,26.058764857384293,41.88666962755545,-4.296681715504525,13.139669315896825,25.639916270870533,-5759.1452535,995.475980375,8.95860614745E-4,634.27476359,412.351151804,0.0,0.0,0.0,3.98047535583E-5,-4.91786227553E-4,-2.37527698486E-4,0.0964221801303,4.12691869361,56.8701288989
3.1,2.0955492589E7,0.0231686751967,0.0,0.0,0.0224213414283,99.1853101545,29846.2636784,6.33469864783E-8,0.0,32.1070082577,105.17631973794057,25.285294062429415,42.772770692572614,-4.469130754323789,12.522238666770255,25.506979221351337,-5951.11860927,995.518137635,8.96169709375E-4,634.541901727,412.385848261,0.0,0.0,0.0,4.27971594885E-5,-4.84466922852E-4,-2.44257027909E-4,0.0996320592247,4.40815474793,58.7658150357
3.2,2.09554825105E7,0.0254839107566,0.0,0.0,0.023891225519,102.384869112,29836.1851695,6.96772565895E-8,0.0,32.1070391913,108.14216924116621,24.43588272499617,43.56562585415133,-4.616933276486792,11.907059234596304,25.36795425157994,-6143.0921467200005,995.561677115,8.96488938356E-4,634.817798579,412.421682319,0.0,0.0,0.0,4.56549991305E-5,-4.75696105479E-4,-2.50851425794E-4,0.102841526498,4.69881460034,60.6615028291
3.3,2.0955472112E7,0.0279484663785,0.0,0.0,0.0254077738314,105.584431197,29825.7867045,7.64158000732E-8,0.0,32.1070711069,111.01719036411997,23.517173278589144,44.26632596526263,-4.740686499102459,11.29644993833847,25.222466807471907,-6335.06587182,995.606598814,8.96818301698E-4,635.102454153,412.458653978,0.0,0.0,0.0,4.83614577999E-5,-4.65575928993E-4,-2.57301493955E-4,0.106050568748,4.9989178938,62.5571923449
3.4,2.09554613936E7,0.0305670083399,0.0,0.0,0.0269709864817,108.783996505,29815.0682831,8.35753762384E-8,0.0,32.1071040047,113.80210052788362,22.535644705547668,44.876851402271654,-4.841092945244071,10.692598928682724,25.070216862714503,-6527.0397903,995.652902736,8.97157799411E-4,635.39586846,412.49676324,0.0,0.0,0.0,5.09015321035E-5,-4.54214640017E-4,-2.63598130511E-4,0.109259172779,5.30848489505,64.4528836488
3.5,2.09554503552E7,0.0333442029206,0.0,0.0,0.0285808635888,111.983565134,29804.0299051,9.11687444647E-8,0.0,32.1071378845,116.49842533571909,21.497555944457403,45.39991815054022,-4.918951823048662,10.097553645672773,24.910977713893715,-6719.01390804,995.70058888,8.97507431504E-4,635.698041507,412.536010105,0.0,0.0,0.0,5.32621011882E-5,-4.41725349575E-4,-2.69732631674E-4,0.112467325399,5.62753649459,66.3485768057
3.6,2.09554389969E7,0.0362847164026,0.0,0.0,0.0302374052753,115.183137183,29792.67157,9.92086642045E-8,0.0,32.1071727464,119.10835963481388,20.40890485978318,45.83882678547175,-4.975149744746119,9.513212393021925,24.744593695309394,-6910.98823098,995.749657249,8.9786719799E-4,636.008973303,412.576394574,0.0,0.0,0.0,5.54319751067E-5,-4.28224796134E-4,-2.75696779566E-4,0.115675013422,5.95609420668,68.2442718799
3.7,2.09554273186E7,0.0393932150708,0.0,0.0,0.0319406116689,118.382712748,29780.9932775,1.07707894985E-7,0.0,32.1072085904,121.6346354655521,19.275400939284182,46.19732001629576,-5.0106509072798415,8.941317504617334,24.570976953050984,-7102.962764880001,995.800107844,8.98237098878E-4,636.328663859,412.61791665,0.0,0.0,0.0,5.74019202124E-5,-4.13832116803E-4,-2.81482915306E-4,0.118882223668,6.2941801693,70.1399689356
3.8,2.09554153203E7,0.0426743652122,0.0,0.0,0.0336904828989,121.582291928,29768.9950273,1.16679196412E-7,0.0,32.1072454165,124.08040063399592,18.102449643671733,46.47945260081334,-5.026486866694593,8.383450151975403,24.39010342667261,-7294.937515680001,995.851940667,8.9861713418E-4,636.657113184,412.660576332,0.0,0.0,0.0,5.91646619138E-5,-3.98667642663E-4,-2.87083997037E-4,0.122088942962,6.64181714421,72.0356680359
3.9,2.09554030021E7,0.0461328331168,0.0,0.0,0.0354870190981,124.781874821,29756.676819,1.26135328168E-7,0.0,32.1072832248,126.44911007679595,16.895146287133585,46.68947584203308,-5.023746044723881,7.841026812816405,24.20200819179105,-7486.91248926,995.905155719,8.99007303907E-4,636.994321288,412.704373623,0.0,0.0,0.0,6.07148655155E-5,-3.82851733415E-4,-2.92493643016E-4,0.125295158135,6.99902851688,73.931369244
4.0,2.0955390364E7,0.0497732850772,0.0,0.0,0.037330220405,127.981461523,29744.0386522,1.3608905002E-7,0.0,32.1073220151,128.74443093984607,15.658277421485355,46.83173760130625,-5.003563108581775,7.31529739290884,24.00678031647173,-7678.8876913799995,995.959753002,8.99407608073E-4,637.340288182,412.749308524,0.0,0.0,0.0,6.20490962436E-5,-3.6650366534E-4,-2.97706160231E-4,0.128500856024,7.36583829655,75.8270726222
4.1,2.09553774058E7,0.0536003873886,0.0,0.0,0.0392200869599,131.181052134,29731.0805266,1.46553121815E-7,0.0,32.1073617876,130.97016135062992,14.39632788154606,46.91059780664718,-4.967108363594716,6.807344966519549,23.804557382262498,-7870.8631280399995,996.015732517,8.99818046688E-4,637.695013875,412.795381036,0.0,0.0,0.0,6.31657598831E-5,-3.49740585194E-4,-3.02716559368E-4,0.131706023474,7.74227111619,77.7227782325
4.2,2.09553641278E7,0.0576188063494,0.0,0.0,0.0411566189066,134.380646749,29717.8024417,1.57540303489E-7,0.0,32.1074025421,133.13016222592998,13.113491885221364,46.93035876507984,-4.9155772934157795,6.318087074736075,23.595519811166625,-8062.83880494,996.073094266,9.00238619765E-4,638.058498379,412.842591161,0.0,0.0,0.0,6.40650257381E-5,-3.32676540998E-4,-3.07520557213E-4,0.134910647334,8.12835223255,79.6184861365
4.3,2.09553505297E7,0.0618332082605,0.0,0.0,0.0431398163928,137.580245468,29704.2043971,1.69063355063E-7,0.0,32.1074442789,135.2283010623761,11.813686833535844,46.895209165868216,-4.850180374731575,5.848278497722959,23.379885130850912,-8254.814728079999,996.131838251,9.00669327317E-4,638.430741705,412.8909389,0.0,0.0,0.0,6.47487338532E-5,-3.15421598902E-4,-3.1211456779E-4,0.138114714462,8.52410752613,81.5141963955
4.4,2.09553366117E7,0.0662482594262,0.0,0.0,0.045169679571,140.779848388,29690.2863924,1.81135036652E-7,0.0,32.1074869978,137.26840641724039,10.500568707040275,46.80918042359611,-4.772133282543008,5.398515396450294,23.157902297493404,-8446.79090328,996.191964474,9.01110169358E-4,638.811743865,412.940424254,0.0,0.0,0.0,6.52202886076E-5,-2.9808105339E-4,-3.16495683687E-4,0.141318211722,8.92956350121,83.4099090706
4.5,2.09553223737E7,0.0708686261536,0.0,0.0,0.047246208595,143.979455606,29676.0484273,1.93768108458E-7,0.0,32.1075306988,139.25423174334125,9.177548185406238,46.67611391443499,-4.682647589519006,4.9692407036708035,22.92984618043434,-8638.767336359999,996.253472937,9.015611459E-4,639.201504869,412.991047225,0.0,0.0,0.0,6.54845409074E-5,-2.80754736159E-4,-3.20661649125E-4,0.144521125986,9.34474728587,85.3056242223
4.6,2.09553078158E7,0.0756989747531,0.0,0.0,0.0493694036245,147.179067221,29661.4905012,2.06975330782E-7,0.0,32.107575382,141.1894272281678,7.847806825634308,46.499637664152935,-4.582922048500963,4.560750628709697,22.696012296350247,-8830.74403326,996.316363641,9.02022256958E-4,639.60002473,413.042807815,0.0,0.0,0.0,6.55476612593E-5,-2.63536427042E-4,-3.24610826339E-4,0.147723444133,9.76968663201,87.2013419113
4.7,2.09552929379E7,0.080743971538,0.0,0.0,0.0515392648201,150.378683329,29646.6126137,2.20769464018E-7,0.0,32.1076210473,143.077518382447,6.514312809627167,46.283151109729054,-4.474134532046536,4.173202132592916,22.456711866576235,-9022.72099974,996.380636588,9.02493502546E-4,640.00730346,413.095706025,0.0,0.0,0.0,6.54170060135E-5,-2.46513368512E-4,-3.2834215685E-4,0.150925153052,10.2044099153,89.097062198
4.8,2.09552777401E7,0.0860082828253,0.0,0.0,0.0537557923485,153.578304029,29631.4147644,2.35163268661E-7,0.0,32.1076676948,144.92189023567593,5.179835920767792,46.02981666335217,-4.357434687024762,3.806621223066534,22.212267251205304,-9214.698241740001,996.446291781,9.02974882677E-4,640.423341071,413.149741857,0.0,0.0,0.0,6.51009790189E-5,-2.29765883479E-4,-3.3185511913E-4,0.154126239637,10.6489461354,90.9927851425
4.9,2.09552622223E7,0.0914965749351,0.0,0.0,0.0560189863791,156.777929418,29615.8969527,2.50169505305E-7,0.0,32.1077153245,146.7257761284941,3.846961529045734,45.74255692996583,-4.233937346632743,3.460911917026041,21.96300780144689,-9406.675765080001,996.513329221,9.03466397367E-4,640.848137576,413.204915312,0.0,0.0,0.0,6.46088908465E-5,-2.13367094491E-4,-3.35149684061E-4,0.157326690793,11.1033249156,92.8885108052
5.0,2.09552463845E7,0.0972135141908,0.0,0.0,0.0583288470839,159.977559595,29600.0591783,2.65800934648E-7,0.0,32.1077639364,148.4922502103744,2.518103459196457,45.424056558781416,-4.104716726860304,3.1358657183154333,21.709266154308782,-9598.6535757,996.581748911,9.03968046631E-4,641.281692989,413.261226392,0.0,0.0,0.0,6.39508176121E-5,-1.97382740978E-4,-3.38226269477E-4,0.160526493433,11.5675765033,94.7842392462
5.1,2.09552302268E7,0.10316376692,0.0,0.0,0.0606853746394,163.177194656,29583.9014406,2.82070317492E-7,0.0,32.1078135305,150.2242229046621,1.195515688591565,45.076767836205704,-3.970801420047797,2.831171462591721,21.451374980431396,-9790.63167936,996.651550852,9.04479830484E-4,641.724007321,413.318675099,0.0,0.0,0.0,6.31374612768E-5,-1.8187108987E-4,-3.41085694911E-4,0.163725634479,12.0417317696,96.6799705258
5.2,2.0955213749E7,0.109351999452,0.0,0.0,0.0630885692262,166.3768347,29567.4237392,2.98990414746E-7,0.0,32.1078641068,151.92443869924924,-0.11869712325223516,44.70291924720539,-3.8331701846260717,2.546425387052445,21.189664185418135,-9982.610082,996.722735046,9.05001748942E-4,642.175080588,413.377261435,0.0,0.0,-0.0,6.21800131255E-5,-1.66882933867E-4,-3.4372913752E-4,0.166924100862,12.5258222097,98.575704704
5.3,2.09551969514E7,0.115782878123,0.0,0.0,0.0655384310269,169.576479824,29550.6260735,3.16573987431E-7,0.0,32.1079156653,153.59547574607762,-1.4225702334441246,44.30452633858687,-3.6927485183131967,2.281141290999926,20.924458552285916,-10174.58878944,996.795301496,9.0553380202E-4,642.634912802,413.436985401,0.0,0.0,-0.0,6.10900219314E-5,-1.52461670732E-4,-3.46158089981E-4,0.170121879521,13.0198799427,100.471441841
5.4,2.09551798338E7,0.122461069269,0.0,0.0,0.0680349602292,172.776130125,29533.5084431,3.34833796676E-7,0.0,32.107968206,155.23974683516676,-2.7142704758543656,43.883404318051724,-3.550405991253752,2.0347606632312583,20.656075805956483,-10366.5678075,996.869250205,9.06075989735E-4,643.103503977,413.497846999,0.0,0.0,-0.0,5.98792681128E-5,-1.38643456307E-4,-3.48374320993E-4,0.173318957407,13.5239377114,102.367181998
5.5,2.09551623962E7,0.129391239233,0.0,0.0,0.0705781570227,175.975785703,29516.0708473,3.53782603725E-7,0.0,32.108021729,156.85950132147107,-3.992088869998855,43.44118195925212,-3.4069520696034123,1.806661203788564,20.38482155094509,-10558.547142180001,996.943893124,9.06663351792E-4,643.621165379,413.559856736,0.0,0.0,-0.0,5.85618700551E-5,-1.25462171528E-4,-3.50393320384E-4,0.176515443303,14.0385714296,104.262925234
5.6,2.09551446386E7,0.13657805436,0.0,0.0,0.0731680216034,179.175446654,29498.3132858,3.73433169939E-7,0.0,32.1080762342,158.45682702652667,-5.254433803127835,42.97931690721238,-3.263132142863048,1.5961655037997657,20.110983171136127,-10750.52679924,997.019542824,9.07279970408E-4,644.169584458,413.623009841,0.0,0.0,-0.0,5.7148423417E-5,-1.12936472021E-4,-3.52211092705E-4,0.179711274426,14.563619303,106.158671611
5.7,2.09551265611E7,0.144026180999,0.0,0.0,0.0758045541672,182.375113075,29480.2357578,3.93798256794E-7,0.0,32.1081317217,160.03365388418192,-6.4998254083124465,42.49911067544201,-3.1196392206344954,1.4025584075035236,19.834848209925454,-10942.5067845,997.096555626,9.07907699626E-4,644.72788528,413.687300877,0.0,0.0,-0.0,5.56494983796E-5,-1.01079715482E-4,-3.53822984285E-4,0.182906375986,15.0988484301,108.054421188
5.8,2.09551081636E7,0.151740285505,0.0,0.0,0.0784877549158,185.574785066,29461.838263,4.14890625888E-7,0.0,32.1081881914,161.5917582142897,-7.726890799584467,42.001723616921794,-2.9771072705767128,1.2250907654894876,19.556694042484228,-11134.48710396,997.174931531,9.08546539466E-4,645.296067863,413.752729846,0.0,0.0,-0.0,5.40766864742E-5,-8.9902013279E-5,-3.55231485198E-4,0.186100735149,15.6442974369,109.950174026
5.9,2.09550894461E7,0.159725034234,0.0,0.0,0.0812176240547,188.774462723,29443.1208006,4.36723038942E-7,0.0,32.1082456434,163.1327666102258,-8.934359705860391,41.488190270835624,-2.836111090452846,1.0629875093810448,19.27678661238697,-11326.46776338,997.254670543,9.09196489949E-4,645.874132222,413.819296749,0.0,0.0,-0.0,5.24413075419E-5,-7.94078227745E-5,-3.56439214495E-4,0.189294339095,16.2000056337,111.845930187
6.0,2.09550704087E7,0.167985093549,0.0,0.0,0.0839941617919,191.974146144,29424.0833702,4.59308257798E-7,0.0,32.1083040776,164.65815997079315,-10.121060618155509,40.95943448212461,-2.6971672865301466,0.9154556470774692,18.99538034068318,-11518.44876864,997.335772663,9.09857551092E-4,646.462078377,413.887001588,0.0,0.0,-0.0,5.07543357164E-5,-6.95963712414E-5,-3.57448901415E-4,0.192487175013,16.7660130145,113.74168973
6.1,2.09550510513E7,0.176525129815,0.0,0.0,0.0868173683393,195.173835428,29404.7259712,4.82659044429E-7,0.0,32.1083634942,166.1692776192154,-11.28591737390745,40.41628411532968,-2.560735678409462,0.7816916986574819,18.712718214419283,-11710.430125679999,997.418237895,9.10529722918E-4,647.059906345,413.955844366,0.0,0.0,-0.0,4.90263350288E-5,-6.04620982572E-5,-3.58263369803E-4,0.195679230103,17.3423602575,115.637452717
6.2,2.09550313739E7,0.185349809402,0.0,0.0,0.089687243913,198.37353067,29385.0486029,5.06788160932E-7,0.0,32.108423893,167.66732147140468,-12.42794610712186,39.85948522160337,-2.4272210743922584,0.6608885449552359,18.429032021035702,-11902.4118402,997.50206624,9.11213005446E-4,647.667616145,414.025825084,0.0,0.0,-0.0,4.72674045173E-5,-5.19951096138E-5,-3.58885525472E-4,0.198870491574,17.9290887251,117.53321921
6.3,2.09550113766E7,0.194463798684,0.0,0.0,0.0926037887309,201.573231971,29365.0512649,5.31708369538E-7,0.0,32.1084852742,169.15336022829405,-13.546252497831192,39.28971554183535,-2.2969753625015534,0.5522416711541752,18.14454269683975,-12094.39391826,997.587257701,9.11907398697E-4,648.285207794,414.096943745,0.0,0.0,-0.0,4.54871326058E-5,-4.4181636282E-5,-3.59318346237E-4,0.202060946649,18.5262404634,119.428989268
6.4,2.09549910593E7,0.203871764042,0.0,0.0,0.0955670030171,204.772939426,29344.7339563,5.57432432609E-7,0.0,32.1085476377,170.62833359681733,-14.640029264143855,38.70759725032239,-2.170299864003462,0.45495479705822234,17.85946076090661,-12286.37636556,997.673812282,9.12612902693E-4,648.912681312,414.169200351,0.0,0.0,-0.0,4.36945604153E-5,-3.70044925165E-5,-3.59564874281E-4,0.205250582559,19.1338582031,121.324762953
6.5,2.0954970422E7,0.213578371857,0.0,0.0,0.0985768869964,207.972653134,29324.0966768,5.83973112644E-7,0.0,32.1086109835,172.09305652578627,-15.708553843484015,38.11370886020109,-2.0474478987970777,0.36824489443391545,17.57398680862514,-12478.35918804,997.761729984,9.13329517454E-4,649.550036717,414.242594905,0.0,0.0,-0.0,4.18981535881E-5,-3.0443527775E-5,-3.59628210547E-4,0.208439386547,19.7519853585,123.220540327
6.6,2.09549494647E7,0.223588288519,0.0,0.0,0.1016334409,211.172373192,29303.1394255,6.11343172277E-7,0.0,32.1086753116,173.5482234916148,-16.75118621884702,37.508596230540135,-1.9286275146473624,0.291346599133217,17.288312043173548,-12670.34239152,997.85101081,9.14057243004E-4,650.197274031,414.317127407,0.0,0.0,-0.0,4.01057821343E-5,-2.44760677227E-5,-3.59511510823E-4,0.211627345868,20.3806660283,125.11632145
6.7,2.09549281875E7,0.233906180419,0.0,0.0,0.104736664961,214.372099699,29281.8622019,6.39555374282E-7,0.0,32.1087406221,174.99441283159877,-17.767366847958037,36.892782625989405,-1.8140043355875282,0.22351603246704016,17.002618825329684,-12862.32598194,997.941654763,9.14796079363E-4,650.854393271,414.392797861,0.0,0.0,-0.0,3.83247077589E-5,-1.90773402049E-5,-3.59217983217E-4,0.214814447789,21.0199449953,127.012106383
6.8,2.09549065903E7,0.244536713954,0.0,0.0,0.107886559415,217.571832752,29260.2650053,6.68622481575E-7,0.0,32.108806915,176.43209116485835,-18.756614661128317,36.266777794837935,-1.703704488255141,0.16403405187155987,16.717081225745062,-13054.309965120001,998.033661846,9.15546026555E-4,651.521394458,414.469606269,0.0,0.0,-0.0,3.65615780853E-5,-1.42208826744E-5,-3.58750886718E-4,0.218000679586,21.6698677264,128.907895189
6.9,2.09548846731E7,0.255484555528,0.0,0.0,0.111083124504,220.771572448,29238.3478351,6.98557257215E-7,0.0,32.1088741902,177.86161791240207,-19.718525095838114,35.63108604216111,-1.597817568444131,0.11220895565517909,16.431865567306705,-13246.29434688,998.127032061,9.16307084603E-4,652.198277613,414.547552634,0.0,0.0,-0.0,3.4822427165E-5,-9.87892815262E-6,-3.58113530583E-4,0.221186028549,22.3304803726,130.803687928
7.0,2.0954862436E7,0.266754371546,0.0,0.0,0.114326360471,223.971318886,29216.1106906,7.29372464408E-7,0.0,32.1089424478,179.2832499483983,-20.652768140257653,34.986213285566734,-1.496399613982252,0.06737867047747911,16.14713094635686,-13438.27913316,998.221765412,9.17079253529E-4,652.885042756,414.626636957,0.0,0.0,-0.0,3.31126816497E-5,-6.02276737462E-6,-3.57309274302E-4,0.22437048198,23.0018297692,132.699484661
7.1,2.09548398789E7,0.278350828421,0.0,0.0,0.117616267565,227.171072163,29193.5535711,7.61080866506E-7,0.0,32.1090116878,-179.3028536013829,-21.55908636227234,34.33267309164918,-1.3994760537047517,0.028912453235838763,15.86302972641071,-13630.264329779999,998.317861901,9.17862533358E-4,653.581689909,414.706859241,0.0,0.0,-0.0,3.14371719941E-5,-2.62308531391E-6,-3.56341527918E-4,0.227554027191,23.6839634357,134.59528545
7.2,2.09548170018E7,0.29027859257,0.0,0.0,0.120952846036,230.370832377,29170.676476,7.93695227013E-7,0.0,32.1090819103,-177.89662639342654,-22.437292902927272,33.67099170088653,-1.307044605910343,-0.0037878586950778844,15.579707997382076,-13822.24994262,998.415321531,9.18656924112E-4,654.288219091,414.788219489,0.0,0.0,-0.0,2.9800148065E-5,3.49729207207E-7,-3.55213752525E-4,0.230736651508,24.3769295756,136.491090355
7.3,2.09547938047E7,0.302542330413,0.0,0.0,0.124336096139,233.570599625,29147.4794044,8.27228309583E-7,0.0,32.1091531151,-176.49808971319425,-23.287269415440733,33.00171205788304,-1.219078103421288,-0.03128701337637293,15.297305998025168,-14014.2359775,998.514144306,9.19462425818E-4,655.004630326,414.870717702,0.0,0.0,-0.0,2.82052985443E-5,2.92530163892E-6,-3.53929460785E-4,0.233918342268,25.0807770768,138.386899439
7.4,2.09547702877E7,0.315146708379,0.0,0.0,0.127766018132,236.770374006,29123.9623558,8.61692878026E-7,0.0,32.1092253024,-175.1073471365584,-24.10896393563468,32.3253968738858,-1.135527225726915,-0.05411588995184684,15.015958498383943,-14206.22244036,998.614330227,9.20279038498E-4,655.730923635,414.954353884,0.0,0.0,-0.0,2.66557735322E-5,5.13301793873E-6,-3.52492217332E-4,0.237099086823,25.7955555115,140.282712761
7.5,2.09547464506E7,0.328096392899,0.0,0.0,0.131242612277,239.970155617,29100.1253294,8.97101696308E-7,0.0,32.1092984721,-173.72457899224477,-24.902388670661413,31.64263075623973,-1.0563231219099174,-0.07277138727760817,14.735795143222987,-14398.20933702,998.715879299,9.21106762178E-4,656.46709904,415.039128038,0.0,0.0,-0.0,2.51542097852E-5,7.00179890752E-6,-3.5090563896E-4,0.240278872536,26.5213151359,142.178530383
7.6,2.09547222936E7,0.34139605041,0.0,0.0,0.134765878841,243.169944556,29075.9683244,9.33467528553E-7,0.0,32.1093726242,-172.350036637411,-25.66761769554137,30.954021448554684,-0.981379911337843,-0.08771661895475837,14.456940755122188,-14590.19667336,998.818791524,9.21945596884E-4,657.213156563,415.125040165,0.0,0.0,-0.0,2.37027580489E-5,8.55990226257E-6,-3.49173394525E-4,0.243457686781,27.2581068907,144.074352367
7.7,2.09546978167E7,0.355050347357,0.0,0.0,0.138335818091,246.36974092,29051.4913402,9.70803139047E-7,0.0,32.1094477589,-170.98403655045186,-26.404784550751067,30.26020023315103,-0.9105970518237093,-0.09938137880205214,14.17951560038647,-14782.1844552,998.923066906,9.22795542641E-4,657.969096228,415.212090268,0.0,0.0,-0.0,2.23031119866E-5,9.8347517753E-6,-3.47299204492E-4,0.246635516948,28.0059824007,145.970178772
7.8,2.09546730197E7,0.369063950186,0.0,0.0,0.1419524303,249.569544808,29026.694376,1.00912129224E-6,0.0,32.109523876,-169.62695426624094,-27.114079736163017,29.561821554740945,-0.8438615676869827,-0.10816284181051593,13.903635618228883,-14974.17268848,999.028705447,9.23656599474E-4,658.734918057,415.30027835,0.0,0.0,-0.0,2.09565382342E-5,1.08527925355E-5,-3.45286840107E-4,0.249812350438,28.7649939752,147.86600966
7.9,2.09546479027E7,0.383441525351,0.0,0.0,0.145615715745,252.769356316,29001.577431,1.04843475274E-6,0.0,32.1096009756,-168.27921816927883,-27.795748098530073,28.859561930834627,-0.7810501325640249,-0.11442646695316025,13.629412617409741,-15166.16137896,999.135707151,9.24528767411E-4,659.510622074,415.389604414,0.0,0.0,-0.0,1.96639071557E-5,1.16393711802E-5,-3.4314012216E-4,0.252988174667,29.5351946076,149.761845091
8.0,2.09546224658E7,0.398187739312,0.0,0.0,0.149325674704,255.969175543,28976.1405045,1.08875628533E-6,0.0,32.1096790577,-166.9413031848549,-28.45008611388929,28.15411822026177,-0.7220310040230069,-0.11850706980150631,13.356954441305751,-15358.15053258,999.244072021,9.25412046478E-4,660.296208303,415.480068463,0.0,0.0,-0.0,1.84257239115E-5,1.22186397422E-5,-3.40862919345E-4,0.256162977063,30.3166379758,151.657685127
8.1,2.09545967089E7,0.413307258534,0.0,0.0,0.153082307463,259.169002587,28950.3835956,1.13009865497E-6,0.0,32.1097581224,-165.61372439801622,-29.07743906780746,27.44620532589733,-0.6666658090035315,-0.12071003472322585,13.086365106279322,-15550.14015522,999.353800061,9.26306436701E-4,661.091676767,415.571670498,0.0,0.0,-0.0,1.72421594919E-5,1.26134816283E-5,-3.38459146214E-4,0.259336745069,31.109378442,153.553529827
8.2,2.0954570632E7,0.428804749486,0.0,0.0,0.156885614306,262.368837545,28924.3067037,1.17247462676E-6,0.0,32.1098381695,-164.2970306450348,-29.67819813885401,26.736553412034695,-0.614811180734135,-0.12131263838657286,12.817744915124209,-15742.1302527,999.464891274,9.27211938108E-4,661.897027491,415.664410523,0.0,0.0,-0.0,1.61130814083E-5,1.28454581285E-5,-3.35932760746E-4,0.262509466141,31.9134710526,155.449379253
8.3,2.09545442351E7,0.444684878646,0.0,0.0,0.160735595525,265.568680515,28897.9098279,1.21589696601E-6,0.0,32.1099191993,-162.9917981214902,-30.25279739481252,26.02590471725063,-0.5663202494756508,-0.12056545838972813,12.551190549025243,-15934.1208309,999.577345663,9.28128550727E-4,662.712260499,415.758288542,0.0,0.0,-0.0,1.5038083774E-5,1.29347737831E-5,-3.33287761558E-4,0.265681127747,32.7289715387,157.345233465
8.4,2.09545175183E7,0.460952312495,0.0,0.0,0.164632251414,268.768531595,28871.1929673,1.26037843819E-6,0.0,32.1100012115,-161.69862405452392,-30.801710710740682,25.31501004824737,-0.5210439905035454,-0.11869384298577916,12.286795141584472,-16126.1118957,999.691163231,9.29056274586E-4,663.537375816,415.853304555,0.0,0.0,-0.0,1.40165165446E-5,1.29002588901E-5,-3.30528184776E-4,0.268851717373,33.5559363155,159.241092523
8.5,2.09544904814E7,0.477611717522,0.0,0.0,0.16857558227,271.968390882,28844.1561213,1.30593180895E-6,0.0,32.1100842064,-160.41812049254955,-31.32544862314556,24.604625035802595,-0.4788324339913798,-0.1158994200644765,12.024648336346127,-16318.10345292,999.806343983,9.29995109713E-4,664.372373468,415.949458568,0.0,0.0,-0.0,1.30475137233E-5,1.27593674195E-5,-3.2765810061E-4,0.272021222516,34.3944224829,161.136956487
8.6,2.09544631246E7,0.494667760221,0.0,0.0,0.172565588394,275.168258475,28816.7992889,1.35256984411E-6,0.0,32.1101681838,-159.1509082536728,-31.82455513368125,23.89550623567706,-0.4395357422516804,-0.112361625750919,11.764836332289473,-16510.095508500002,999.922887921,9.30945056137E-4,665.21725348,416.046750582,0.0,0.0,-0.0,1.21300203731E-5,1.25281886108E-5,-3.24681609654E-4,0.275189630688,35.244487825,163.032825418
8.7,2.09544354478E7,0.512125107092,0.0,0.0,0.176602270091,278.36813447,28789.1224693,1.40030530969E-6,0.0,32.1102531439,-157.89761109126212,-32.29960447961492,23.188407152745835,-0.4030051605410637,-0.10823923514710125,11.5074419178052,-16702.0880682,1000.04079505,9.31906113886E-4,666.072015878,416.1451806,0.0,0.0,-0.0,1.12628183063E-5,1.22214705584E-5,-3.21602838961E-4,0.278356929418,36.1061908104,164.928699375
8.8,2.0954407451E7,0.52998842464,0.0,0.0,0.180685627669,281.568018966,28761.1256617,1.44915097188E-6,0.0,32.1103390865,-156.6588501133398,-32.751197888135536,22.4840742625513,-0.3690938481681778,-0.10367187985246001,11.252544496936897,-16894.08113796,1000.16006537,9.3287828299E-4,666.936660688,416.244748626,0.0,0.0,-0.0,1.04445503566E-5,1.18526541441E-5,-3.18425937917E-4,0.281523106246,36.9795905924,166.824578419
8.9,2.09543791342E7,0.548262379379,0.0,0.0,0.18481566144,284.767912061,28732.8088652,1.49911959706E-6,0.0,32.1104260118,-155.43523850850556,-33.1799603327252,21.783243099834834,-0.3376575970331974,-0.09878153895418262,11.00022010886161,-17086.07472366,1000.28069889,9.33861563479E-4,667.811187935,416.345454662,0.0,0.0,-0.0,9.67374316083E-6,1.14339157358E-5,-3.15155073957E-4,0.284688148728,37.8647470084,168.72046261
9.0,2.09543504974E7,0.566951637827,0.0,0.0,0.188992371719,287.967813852,28704.172079,1.5502239518E-6,0.0,32.1105139197,-154.22737660532135,-33.58653731095904,21.086634476900805,-0.30855544499633236,-0.09367399210260659,10.750541442614864,-17278.06883112,1000.40269561,9.34855955383E-4,668.695597648,416.447298712,0.0,0.0,-0.0,8.94882840761E-6,1.09762171564E-5,-3.11794428142E-4,0.287852044438,38.7617205807,170.616352006
9.1,2.09543215406E7,0.586060866509,0.0,0.0,0.193215758826,291.167724436,28675.2153021,1.60247680287E-6,0.0,32.1106028103,-153.03584730984846,-33.97159166195391,20.394950887103168,-0.2816501916091708,-0.0884402251606104,10.503577848664408,-17470.06346616,1000.52605554,9.35861458733E-4,669.589889853,416.550280778,0.0,0.0,-0.0,8.26816252825E-6,1.04893615112E-5,-3.08348190655E-4,0.291014780961,39.670572516,172.512246669
9.2,2.09542922638E7,0.605594731957,0.0,0.0,0.197485823082,294.367643913,28645.9385338,1.65589091722E-6,0.0,32.1106926836,-151.86121193852557,-34.335800443461885,19.70887314215618,-0.25680882376101505,-0.08315778062044595,10.259395348765086,-17662.058634779998,1000.65077867,9.36878073558E-4,670.494064577,416.654400864,0.0,0.0,-0.0,7.63004482723E-6,9.98205356321E-6,-3.04820556216E-4,0.294176345899,40.5913647054,174.408146656
9.3,2.09542626671E7,0.625557900708,0.0,0.0,0.201802564814,297.567572379,28616.3417731,1.710479062E-6,0.0,32.1107835396,-150.70400647159764,-34.67985188493803,19.029057283720004,-0.2339028587511119,-0.07789204658287956,10.018056644610507,-17854.05434274,1000.77686502,9.3790579989E-4,671.408121848,416.759658974,0.0,0.0,-0.0,7.03273406608E-6,9.46196344663E-6,-3.01215719465E-4,0.29733672687,41.5241597248,176.304052029
9.4,2.09542327503E7,0.645955039308,0.0,0.0,0.206165984351,300.767509932,28586.425019,1.76625400455E-6,0.0,32.1108753782,-149.56473824829533,-35.00444243531805,18.35613179974254,-0.21280861215157876,-0.07269747958434489,9.779621126885766,-18046.050595919998,1000.90431458,9.3894463776E-4,672.332061694,416.866055109,0.0,0.0,-0.0,6.47446352947E-6,8.93579261609E-6,-2.97537870328E-4,0.300495911508,42.4690208346,178.199962846
9.5,2.09542025136E7,0.666790814306,0.0,0.0,0.210576082027,303.96745667,28556.1882708,1.82322851242E-6,0.0,32.1109681996,-148.44388309230578,-35.31027392028818,17.69069517134063,-0.19340739761440248,-0.06761875787274885,9.544144885351516,-18238.0474002,1001.03312737,9.399945872E-4,673.265884143,416.973589274,0.0,0.0,-0.0,5.95345461481E-6,8.40934103616E-6,-2.93791189392E-4,0.30365388746,43.4260119798,180.095879166
9.6,2.09541719568E7,0.688069892262,0.0,0.0,0.215032858179,307.167412691,28525.6315274,1.88141535336E-6,0.0,32.1110620037,-147.3418828938908,-35.598050823657765,17.03331376425809,-0.17558566552951774,-0.0626918629592752,9.311680720073928,-18430.044761459998,1001.16330337,9.41055648243E-4,674.209589223,417.082261472,0.0,0.0,-0.0,5.46792899712E-6,7.88757472436E-6,-2.89979843305E-4,0.306810642393,44.3951977902,181.991801048
9.7,2.09541410801E7,0.709796939738,0.0,0.0,0.219536313146,310.367378093,28494.7547879,1.94082729532E-6,0.0,32.1111567906,-146.25914362057722,-35.8684777057833,16.384520074067847,-0.15923508712641668,-0.05794508833178215,9.082278154946506,-18622.04268558,1001.29484261,9.42127820919E-4,675.163176964,417.192071706,0.0,0.0,-0.0,5.01611942939E-6,7.37469286604E-6,-2.86107980235E-4,0.309966163987,45.37664358,183.887728552
9.8,2.09541098834E7,0.731976623308,0.0,0.0,0.224086447272,313.567352973,28463.5580514,2.00147710646E-6,0.0,32.1112525603,-145.1960337627225,-36.12225676918538,15.744811326722552,-0.14425259028573034,-0.05339997517687218,8.855983453618302,-18814.04117838,1001.42774508,9.43211105263E-4,676.126647395,417.303019979,0.0,0.0,-0.0,4.59627924532E-6,6.8741938227E-6,-2.82179725378E-4,0.31312043994,46.3704153484,185.783661737
9.9,2.09540783666E7,0.754613609549,0.0,0.0,0.228683260906,316.767337429,28432.041317,2.06337755514E-6,0.0,32.1113493127,-144.15288318989107,-36.360085580067384,15.1146484284948,-0.13054035296453786,-0.04907217577303013,8.632839638000465,-19006.04024574,1001.56201078,9.44305501308E-4,677.100000544,417.415106295,0.0,0.0,-0.0,4.20669063596E-6,6.38893945424E-6,-2.78199176556E-4,0.316273457966,47.3765797791,187.679600661
10.0,2.09540465299E7,0.777712565046,0.0,0.0,0.233326754398,319.967331559,28400.2045836,2.12654140993E-6,0.0,32.1114470479,-143.12998239684157,-36.58265495329915,14.494455255681375,-0.11800575975413331,-0.04497224591887046,8.412886509866741,-19198.03989354,1001.69763972,9.45411009086E-4,678.083236442,417.528330657,0.0,0.0,-0.0,3.8456717756E-6,5.92121726931E-6,-2.74170399902E-4,0.319425205794,48.3952042405,189.575545383
10.1,2.09540143732E7,0.801278156392,0.0,0.0,0.238016928102,323.16733546,28368.0478504,2.19098143963E-6,0.0,32.111545766,-142.1275821253751,-36.79064700458957,13.8846182682005,-0.10656132671827644,-0.04110636836752565,8.196160675261474,-19390.0401276,1001.83463191,9.46527628632E-4,679.076355118,417.642693069,0.0,0.0,-0.0,3.51158287406E-6,5.47280000644E-6,-2.70097425646E-4,0.322575671173,49.426356786,191.471495962
10.2,2.09539818964E7,0.825315050186,0.0,0.0,0.242753782377,326.367349231,28335.5711162,2.25671041323E-6,0.0,32.1116454669,-141.14589332193603,-36.98473337294239,13.285486428289131,-0.09612459926346552,-0.03747700971496611,7.982695572288069,-19582.04095386,1001.97298735,9.47655359979E-4,680.079356604,417.758193535,0.0,0.0,-0.0,3.20283123345E-6,5.04500233055E-6,-2.65984244017E-4,0.325724841866,50.4701061535,193.367452456
10.3,2.09539490997E7,0.849827913036,0.0,0.0,0.247537317586,329.567372969,28302.7743802,2.32374109996E-6,0.0,32.1117461506,-140.1850874120589,-37.16557361465546,12.697371401725729,-0.08661802739914999,-0.034083513591226855,7.772521502163297,-19774.042378140002,1002.11270604,9.48794203162E-4,681.092240929,417.874832057,0.0,0.0,-0.0,2.91787538754E-6,4.63873440507E-6,-2.61834801263E-4,0.328872705654,51.5265217661,195.263414924
10.4,2.0953915983E7,0.874821411553,0.0,0.0,0.252367534091,332.767406771,28269.6576413,2.39208626924E-6,0.0,32.1118478172,-139.24529685728342,-37.333813767488536,12.120548016654874,-0.07796882238483596,-0.030922633306038123,7.565665662792621,-19966.04440626,1002.25378799,9.49944158216E-4,682.115008125,417.992608639,0.0,0.0,-0.0,2.65522840055E-6,4.25455216888E-6,-2.57652995801E-4,0.332019250337,52.5956737312,197.159383424
10.5,2.09538825462E7,0.900300212361,0.0,0.0,0.257244432263,335.967450737,28236.2208985,2.46175869075E-6,0.0,32.1119504667,-138.32661596417083,-37.49008508247851,11.555254954746239,-0.07010879837142713,-0.027989007326503296,7.36215218635623,-20158.04704422,1002.39623319,9.51105225177E-4,683.147658223,418.111523285,0.0,0.0,-0.0,2.4134604008E-6,3.89270420911E-6,-2.53442674499E-4,0.335164463729,53.6776328416,199.055358015
10.6,2.09538487895E7,0.926268982088,0.0,0.0,0.262168012475,339.167504963,28202.4641508,2.53277113435E-6,0.0,32.1120540991,-137.42910191390905,-37.63500291984967,11.001695646727633,-0.06297420230609826,-0.02527558111641616,7.162002179358794,-20350.05029778,1002.54004167,9.52277404078E-4,684.190191254,418.231575998,0.0,0.0,-0.0,2.19120042195E-6,3.55317517626E-6,-2.49207629101E-4,0.338308333665,54.7724705747,200.951338754
10.7,2.09538147127E7,0.952732387369,0.0,0.0,0.267138275102,342.367569547,28168.3873972,2.60513637016E-6,0.0,32.1121587144,-136.55277598042107,-37.769165803805286,10.46003934605061,-0.05650553501636877,-0.022773978957794965,6.96523376577317,-20542.05417282,1002.68521341,9.53460694957E-4,685.24260725,418.352766783,0.0,0.0,-0.0,1.98713762203E-6,3.23572573675E-6,-2.44951592791E-4,0.341450847995,55.8802590929,202.8473257
10.8,2.09537803159E7,0.979695094849,0.0,0.0,0.272155220523,345.567644587,28133.9906365,2.67886716851E-6,0.0,32.1122643126,-135.6976249111931,-37.89315462921024,9.930422352957509,-0.05064736607964684,-0.02047482940626538,6.771862133048932,-20734.05867522,1002.83174843,9.54655097849E-4,686.304906243,418.475095643,0.0,0.0,-0.0,1.80002194704E-6,2.93992909998E-6,-2.40678236914E-4,0.344591994588,57.0010712434,204.743318912
10.9,2.09537455992E7,1.00716177118,0.0,0.0,0.277218849122,348.767730182,28099.2738679,2.75397629996E-6,0.0,32.1123708938,-134.86360243644535,-38.0075320140914,9.412949363338678,-0.045348144768757606,-0.018368048017313638,6.581899581100252,-20926.063810919997,1002.97964673,9.55860612791E-4,687.377088267,418.598562581,0.0,0.0,-0.0,1.62866430234E-6,2.66520419313E-6,-2.36391167837E-4,0.347731761331,58.1349805587,206.639318446
11.0,2.09537105624E7,1.03513708302,0.0,0.0,0.282329161286,351.967826427,28064.2370902,2.8304765353E-6,0.0,32.112478458,-134.05063088143552,-38.112841788903076,8.907694917685465,-0.040560009092730366,-0.016443080923193056,6.395355573471032,-21118.06958562,1003.12890831,9.57077239819E-4,688.459153352,418.723167601,0.0,0.0,-0.0,1.47193629163E-6,2.41084558708E-6,-2.32093923977E-4,0.350870136131,59.2820612559,208.535324361
11.1,2.09536752056E7,1.06362569703,0.0,0.0,0.287486157405,355.167933423,28028.8803023,2.90838064557E-6,0.0,32.1125870051,-133.2586028601218,-38.20960861528083,8.414704926189259,-0.03623859468128287,-0.014689112747619528,6.212236791479415,-21310.07600538,1003.27953318,9.58304978971E-4,689.551101534,418.848910708,0.0,0.0,-0.0,1.3287695792E-6,2.17605030144E-6,-2.27789972971E-4,0.354007106909,60.4423882375,210.431336716
11.2,2.09536395288E7,1.09263227989,0.0,0.0,0.292689837873,358.368051265,27993.2035031,2.98770140202E-6,0.0,32.1126965353,-132.48738301981948,-38.29833772425716,7.933998248386141,-0.0323428450204548,-0.013095242225070676,6.032547190253062,-21502.083075900002,1003.43152134,9.59543830285E-4,690.652932844,418.975791905,0.0,0.0,-0.0,1.19815492729E-6,1.95994163637E-6,-2.23482709018E-4,0.357142661608,61.6160370909,212.327355567
11.3,2.0953603532E7,1.12216149829,0.0,0.0,0.297940203086,361.568180052,27957.2066916,3.06845157617E-6,0.0,32.1128070485,-131.73680982367256,-38.37951476608918,7.465568308153018,-0.028834824325565823,-0.011650628747232415,5.856288057514619,-21694.09080312,1003.5848728,9.60793793798E-4,691.764647317,419.103811196,0.0,0.0,-0.0,1.07914095669E-6,1.76159019382E-6,-2.19175450372E-4,0.360276788189,62.8030840884,214.223380973
11.4,2.09535672152E7,1.15221801891,0.0,0.0,0.303237253447,364.768319882,27920.8898667,3.15064393974E-6,0.0,32.1129185447,-131.0066973428658,-38.45360576149996,7.009384724803873,-0.025679534132555304,-0.010344612898536762,5.6834580736105,-21886.099192920003,1003.73958756,9.62054869548E-4,692.886244986,419.232968584,0.0,0.0,-0.0,9.70832674599E-7,1.58003226173E-6,-2.14871436997E-4,0.363409474632,64.0036061878,216.119412991
11.5,2.09535305783E7,1.18280650845,0.0,0.0,0.30858098936,367.968470853,27884.2530273,3.23429126473E-6,0.0,32.1130310241,-130.29683705227447,-38.52105714614003,6.565394945331933,-0.022844734505012614,-0.009166813866492735,5.514053374610741,-22078.108251179998,1003.89566563,9.63327057574E-4,694.017725886,419.363264075,0.0,0.0,-0.0,8.72389810218E-7,1.41428574155E-6,-2.10573828382E-4,0.366540708934,65.2176810318,218.015451679
11.6,2.09534936215E7,1.21393163362,0.0,0.0,0.313971411231,371.168633062,27847.2961722,3.31940632337E-6,0.0,32.1131444864,-129.60699960434164,-38.58229589864344,6.133525863416514,-0.020300770587935005,-0.008107206431916057,5.348067616125026,-22270.117983720003,1004.05310701,9.64610357914E-4,695.159090052,419.494697671,0.0,0.0,-0.0,7.83024994813E-7,1.26336380326E-6,-2.06285701522E-4,0.369670479113,66.4453869483,219.911497095
11.7,2.09534563446E7,1.24559806113,0.0,0.0,0.319408519475,374.368806607,27810.0193003,3.40600188813E-6,0.0,32.1132589319,-128.9369365748806,-38.6377297441424,5.713685412658213,-0.0180204050905674,-0.0071561800517640295,5.18549203938765,-22462.12839642,1004.21191171,9.65904770608E-4,696.310337517,419.627269376,0.0,0.0,-0.0,7.02001819462E-7,1.12628645295E-6,-2.02010049055E-4,0.372798773207,67.6868029506,221.807549296
11.8,2.09534187477E7,1.27781045771,0.0,0.0,0.324892314505,377.568991586,27772.4224105,3.49409073173E-6,0.0,32.1133743606,-128.28638216991607,-38.687747423843874,5.305764124439703,-0.015978657146949907,-0.006304582361357191,5.026315538643076,-22654.139495159998,1004.37207972,9.67210295696E-4,697.471468318,419.760979196,0.0,0.0,-0.0,6.2863280043E-7,1.00209019591E-6,-1.9774977756E-4,0.375925579272,68.9420087369,223.703608341
11.9,2.09533808308E7,1.31057349008,0.0,0.0,0.330422796741,380.769188097,27734.5055016,3.58368562715E-6,0.0,32.1134907723,-127.6550548792405,-38.7327190241366,4.909636640958292,-0.014152647886374143,-0.005543749228525239,4.870524729929527,-22846.15128582,1004.53361107,9.68526933217E-4,698.64248249,419.895827133,0.0,0.0,-0.0,5.62277278889E-7,8.89835974753E-7,-1.93507706021E-4,0.379050885382,70.211084691,225.599674286
12.0,2.09533425939E7,1.343891825,0.0,0.0,0.335999966605,383.969396238,27696.2685725,3.67479934762E-6,0.0,32.1136081672,-127.04265907783102,-38.77299635600368,4.5251631770933685,-0.012521452941842747,-0.004865523309996863,4.718104021060046,-23038.16377428,1004.69650574,9.69854683212E-4,699.823380068,420.031813193,0.0,0.0,-0.0,5.02339278765E-7,7.88615556089E-7,-1.89286564443E-4,0.382174679635,71.4941118818,227.495747189
12.1,2.09533040369E7,1.3777701292,0.0,0.0,0.341623824522,387.169616105,27657.711622,3.76744466662E-6,0.0,32.1137265453,-126.44888656137641,-38.80891337843843,4.152190925138481,-0.01106596203438582,-0.004262262875551392,4.5690356827437455,-23230.176966299998,1004.86076375,9.7119354572E-4,701.014161089,420.168937378,0.0,0.0,-0.0,4.48265343675E-7,6.97556532427E-7,-1.85088992632E-4,0.385296950145,72.7911720637,229.391827107
12.2,2.095326516E7,1.41221306944,0.0,0.0,0.347294370923,390.369847798,27618.8346489,3.8616343579E-6,0.0,32.1138459067,-125.87341801763266,-38.840786658815965,3.790555398347262,-0.009768745693509351,-0.0037268424936716675,4.423299920618066,-23422.190867880003,1005.0263851,9.72543520784E-4,702.214825589,420.307199694,0.0,0.0,-0.0,3.99542371335E-7,6.15826097585E-7,-1.80917539127E-4,0.388417685048,74.1023476763,231.287914099
12.3,2.0953225963E7,1.44722531248,0.0,0.0,0.353011606241,393.570091414,27579.637652,3.95738119545E-6,0.0,32.1139662512,-125.31592442615886,-38.868915864089885,3.440081710176299,-0.008613929105353265,-0.003252647004010844,4.280874948129008,-23614.20548484,1005.1933698,9.73904608443E-4,703.425373605,420.446600145,0.0,0.0,-0.0,3.55695461406E-7,5.42633745001E-7,-1.76774660296E-4,0.3915368725,75.4277218448,233.184008221
12.4,2.09531864459E7,1.48281152511,0.0,0.0,0.358775530911,396.770347051,27540.1206302,4.05469795353E-6,0.0,32.1140875789,-124.77606838700636,-38.89358427674082,3.1005857873456453,-0.007587073024788789,-0.0028335600452475324,4.141737060104633,-23806.22082306,1005.36171785,9.75276808741E-4,704.645805173,420.587138734,0.0,0.0,-0.0,3.16285790542E-7,4.77233028554E-7,-1.72662719573E-4,0.394654500676,76.7673783796,235.080109532
12.5,2.09531466089E7,1.51897637411,0.0,0.0,0.364586145376,399.970614807,27500.2835822,4.15359740668E-6,0.0,32.11420989,-124.25350537778816,-38.915059330262736,2.7718755155653385,-0.006675061638124147,-0.002463948258587826,4.005860706890089,-23998.23688842,1005.53142926,9.76660121718E-4,705.876120332,420.728815467,0.0,0.0,-0.0,2.8090852634E-7,4.18922515559E-7,-1.68583986858E-4,0.397770557773,78.1214017768,236.976218088
12.6,2.09531064518E7,1.55572452626,0.0,0.0,0.370443450077,403.170894778,27460.1265068,4.25409232968E-6,0.0,32.1143331843,-123.74788493626382,-38.93359315977541,2.4537518177560234,-0.005865997222980454,-0.0021386421490899093,3.8732185689409677,-24190.25368668,1005.70250402,9.78054547417E-4,707.116319117,420.871630346,0.0,0.0,-0.0,2.49190790068E-7,3.67046051331E-7,-1.64540638061E-4,0.400885032009,79.4898772178,238.872333947
12.7,2.09530659747E7,1.59306064837,0.0,0.0,0.376347445463,406.371187064,27419.6494028,4.35619549759E-6,0.0,32.1144574619,-123.25885177130456,-38.94942316214797,2.146009665227789,-0.005149101420610514,-0.0018529144593720823,3.743781631708904,-24382.27122384,1005.87494216,9.7946008588E-4,708.366401569,421.015583378,0.0,0.0,-0.0,2.2078967634E-7,3.20992444566E-7,-1.6053475479E-4,0.40399791162,80.8728905698,240.768457166
12.8,2.09530251776E7,1.63098940724,0.0,0.0,0.382298131984,409.571491763,27378.852269,4.45991968575E-6,0.0,32.1145827228,-122.78604680395763,-38.96277256328437,1.8484390226823784,-0.004514622907577486,-0.001602456792699804,3.6175192607677906,-24574.289505779998,1006.04874366,9.80876737151E-4,709.626367723,421.160674566,0.0,0.0,-0.0,1.95390336386E-7,2.80194672641E-7,-1.5656832419E-4,0.407109184866,82.2705283854,242.664587803
12.9,2.09529840604E7,1.6695154697,0.0,0.0,0.388295510096,412.771808971,27337.735104,4.56527766975E-6,0.0,32.1147089671,-122.32910813631793,-38.97385098764349,1.560825728740457,-0.003953751234923154,-0.0013833551152011376,3.494399277020226,-24766.30853826,1006.22390854,9.82304501272E-4,710.89621762,421.306903914,0.0,0.0,-0.0,1.72704130186E-7,2.44128696158E-7,-1.52643238918E-4,0.410218840027,83.6828779026,244.560725916
13.0,2.09529426232E7,1.70864350257,0.0,0.0,0.394339580256,415.972138786,27296.2979068,4.67228222548E-6,0.0,32.1148361948,-121.88767195393658,-38.98285502741537,1.2829523136898973,-0.0034585365864543125,-0.0011920646697920411,3.3743880318409243,-24958.32832716,1006.40043681,9.83743378288E-4,712.175951298,421.454271428,0.0,0.0,-0.0,1.52466851514E-7,2.12311962579E-7,-1.48761297258E-4,0.413326865403,85.1100270456,246.456871561
13.1,2.0952900866E7,1.7483781727,0.0,0.0,0.400430342925,419.172481308,27254.5406759,4.78094612908E-6,0.0,32.1149644058,-121.46137336577691,-38.98996880866082,1.014598756678152,-0.0030218151971302416,-0.0010253847466674118,3.257450482128459,-25150.34887848,1006.57832846,9.85193368242E-4,713.465568795,421.602777111,0.0,0.0,-0.0,1.34437028844E-7,1.84301669754E-7,-1.44924203369E-4,0.416433249317,86.5520644237,248.353024797
13.2,2.09528587887E7,1.78872414691,0.0,0.0,0.40656779857,422.372836632,27212.4634101,4.891282157E-6,0.0,32.1150936002,-121.0498471748429,-38.99536455160687,0.7555431848124377,-0.0026371401652462195,-8.804336768789713E-4,3.143550265093444,-25342.370197919998,1006.75758351,9.86654471179E-4,714.765070152,421.752420969,0.0,0.0,-0.0,1.18394304079E-7,1.59692851598E-7,-1.41133567666E-4,0.419537980112,88.0090793322,250.24918568
13.3,2.09528163914E7,1.82968609208,0.0,0.0,0.412751947659,425.573204858,27170.0661081,5.00330308594E-6,0.0,32.1152237781,-120.65272859609505,-38.99920312314994,0.505562516643478,-0.002298717388206171,-7.546243458608959E-4,3.0326497726857506,-25534.39229148,1006.93820195,9.88126687142E-4,716.074455408,421.903203005,0.0,0.0,-0.0,1.04137890246E-7,1.38116340203E-7,-1.37390907328E-4,0.422641046155,89.4811617521,252.145354269
13.4,2.09527736741E7,1.87126867507,0.0,0.0,0.418982790664,428.773586083,27127.3487687,5.1170216929E-6,0.0,32.1153549394,-120.26965391076847,-39.00163457996254,0.26443305274289663,-0.002001346350657698,-6.456404624117547E-4,2.924710225614926,-25726.41516498,1007.1201838,9.89610016178E-4,717.393724603,422.055123224,0.0,0.0,-0.0,9.14851085019E-8,1.19236651175E-7,-1.33697646931E-4,0.425742435833,90.9684023503,254.04153062
13.5,2.09527306367E7,1.91347656275,0.0,0.0,0.425260328062,431.973980405,27084.3113905,5.23245075516E-6,0.0,32.1154870843,-119.90026107198898,-39.002798699968935,0.03193101617814459,-0.001740365495258143,-5.514137647718426E-4,2.8196917467518148,-25918.4388243,1007.30352906,9.91104458331E-4,718.722877777,422.208181631,0.0,0.0,-0.0,8.02700041999E-8,1.02749832166E-7,-1.30055119197E-4,0.428842137554,92.4708924793,255.937714791
13.6,2.09526872793E7,1.956314422,0.0,0.0,0.431584560331,435.174387922,27040.9539721,5.3496030503E-6,0.0,32.1156202126,-119.54419025252096,-39.00282550178868,-0.1921669544364044,-0.0015116019096348594,-4.701022990431646E-4,2.717553433968684,-26110.46327532,1007.48823774,9.92610013648E-4,720.061914972,422.362378231,0.0,0.0,-0.0,7.03420411595E-8,8.83813082848E-8,-1.26464565867E-4,0.431940139749,93.9887241777,257.833906839
13.7,2.09526436018E7,1.99978691972,0.0,0.0,0.437955487955,438.374808731,26997.2765124,5.46849135617E-6,0.0,32.1157543244,-119.20108435011609,-39.001835749856184,-0.40808335648710636,-0.0013113250684485447,-4.000698647800268E-4,2.6182534321829385,-26302.48852386,1007.67430984,9.94126682173E-4,721.410836226,422.517713029,0.0,0.0,-0.0,6.15648728368E-8,7.58837523513E-8,-1.22927138673E-4,0.435036430873,95.5219901696,259.730106823
13.8,2.09525996043E7,2.04389872281,0.0,0.0,0.444373111421,441.57524293,26953.27901,5.58912845093E-6,0.0,32.1158894197,-118.8705894418688,-38.99994144607584,-0.6160394168033736,-0.0011362043758627116,-3.398666887037741E-4,2.5217490045986897,-26494.5145758,1007.86174536,9.95654463954E-4,722.769641583,422.674186028,0.0,0.0,-0.0,5.3815188676E-8,6.50350028723E-8,-1.1944390043E-4,0.438130999401,97.0707838655,261.626314799
13.9,2.09525552868E7,2.08865449819,0.0,0.0,0.450837431218,444.775690618,26908.9614634,5.71152711302E-6,0.0,32.1160254987,-118.55235520075668,-38.99724630514778,-0.8162547243278437,-9.832702615031343E-4,-2.8821135854194204E-4,2.427996603065975,-26686.54143708,1008.05054432,9.97193359037E-4,724.138331084,422.831797234,0.0,0.0,-0.0,4.69816335913E-8,5.56360479895E-8,-1.16015826226E-4,0.441223833831,98.6351993616,263.522530825
14.0,2.09525106492E7,2.13405891278,0.0,0.0,0.45734844784,447.976151891,26864.3238714,5.83570012117E-6,0.0,32.1161625612,-118.24603526405228,-38.99384621476758,-1.0089468994032487,-8.498785915396369E-4,-2.4397402512724953E-4,2.33695193742011,-26878.56911346,1008.24070671,9.98743367469E-4,725.51690477,422.990546652,0.0,0.0,-0.0,4.09637982569E-8,4.75090896242E-8,-1.12643804705E-4,0.444314922683,100.21533144,265.418754959
