time,eiPosition_ft_X,eiPosition_ft_Y,eiPosition_ft_Z,gePosition_ft_X,gePosition_ft_Y,gePosition_ft_Z,eiVelocity_ft_s_X,eiVelocity_ft_s_Y,eiVelocity_ft_s_Z,feVelocity_ft_s_X,feVelocity_ft_s_Y,feVelocity_ft_s_Z,altitudeMsl_ft,longitude_deg,latitude_deg,localGravity_ft_s2,eulerAngle_deg_Yaw,eulerAngle_deg_Pitch,eulerAngle_deg_Roll,bodyAngularRateWrtEi_deg_s_Roll,bodyAngularRateWrtEi_deg_s_Pitch,bodyAngularRateWrtEi_deg_s_Yaw,altitudeRateWrtMsl_ft_min,speedOfSound_ft_s,airDensity_slug_ft3,ambientPressure_lbf_ft2,ambientTemperature_dgR,aero_bodyForce_lbf_X,aero_bodyForce_lbf_Y,aero_bodyForce_lbf_Z,aero_bodyMoment_ftlbf_L,aero_bodyMoment_ftlbf_M,aero_bodyMoment_ftlbf_N,mach,dynamicPressure_lbf_ft2,trueAirspeed_nmi_h
0.0,2.0955646325460006E7,0.0,0.0,2.0955646325460006E7,0.0,0.0,0.0,1528.1098290458178,0.0,0.0,0.0,0.0,30000.000000003725,0.0,0.0,32.10653595184196,0.0,1.2722218725854067E-14,0.0,10.00000000111787,19.999999999971262,29.999999999956895,-0.0,994.8490287717559,8.907042526446323E-4,629.6799295020096,411.8388729485991,0.0,0.0,-0.0,0.0,0.0,0.0,0.0,0.0,0.0
0.10000000000000007,2.0955646164930005E7,152.81098251439366,0.0,2.0955646165487163E7,7.777068645464791E-7,0.0,-3.210653611521433,1528.1098173397852,0.0,9.730714498057402E-18,2.333119787949762E-5,3.1995104595980774,29999.840027160943,2.1263634957843716E-12,0.0,32.106536442829196,3.0078533156925906,1.9951491895516207,1.0242983071723601,9.445054001842081,20.42366195954821,29.789483563570286,-191.97062757588463,994.8497158374269,8.907094884926739E-4,629.6845007129103,411.83944179963294,0.0,0.0,0.0,-2.898555419991299E-6,-2.5083040357017116E-5,-9.145969250427283E-6,0.003216074155100172,0.004559037364501489,1.895635167701156
0.20000000000000015,2.0955645683331955E7,305.62196268754184,0.0,2.0955645685560584E7,6.221652278870504E-6,0.0,-6.421307321071237,1528.1097822211004,0.0,-9.424427384330247E-17,9.332479459988402E-5,6.399021016884858,29999.360100582242,1.701090114454732E-11,0.0,32.10653791581568,6.03553003323909,3.975064360990137,2.0979499315303816,8.87776493445666,20.793728864809538,29.580836990314413,-383.9412610130915,994.851777066231,8.907251964420477E-4,629.698214737304,411.8411483814131,0.0,0.0,0.0,-5.4488822862819865E-6,-5.10764781669896E-5,-1.81640460604265E-5,0.006432135082169223,0.018236471618100963,3.7912703935829843
0.3000000000000002,2.0955644880668536E7,458.43293817819824,0.0,2.095564488568295E7,2.0998079841683115E-5,0.0,-9.631961226677792,1528.1097236899543,0.0,7.405100838075995E-17,2.0998079417751674E-4,9.59853176954905,29998.560222949833,5.7411802851705224E-11,0.0,32.10654037079338,9.088718475445427,5.932019790259688,3.2202413064337816,8.29799273762622,21.11144651010559,29.37434787490359,-575.911906172943,994.8552124382968,8.907513768302549E-4,629.7210719835098,411.84399268455877,0.0,0.0,0.0,-7.639569092120704E-6,-7.778837642639097E-5,-2.705652547231126E-5,0.009648169553448693,0.04103326926295227,5.68690573582616
0.4000000000000003,2.0955643756939705E7,611.2439066451167,0.0,2.095564376585423E7,4.9773226901250744E-5,0.0,-12.842615426369525,1528.1096417463398,0.0,-1.1373280789372942E-16,3.7329920633763063E-4,12.798042815279407,29997.44039422646,1.3608724532889246E-10,0.0,32.10654380776276,12.172822698099854,7.858167938890108,4.390703795105774,7.708312987123988,21.37614177179596,29.171219458393782,-767.8825689167644,994.8600219398647,8.907880303673495E-4,629.7530732608918,411.84797470946387,0.0,0.0,0.0,-9.462340950136209E-6,-1.05023521099966E-4,-3.58271735340775E-5,0.012864164341723515,0.07295104120897146,7.582541252611391
0.5000000000000003,2.0955642312145434E7,764.0548657470504,0.0,2.0955642326074377E7,9.721332813855676E-5,0.0,-16.053270018174892,1528.109536390247,0.0,-3.456436525883788E-16,5.832800440136187E-4,15.997554251764678,29996.000614374876,2.6579540383876566E-10,0.0,32.10654822672439,15.292884559872844,9.745559113033753,5.60903293166279,7.1112816560730225,21.587449065897836,28.972511160371674,-959.8532551058806,994.866205551608,8.908351580469462E-4,629.7942197021822,411.8530944566269,0.0,0.0,0.0,-1.0912028811947074E-5,-1.3258528678844E-4,-4.44810071301712E-5,0.016080106220594623,0.11399204288330254,9.478177002119383
0.6000000000000004,2.095564054628568E7,916.8658131427502,0.0,2.095564056634336E7,1.6798462729961106E-4,0.0,-19.263925100122435,1528.1094076216634,0.0,1.0364972768961422E-16,8.399233231200673E-4,19.197066176693756,29994.240883357823,4.592944862207712E-10,0.0,32.10655362767901,18.453494749006836,11.586168043466545,6.87499106113339,6.50942045676773,21.745300775198746,28.779129122727547,-1151.8239706016254,994.8737632486326,8.90892761146259E-4,629.8445127635375,411.8593519266508,0.0,0.0,0.0,-1.1986512227567672E-5,-1.6027743194553724E-4,-5.3024056521975156E-5,0.019295981964751727,0.16415917438353178,11.373813042530916
0.7000000000000005,2.095563845936039E7,1069.6767464909656,0.0,2.0955638486661118E7,2.6675336592052457E-4,0.0,-22.474580770240756,1528.1092554405725,0.0,3.426078865054194E-17,0.0011432290623224323,22.396578687755547,29992.161201115698,7.293427040117895E-10,0.0,32.106560010627526,21.65869188092044,13.371928934929219,8.188293566646925,5.905203737094164,21.84991614419898,28.5918197035257,-1343.7947212653328,994.8826950005741,8.909608412268694E-4,629.9039542252411,411.8667471203227,0.0,0.0,0.0,-1.268663896869921E-5,-1.879058108878513E-4,-6.146311687859868E-5,0.022511778350243608,0.22345598067483743,13.269449432026798
0.8000000000000006,2.0955636051369503E7,1222.487663450447,0.0,2.09556360870276E7,3.9818578736239285E-4,0.0,-25.68523712655859,1528.1090798469563,0.0,-8.049116928532385E-16,0.0014931972855439055,25.596091882639143,29989.761567596346,1.0886982854260279E-9,0.0,32.10656737557101,24.911849953182802,15.094780162285902,9.548480095270902,5.301046840561633,21.901788963641394,28.41116587798169,-1535.7655129583486,994.8930007714707,8.910394001337979E-4,629.9725461909309,411.8752800385079,0.0,0.0,0.0,-1.3016124609751598E-5,-2.1527999297389058E-4,-6.980549497238585E-5,0.02572748215475251,0.29188665183068596,15.165086228787914
0.9000000000000007,2.095563332231294E7,1375.2985616799401,0.0,2.095563336744272E7,5.669481411135768E-4,0.0,-28.895894267104765,1528.1088808407933,0.0,-1.1813466871402056E-15,0.0018898280196879922,28.79560585903374,29987.041982717812,1.5501194890660312E-9,0.0,32.106575722510705,28.215555750053994,16.74671969510496,10.954773292980233,4.699295807523331,21.90167432373818,28.237586449819595,-1727.7363515420243,994.9046805199227,8.911284399967882E-4,630.0502910887633,411.8849506822821,0.0,0.0,0.0,-1.2981434844487336E-5,-2.4221478198872438E-4,-7.805875696183617E-5,0.02894308015786242,0.3694560233178229,17.060723490995226
1.0000000000000007,2.095563027219062E7,1528.1094388381875,0.0,2.0955630327906396E7,7.777066645978659E-4,0.0,-32.10655228990824,1528.1086584220584,0.0,1.0729264698916552E-15,0.0023331212939531275,31.99512071462842,29984.002446394414,2.1263645561314766E-9,0.0,32.10658505144802,31.571479405577758,18.31987209702664,12.405928991723664,4.102218274760343,21.850574668974613,28.071337930307028,-1919.7072428777053,994.9177341989825,8.912279632295149E-4,630.1371916707748,411.89575905283886,0.0,0.0,0.0,-1.2591652947879493E-5,-2.6853163091071887E-4,-8.623048280953003E-5,0.03215855914133283,0.45616957632466726,18.956361276829696
1.0999999999999897,2.095562690100245E7,1680.9202925839325,0.0,2.0955626968418546E7,0.0010351275965331252,0.0,-35.3172112929981,1528.108412590725,0.0,-1.2706849461530112E-15,0.0028230771425669754,35.19463654711281,29980.642958544195,2.8301917488916155E-9,0.0,32.10659536238448,34.9802432137777,19.806567530544104,13.900083509660563,3.511995420781661,21.749725340299225,27.912518903906086,-2111.6781928267683,994.9321617561236,8.913379725294211E-4,630.2332510127972,411.907705151463,0.0,0.0,0.0,-1.1858334404698924E-5,-2.940599488560141E-4,-9.432803240902987E-5,0.03537390588937219,0.552033438133517,20.851999644472475
1.1999999999999786,2.0955623208748326E7,1833.7311205759115,0.0,2.0955623288979053E7,0.0013438771792909643,0.0,-38.52787137440364,1528.1081433467627,0.0,-4.627374872168133E-15,0.003359695603420781,38.39415345417641,29976.96351905167,3.67435935908492E-9,0.0,32.106606655321904,38.44129579583692,21.19943256918186,15.434605608016254,2.9307148040856905,21.60057974500472,27.76107666832037,-2303.649207250585,994.9479631334008,8.914584708790168E-4,630.3384725156578,411.92078897966326,0.0,0.0,0.0,-1.0795350347284032E-5,-3.1863829811600323E-4,-1.0235832794275003E-4,0.0385891071889038,0.657054382537497,22.74763865210475
1.2999999999999676,2.0955619195428133E7,1986.5419204728626,0.0,2.0955619289587814E7,0.0017086216587385294,0.0,-41.73853263215431,1528.1078506901374,0.0,1.448494102440634E-15,0.003942976715575651,41.59367153350902,29972.964127812535,4.6716257094344906E-9,0.0,32.106618930262144,41.95280068694411,22.49149176448941,17.005962483501005,2.360363950046877,21.40479425269298,27.616815912196518,-2495.620292010541,994.96513826726,8.915894615445173E-4,630.4528599040617,411.9350105390132,0.0,0.0,0.0,-9.41872109992516E-6,-3.421154798745216E-4,-1.103276563818835E-4,0.04180414982984373,0.7712398302999874,24.64327835790784
1.3999999999999566,2.0955614861041754E7,2139.3526899335175,0.0,2.0955614970244706E7,0.0021340272803609395,0.0,-44.94919516427976,1528.107534620817,0.0,2.203098814490545E-16,0.004572920527415122,44.79319088280062,29968.64478470385,5.834749144994207E-9,0.0,32.10663218720724,45.51154998718634,23.676277853628445,18.60961066009395,1.8028245576102349,21.16421287900242,27.479409175213185,-2687.591452968037,994.9836870886676,8.917309480769161E-4,630.5764172276076,411.9503698312571,0.0,0.0,0.0,-7.746440836513117E-6,-3.64351507492634E-4,-1.1824149538889911E-4,0.04501902060536761,0.8945978496593335,26.538918820063177
1.4999999999999456,2.0955610205589052E7,2292.1634266166006,0.0,2.095561033094959E7,0.0026247602862217168,0.0,-48.15985906880985,1528.1071951387596,0.0,4.1321113197767545E-15,0.00524952708396815,47.99271159974139,29964.005489587784,7.176488026786076E-9,0.0,32.10664642615948,49.11291455725736,24.74794728727509,20.23992340262062,1.259867218026977,20.880851788446233,27.34840882213443,-2879.5626959844835,995.0036095230959,8.918829343119788E-4,630.709148860869,411.9668668582969,0.0,0.0,0.0,-5.798294135646654E-6,-3.85218466255247E-4,-1.2610436520479705E-4,0.0482337063121818,1.0271371568770293,28.434560096752303
1.5999999999999346,2.0955605229069885E7,2444.9741281808424,0.0,2.095560537170233E7,0.003185486929790704,0.0,-51.370524443774734,1528.106832243925,0.0,1.5959455978986625E-15,0.005972796437999603,51.192233782021795,29959.046242326498,8.709600774289973E-9,0.0,32.10666164712122,52.75084193748143,25.70139652076985,21.890165912085628,0.7331465628039097,20.556883624529014,27.223260254047016,-3071.5340269213075,995.0249054904599,8.92045424369873E-4,630.8510595031638,411.9845016221391,0.0,0.0,0.0,-3.5956650726282215E-6,-4.046012582879069E-4,-1.3391970841355932E-4,0.051448193750797344,1.168867116829355,30.330202246156972
1.6999999999999236,2.0955599931484107E7,2597.7847922849605,0.0,2.0955600092502784E7,0.00382087345569615,0.0,-54.581191387204754,1528.106445936269,0.0,2.7096380694757727E-15,0.006742728644573522,54.39175752733255,29953.767042782158,1.0446845812030827E-8,0.0,32.106677850095,56.41791140071812,26.532373406363597,23.552527750553697,0.22419678522468414,20.194621659650224,27.103316075975442,-3263.505451639953,995.0475749051202,8.922184226553029E-4,631.0021541787705,412.0032741248947,0.0,0.0,0.0,-1.1613394238721964E-6,-4.223982310646516E-4,-1.4168979878545734E-4,0.054662469725801126,1.3197977436433028,32.225845326459016
1.7999999999999126,2.0955594312831555E7,2750.5954165876706,0.0,2.0955594493350774E7,0.004535586113737056,0.0,-57.791859997130416,1528.1060362157439,0.0,4.817327092787593E-15,0.007559323762200408,57.59128293336442,29948.167890772223,1.2400981609838518E-8,0.0,32.1066950350836,60.10545216248643,27.237577246041663,25.21821852622318,-0.26557249235358615,19.796503749171602,26.98785094001359,-3455.4769760018653,995.0716176760759,8.924019338591105E-4,631.1624382384343,412.0231843689383,0.0,0.0,0.0,1.4806994254975158E-6,-4.385216876320823E-4,-1.4941567972036714E-4,0.05787652104611583,1.4799397013789508,34.12148939584036
1.8999999999999015,2.0955588373112053E7,2903.4059987476817,0.0,2.0955588574246142E7,0.005334291153401338,0.0,-61.0025303715827,1528.1056030822995,0.0,-2.7373936450914016E-15,0.008422581853278583,60.79081009780869,29942.248786140233,1.4584766669807722E-8,0.0,32.10671320208987,63.803725887024726,27.814740808750766,26.877627967405278,-0.7348800061966911,19.365076073094485,26.876076786783035,-3647.448605868521,995.0970337066627,8.925959629561051E-4,631.3319173575845,412.04423235665644,0.0,0.0,0.0,4.305480192092382E-6,-4.528982764526079E-4,-1.5709713215134708E-4,0.06109033452528678,1.6493043047506022,36.01713451248321
1.9999999999998905,2.095558211232542E7,3056.216536423699,0.0,2.0955582335188694E7,0.006221654826201739,0.0,-64.21320260859277,1528.1051465358835,0.0,-1.3114509478384662E-15,0.009332502984304599,63.9903391183568,29936.009728692472,1.7010959534632733E-8,0.0,32.1067323511169,67.5021687026308,28.262688036450477,28.52054558233147,-1.182576269764805,18.902976654445762,26.767158215267084,-3839.420347101408,995.123822894827,8.928005152072938E-4,631.5105975384037,412.0664180906726,0.0,0.0,0.0,7.287258193731501E-6,-4.654692587072822E-4,-1.6473267114189177E-4,0.06430389698173662,1.8279035198984415,37.91278073456989
2.0999999999998797,2.0955575530471463E7,3209.0270272744247,0.0,2.0955575776178256E7,0.00720234338822201,0.0,-67.42387680619217,1528.104666576439,0.0,-6.647460359943125E-15,0.010289087223875896,67.18987009270079,29929.45071825385,1.969231879651715E-8,0.0,32.10675248216788,71.1896817440935,28.5813623256198,30.13642890889549,-1.6076465774334423,18.41291865483863,26.660227721786733,-4031.3922055620474,995.1519851328876,8.930155961582234E-4,631.6984851085048,412.08974157364855,0.0,0.0,0.0,1.0399733610226347E-5,-4.761906510313239E-4,-1.7231956981977214E-4,0.06751719523904971,2.0157499651980584,39.80842812028301
2.1999999999998687,2.0955568627549987E7,3361.8374689585517,0.0,2.095556889721461E7,0.008281023091104567,0.0,-70.63455306241259,1528.1041632039075,0.0,-4.7982451345518484E-15,0.011292334644687131,70.38940311853241,29922.571754608303,2.2641603074480902E-8,0.0,32.10677359524623,74.85495373932176,28.771822117787348,31.71470386782329,-2.0092135302278975,17.897673463691824,26.55440056301715,-4223.364187111945,995.1815203077948,8.932412116410995E-4,631.8955867229196,412.1142028084965,0.0,0.0,0.0,1.3616272246692753E-5,-4.8503324205500603E-4,-1.7985390875625403E-4,0.07073021612622502,2.2128569121212394,41.70407672780514
2.2999999999998577,2.095556140356079E7,3514.6478591347686,0.0,2.0955561698297575E7,0.009462360190414021,0.0,-73.84523147528627,1528.1036364182287,0.0,-4.5102810375396984E-17,0.012342245323797348,73.58893829354443,29915.37283757329,2.5871571039175427E-8,0.0,32.106795690355426,78.48679530809092,28.836202876685633,33.245076899281415,-2.386539007902584,17.360053617039544,26.44878901541535,-4415.3362976126655,995.2124283008119,8.934773677725375E-4,632.1019093622724,412.139801798114,0.0,0.0,0.0,1.691012729461506E-5,-4.919824817814861E-4,-1.873306484209E-4,0.07394294647796779,2.4192382861318413,43.599726615319284
2.3999999999998467,2.0955553858503625E7,3667.4581954617543,0.0,2.095555417942689E7,0.01075102094504099,0.0,-77.05591214284577,1528.103086219338,0.0,6.1096960823903146E-15,0.013438819343264564,76.78847571542956,29907.85396688804,2.9394981413201882E-8,0.0,32.106818767499306,82.07446315845137,28.77764707723899,34.71783710014263,-2.7390255044699683,16.80289560343199,26.34251582412567,-4607.3085429257735,995.2447089879978,8.93724070957413E-4,632.3174603362941,412.1665385457812,0.0,0.0,0.0,2.0254660343399498E-5,-4.970382437893118E-4,-1.9474372194014473E-4,0.07715537313492377,2.634908667640526,45.49537784100857
2.4999999999998357,2.0955545992378283E7,3820.2684755981904,0.0,2.0955546340602357E7,0.012151671615754589,0.0,-80.26659516312398,1528.1025126071668,0.0,1.2458784004465429E-14,0.014582056783843899,79.98801548188112,29900.015142355114,3.322459296910141E-8,0.0,32.10684282668166,85.60795353578482,28.6002062386433,36.124127770342874,-3.066216742533797,16.22904263675916,26.234726658147306,-4799.280928912867,995.2783622396022,8.939813278844293E-4,632.5422472801027,412.19441305465784,0.0,0.0,0.0,2.3623559672924552E-5,-5.002144614456378E-4,-2.0208614505604926E-4,0.0803674829439926,2.859883292982731,47.391030463056396
2.5999999999998247,2.0955537805184513E7,3973.0786972027427,0.0,2.095553818182372E7,0.013668978463712955,0.0,-83.47728063415428,1528.1019155816455,0.0,-1.9741153156616065E-15,0.015771957734223675,83.18755769059268,29891.856363717467,3.737316452723096E-8,0.0,32.10686786790658,89.07824787736608,28.308720976925315,37.45617039701459,-3.367797485425862,15.641327497594768,26.124601414988206,-4991.253461435561,995.3133879205952,8.942491455303537E-4,632.7762781580693,412.2234253282202,0.0,0.0,0.0,2.6991053673198444E-5,-5.015386407780888E-4,-2.093501399467325E-4,0.08357926275855689,3.094178055464136,49.28668453964633
2.6999999999998137,2.095552929692207E7,4125.888857934073,0.0,2.095552970309073E7,0.015307607751079644,0.0,-86.68796865397029,1528.1012951427017,0.0,6.175615574477433E-16,0.017008522285449898,86.38710243925827,29883.37763072923,4.1853454959396775E-8,0.0,32.10689389117829,92.47749898130873,27.90868629574242,38.70742948260706,-3.6435924748629893,15.042555564589469,26.011364246773628,-5183.226146355496,995.3497858903673,8.945275311579218E-4,633.0195612621536,412.2535753700092,0.0,0.0,0.0,3.033211710268728E-5,-5.010512542661356E-4,-2.1652726941266527E-4,0.08679069943877342,3.337809506433185,51.18234012896221
2.7999999999998026,2.0955520467590697E7,4278.698955450835,0.0,2.095552090440315E7,0.017072225741414204,0.0,-89.89865932060627,1528.1006512902597,0.0,-8.052586375484339E-15,0.018291750531531037,89.58664982557248,29874.578943148255,4.667822319187043E-8,0.0,32.10692089650108,95.79915217404978,27.40610977217452,39.87271281781307,-3.893564435093886,14.43548817441392,25.894292210290246,-5375.198989534349,995.3875560027633,8.948164923163063E-4,633.2721052124913,412.2848631836573,0.0,0.0,0.0,3.362266782539596E-5,-4.988050215817798E-4,-2.2360857788059893E-4,0.09000177985183973,3.5907948564048238,53.07799728918821
2.8999999999997916,2.0955511317190118E7,4431.508987411677,0.0,2.0955511785760686E7,0.018967498705550145,0.0,-93.10935273209674,1528.0999840242403,0.0,-1.2732870313669764E-15,0.01962164257078023,92.78619994723007,29865.460300683975,5.186022822340848E-8,0.0,32.10694888387961,99.03800197945,26.807369959636816,40.94820783509126,-4.11781110157204,13.822826461801695,25.772722475082208,-5567.171996833805,995.4266981063097,8.95116036843073E-4,633.5339189592848,412.31728877307364,0.0,0.0,0.0,3.6839751664436786E-5,-4.948640851153478E-4,-2.3058473571066677E-4,0.09321249087224116,3.8531519762355186,54.97365607850864
2.9999999999997806,2.0955501845720056E7,4584.31895147523,0.0,2.095550234716307E7,0.020998092903480536,0.0,-96.32004898647673,1528.0992933445616,0.0,-1.7659484985443896E-15,0.02099819850408023,95.98575290192615,29856.021703068167,5.7412229077672956E-8,0.0,32.10697785331851,102.19018984547657,26.119081371855096,41.931459749174486,-4.316561252205222,13.207195839628803,25.646058055739953,-5759.145174115569,995.467212043914,8.954261728621015E-4,633.8050117811781,412.3508521421926,0.0,0.0,0.0,3.9961713081098115E-5,-4.893030899121188E-4,-2.3744618341688074E-4,0.09642281938204493,4.124899398327474,56.86931655510803
3.0999999999997696,2.095549205318022E7,4737.128845300131,0.0,2.0955492588610012E7,0.02316867461205785,0.0,-99.53074818178185,1528.098579251141,0.0,2.1163626406917047E-15,0.0224214184382455,99.18530878735716,29846.263150010258,6.334698488091548E-8,0.0,32.10700780482271,105.25315213890502,25.347971021716464,42.82130081189532,-4.490169741229975,12.591131282191894,25.51377206614495,-5951.11852724143,995.5090976530598,8.95746908785309E-4,634.0853932869588,412.3855532951324,0.0,0.0,0.0,4.2968349534285866E-5,-4.8220617935056223E-4,-2.441832726246183E-4,0.09963275227115052,4.406056317892193,58.76497877717151
3.1999999999997586,2.095548193957033E7,4889.938666544997,0.0,2.095548251010123E7,0.02548391009944373,0.0,-102.74145041604802,1528.097841743888,0.0,-1.4096362965787534E-14,0.023891302477843233,102.38486770121897,29836.184641227126,6.967725479406708E-8,0.0,32.10703873839714,108.22552945232606,24.500769989485203,43.617741966366374,-4.639111558726616,11.977063572667525,25.37541052383701,-6143.092062073138,995.5523547656823,8.960782533119403E-4,634.3750734151425,412.4213922360897,0.0,0.0,0.0,4.584104759037168E-5,-4.736659194149158E-4,-2.50786400870504E-4,0.10284227643756727,4.696642594248631,60.66064280288411
3.2999999999997476,2.0955471504890054E7,5042.748412868443,0.0,2.0955472111636393E7,0.027948465642726017,0.0,-105.95215578731187,1528.0970808227146,0.0,-9.3119956190435E-15,0.02540785073857107,105.5844297412085,29825.786176390946,7.641579806285454E-8,0.0,32.10707065404713,111.10704901706026,23.584121875771753,44.32183872871066,-4.763974961714744,11.367306668177457,25.230593761059453,-6335.06578447251,995.596983208395,8.964202154305517E-4,634.6740624359181,412.4583689695243,0.0,0.0,0.0,4.856289913292904E-5,-4.637821657177504E-4,-2.572461377019978E-4,0.10605137878765868,4.996678752179567,62.55630869043144
3.3999999999997366,2.0955460749139074E7,5195.558081929072,0.0,2.0955461393215187E7,0.030567007494122667,0.0,-109.16286439361046,1528.096296487527,0.0,3.271688475692258E-15,0.026971063335308437,108.78399500502296,29815.067755185068,8.357537392734433E-8,0.0,32.107103551778,113.89839107623934,22.604508732904367,44.93554238080939,-4.865453744686589,10.764046323215211,25.07901652467241,-6527.039700301378,995.6429828022548,8.967728044174663E-4,634.982370950015,412.4964834999613,0.0,0.0,0.0,5.1118796353745135E-5,-4.526608884298486E-4,-2.635533399300883E-4,0.10926004623643149,5.306185983315401,64.45197649799923
3.4999999999997256,2.095544967231707E7,5348.367671385479,0.0,2.095545035483729E7,0.03334420193332077,0.0,-112.37357633298133,1528.0954887382302,0.0,1.0685896612017132E-14,0.028580940387906175,111.9835635903605,29804.029377289116,9.116874176699479E-8,0.0,32.10713743159529,116.60104875259508,21.56819392668292,45.46154610328146,-4.944338737477111,10.169330094914391,24.92044686936428,-6719.01381542163,995.6903533628279,8.971360298375477E-4,635.3000098896056,412.5357358320433,0.0,0.0,0.0,5.349550458078971E-5,-4.4041297095853845E-4,-2.6969925432598235E-4,0.11246826570779546,5.625186147573897,66.34764628377374
3.5999999999997145,2.09554382744237E7,5501.177178896246,0.0,2.0955438996502366E7,0.03628471526673627,0.0,-115.58429170346268,1528.0946575747248,0.0,4.3125225612783424E-15,0.03023748201878229,115.18313559491958,29792.67104236409,9.920866110058056E-8,0.0,32.1071722935047,119.21718901457567,20.481180611675036,45.90313377062748,-5.0015086357899685,9.585058832432996,24.754723966916742,-6910.988135695175,995.739094700259,8.975099015449983E-4,635.6269905192349,412.5761259705838,0.0,0.0,0.0,5.568171239969785E-5,-4.271529985299462E-4,-2.756756065038367E-4,0.11567602413482071,5.953701774646137,68.2433181059414
3.6999999999997035,2.0955426555458616E7,5653.986602119948,0.0,2.0955427318210065E7,0.039393213781174996,0.0,-118.79501060309325,1528.0938029969093,0.0,-4.000272335602517E-15,0.03194068835443925,118.38271111639915,29780.99275006354,1.0770789146144259E-7,0.0,32.10720813751209,121.74952037873071,19.349184001593695,46.26403713879789,-5.0379202839181705,9.012979728445057,24.58175496833598,-7102.962666983949,995.7892066192268,8.978944296833008E-4,635.9633244360098,412.6176539205276,0.0,0.0,0.0,5.7668058939712287E-5,-4.129980527810107E-4,-2.8147467518849884E-4,0.11888330846000748,6.2917560655228115,70.13899202268905
3.7999999999996925,2.0955414515421465E7,5806.79593871515,0.0,2.0955415319960035E7,0.04267436376372924,0.0,-122.00573312991244,1528.0929250046795,0.0,-1.7631729409828267E-14,0.03369055952483831,121.58229025249868,29768.994500033557,1.1667919245383697E-7,0.0,32.107244963623494,124.20117114305289,18.177615366826775,46.54830528953074,-5.054598539803264,8.454680984288885,24.40151106525101,-7294.9374151499205,995.8406889189474,8.982896246855408E-4,636.309023570126,412.6603196869503,0.0,0.0,0.0,5.944713860809226E-5,-3.9806652805193967E-4,-2.870893515123963E-4,0.12209010563555005,6.639372894067819,72.03466809220384
3.8999999999996815,2.095540215431187E7,5959.605186340402,0.0,2.09554030017519E7,0.04613283150286218,0.0,-125.2164593819601,1528.0920235979274,0.0,5.252742685257772E-15,0.035487095663802204,124.78187310091889,29756.676291897893,1.2613532375784865E-7,0.0,32.10728277184513,126.57558036461988,16.971575638756352,46.760188590232545,-5.052625859338868,7.911588112705362,24.214022902078902,-7486.9123860551335,995.8935413932435,8.986954972752231E-4,636.6641001858375,412.7041232751117,0.0,0.0,0.0,6.1013483954714384E-5,-3.824769843063282E-4,-2.925131834039774E-4,0.12529640262359248,6.996576808641127,73.9303463726734
3.9999999999996705,2.0955389472129457E7,6112.414342654249,0.0,2.0955390363585286E7,0.04977328329269115,0.0,-128.42718945727702,1528.0910987765433,0.0,2.028238688112083E-14,0.03733029690821494,127.98145975935996,29744.038125284016,1.3608904514305113E-7,0.0,32.10732156218334,128.87640253224123,15.735856590283982,46.90403814062423,-5.033131739693329,7.384961874286115,24.019375491212077,-7678.887585561598,995.9477638304357,8.99112058465754E-4,637.0285668812638,412.7490646903631,0.0,0.0,0.0,6.236352771866942E-5,-3.6634705052783636E-4,-2.977404055100498E-4,0.12850218639650474,7.363393033757313,75.82602692228551
4.099999999999704,2.0955376468873836E7,6265.223405315222,0.0,2.095537740545981E7,0.05360038543115131,0.0,-131.63792345390428,1528.0901505404138,0.0,-1.4068607390171906E-14,0.039220163399155364,131.18105032552398,29731.079999808222,1.46553116465434E-7,0.0,32.10736133464465,131.10742594333186,14.474947744034361,46.98422071113405,-4.997282160512848,6.875897816658928,23.817702780185765,-7870.863019531439,996.0033560134118,8.995393195612804E-4,637.4024365893915,412.7951439382,0.0,0.0,0.0,6.349554544102598E-5,-3.4979239109453255E-4,-3.0276595542867544E-4,0.13170744393713826,7.739847471799417,77.72170979922859
4.199999999999737,2.0955363144544628E7,6418.032371981836,0.0,2.0955364127375092E7,0.057618804203759755,0.0,-134.84866146988358,1528.0891788894269,0.0,-4.073130721593543E-15,0.0411566952831552,134.38064489711275,29717.80191509053,1.5754029762495987E-7,0.0,32.10740208923573,133.27250414264904,13.193047392721057,47.0050485025871,-4.946269157431591,6.385327359906518,23.609182012864004,-8062.838693826765,996.0603177195661,8.999772921565533E-4,637.7857225782303,412.8423610242092,0.0,0.0,0.0,6.440958031318005E-5,-3.3292574605837223E-4,-3.075854773058085E-4,0.13491216223909572,8.12596670477069,79.61739506169118
4.299999999999771,2.095534949914141E7,6570.841240312604,0.0,2.0955350529330708E7,0.061833205921550505,0.0,-138.0594036032577,1528.0881838234563,0.0,-4.721917301608869E-15,0.0431398927020607,137.58024357182936,29704.20387070626,1.690633486712344E-7,0.0,32.10744382596345,135.37549937081357,11.89407636861342,46.97072262472066,-4.881300654733407,5.914020348453515,23.394028016661792,-8254.814614309762,996.1186487210131,9.004259881388947E-4,638.1784384528158,412.8907159542412,0.0,0.0,0.0,6.510735216367707E-5,-3.1585605452201764E-4,-3.121953140696621E-4,0.1381163283069655,8.521777996110956,81.5130827678625
4.399999999999804,2.0955335532663766E7,6723.650007966027,0.0,2.0955336611326244E7,0.06624825689395397,0.0,-141.2701499520697,1528.087165342385,0.0,-4.378442053365461E-15,0.04516975581148465,140.77984644737677,29690.285866241902,1.811350297313021E-7,0.0,32.10748654483484,137.42023674998248,10.581693448681868,46.885288950258605,-4.8035906737484835,5.462588969239857,23.17248753529849,-8446.790786842606,996.1783487843513,9.008854196867255E-4,638.5805981542121,412.94020873421135,0.0,0.0,0.0,6.559215266287738E-5,-2.9868766845607257E-4,-3.1659248973213997E-4,0.1413199291566132,8.927309292528767,83.40877297593183
4.4999999999998375,2.095532124511128E7,6876.458672600579,0.0,2.0955322373361282E7,0.07086862341554223,0.0,-144.48090061436363,1528.0861234460874,0.0,1.7728873924482969E-15,0.04724628476473526,143.9794536214601,29676.047901280224,1.9376810097535435E-7,0.0,32.107530245857106,139.41046785288268,9.259311514474128,46.75260490229646,-4.714350021151417,5.031492918842677,22.94483371218598,-8638.767217287606,996.239417670733,9.013555992704437E-4,638.9922159605755,412.9908393701528,0.0,0.0,0.0,6.586872894555934E-5,-2.815196624073128E-4,-3.2077468328891044E-4,0.14452295181543573,9.34258922589935,85.30446574408934
4.599999999999871,2.0955306636483505E7,7029.267231874734,0.0,2.0955307815435387E7,0.07569897180036733,0.0,-147.69165568818406,1528.0850581344366,0.0,1.2493478473984965E-14,0.049369479721530204,147.17906519178345,29661.489975385368,2.069753227125654E-7,0.0,32.10757492903756,141.34984231679474,7.930113792930395,46.57631573295026,-4.614777547308114,4.621045688575589,22.711360813935787,-8830.743911507006,996.3018551359319,9.018365396533103E-4,639.4133064882349,413.04260786826956,0.0,0.0,0.0,6.59431579147081E-5,-2.6444524265148065E-4,-3.2474019578860783E-4,0.1477253833226101,9.767647115209552,87.20016113052515
4.699999999999904,2.0955291706779994E7,7182.075683446952,0.0,2.095529293754811E7,0.08074396836850006,0.0,-150.90241527157656,1528.0839694073022,0.0,-4.49293380277993E-15,0.05153934084413393,150.37868125605306,29646.612088106573,2.207694553562359E-7,0.0,32.107620594383754,143.24188624149343,6.59706968258382,46.359838916209995,-4.506052049750508,4.231421826594382,22.472379267241013,-9022.720875363184,996.3656609303331,9.023282538917287E-4,639.8438846922465,413.0955142349232,0.0,0.0,0.0,6.582271350023944E-5,-2.475512575038597E-4,-3.284879121320546E-4,0.15092721072935655,10.202512968544069,89.09585919343023
4.799999999999938,2.095527645600029E7,7334.884024975675,0.0,2.0955277739698984E7,0.08600827942967015,0.0,-154.11317946258714,1528.0828572645516,0.0,-2.3002433291452462E-15,0.05375586829820298,153.57830191197507,29631.414238981903,2.3516325938101086E-7,0.0,32.10766724190337,145.08998622336668,5.262949818440912,46.10635538142962,-4.389324881273278,3.8626650296490777,22.22821106612601,-9214.698114718505,996.4308347989223,9.028307553355342E-4,640.2839658669672,413.14955847661986,0.0,0.0,0.0,6.551572910795645E-5,-2.3091780875572268E-4,-3.320172591072518E-4,0.15412842109919783,10.647217485117297,90.99155999099567
4.899999999999971,2.0955260884143937E7,7487.692254119336,0.0,2.0955262221887566E7,0.0914965713051199,0.0,-157.32394835926308,1528.0817217060483,0.0,7.292777493006497E-15,0.0560190622522848,156.7779272572568,29615.896427564323,2.5016949538458E-7,0.0,32.107714871604244,146.89737800796973,3.9303401498184245,45.81880643679689,-4.2657133065290544,3.514696914193046,21.97918559076449,-9406.675635435407,996.4973764811782,9.033440576275527E-4,640.733565645992,413.20474059991705,0.0,0.0,0.0,6.503145741197335E-5,-2.146179625899215E-4,-3.3532816107182073E-4,0.157329001508236,11.101792057342667,92.88726358141325
5.000000000000004,2.0955244991210457E7,7640.500368536356,0.0,2.0955246384113375E7,0.09721351031997916,0.0,-160.53472205965187,1528.0805627316536,0.0,-3.021888295151598E-15,0.05832892287924252,159.97755738960595,29600.05865337327,2.6580092406877916E-7,0.0,32.1077634834944,148.66713887713584,2.6016549011800887,45.49989536124803,-4.136294635782823,3.1873263168529102,21.72563586417847,-9598.653443376357,996.5652857112865,9.038681747056308E-4,641.1927000042666,413.26106061159624,0.0,0.0,0.0,6.437992952511382E-5,-1.9871755687467474E-4,-3.384209945723182E-4,0.16052893904537746,11.566268772977306,94.78297002287506
5.100000000000038,2.095522877719936E7,7793.308365885133,0.0,2.0955230226375934E7,0.1031637627965094,0.0,-163.74550066180188,1528.0793803412262,0.0,4.1772141301521515E-15,0.060685450355916284,163.17719240673173,29583.90091593191,2.8207030622306696E-7,0.0,32.10781307758197,150.40218301609485,1.2791483597726614,45.15209277001757,-4.002101150032104,2.88025897745461,21.46789525948555,-9790.631544403905,996.6345622179855,9.044031208018478E-4,641.661385257736,413.31851851853025,0.0,0.0,0.0,6.357181543183144E-5,-1.8327510045626898E-4,-3.412965430409199E-4,0.16372822081261496,12.040680417280864,96.67867937357373
5.200000000000071,2.0955212242110163E7,7946.116243824063,0.0,2.0955213748674743E7,0.10935199507001236,0.0,-166.95628426376283,1528.07817453462,0.0,-2.2898349882893854E-16,0.06308864486048164,166.37683240634337,29567.42321474105,2.9899040276997093E-7,0.0,32.107863653875334,152.10525922591876,-0.03507451107311047,44.7776449781151,-3.8641158183018027,2.593107463522468,21.20629465821793,-9982.609944380602,996.7052057246827,9.049489104438232E-4,642.1396380648383,413.37711432777604,0.0,0.0,-0.0,6.26182873961681E-5,-1.6834175898942862E-4,-3.4395595255363646E-4,0.16692683392526608,12.525060475246274,98.57439169170239
5.300000000000105,2.0955195385942344E7,8098.924000011513,0.0,2.0955196951009296E7,0.11578287347295868,0.0,-170.16707296358476,1528.0769453116893,0.0,9.922618282587337E-16,0.06553850657835544,169.57647748615193,29550.625549294055,3.1657397472364163E-7,0.0,32.10791521238304,153.77895045451388,-1.339048594514445,44.37858469469438,-3.723268795797504,2.3254012030136946,20.941160049754714,-10174.588649169116,996.7772159493976,9.055055584546849E-4,642.6274754268319,413.4368480465217,0.0,0.0,-0.0,6.153088786711742E-5,-1.5396142095429975E-4,-3.464006894640205E-4,0.17012476551223918,13.019443133860946,100.47010703545483
5.400000000000138,2.0955178208695397E7,8251.731632105852,0.0,2.095517983337908E7,0.12246106434521398,0.0,-173.37786685931871,1528.075692672283,0.0,-3.563122019656362E-15,0.0680350356956616,172.776127743868,29533.50791907683,3.348337832197615E-7,0.0,32.107967753113726,155.42567471443977,-2.630940213120006,43.95674347836428,-3.5804346809021697,2.076596501609794,20.672810553181808,-10366.567664632079,996.8505926047669,9.060730799535346E-4,643.1249146885656,413.49771968208637,0.0,0.0,-0.0,6.03214032041819E-5,-1.4017083681894322E-4,-3.486325005606965E-4,0.17332200271628756,13.523863284420761,102.36582546302492
5.500000000000171,2.0955160710368793E7,8404.539137765423,0.0,2.0955162395783577E7,0.1293912340312593,0.0,-176.58866604901698,1528.0744166162478,0.0,-1.2087553180606392E-14,0.070578232403506,175.97578327720498,29516.070323575288,3.537825895098939E-7,0.0,32.108021276076215,157.0476870382377,-3.909039709475831,43.51376546887646,-3.4364304998104402,1.8460864317458852,20.401556835924545,-10558.5469966323,996.9253353980183,9.066514903556796E-4,643.6319735390508,413.5597292418939,0.0,0.0,-0.0,5.900174434106317E-5,-1.2699982380457388E-4,-3.506533762335312E-4,0.1765185326942719,14.038356524887948,104.26154703260781
5.600000000000205,2.095514289096201E7,8557.346514648541,0.0,2.0955144638222255E7,0.13657804885833702,0.0,-179.79947063073166,1528.0731171434281,0.0,1.5508427875232655E-15,0.07316809689504711,179.17544418387394,29498.312762252986,3.7343315490367963E-7,0.0,32.108075781279545,158.64708219247137,-5.171754922332784,43.05112198486822,-3.2920143799448267,1.633210492332177,20.127699898243062,-10750.526651032436,997.001444031073,9.072408053738577E-4,644.1486700129133,413.6228767335522,0.0,0.0,-0.0,5.7583835301329936E-5,-1.1447152839038877E-4,-3.524655169811237E-4,0.1797143426173936,14.562959162310648,106.15727180239783
5.700000000000238,2.0955124750474487E7,8710.153760413543,0.0,2.0955126560694568E7,0.144026175201998,0.0,-183.010280702517,1528.071794253666,0.0,-1.3839623891342967E-14,0.07580462937010582,182.37511056159047,29480.235234566033,3.937982409500047E-7,0.0,32.108131268732876,160.225797931435,-6.417605462452642,42.57012664133301,-3.147884867167219,1.4372639504454063,19.85153018903567,-10942.506633695428,997.0789182004869,9.078410410182403E-4,644.6750224907797,413.6871621648002,0.0,0.0,-0.0,5.6079510280235055E-5,-1.026027385403966E-4,-3.5407130345130886E-4,0.18290941967146376,15.097708215273338,108.05299983059138
5.800000000000272,2.0955106288905673E7,8862.960872718711,0.0,2.0955108163199954E7,0.15174027940140178,0.0,-186.22109636242755,1528.0704479468002,0.0,-6.6856242764146145E-15,0.07848783003059534,185.57478250806898,29461.83773995191,4.148906092073634E-7,0.0,32.10818773844557,161.78561862168542,-7.645217692811057,42.07195069531542,-3.0046808371305693,1.2575067888183735,19.573327016220162,-11134.486950484139,997.1577575975057,9.084522135973083E-4,645.2110497004387,413.75258554354804,0.0,0.0,-0.0,5.450041981610904E-5,-9.14042376325784E-5,-3.554732700839735E-4,0.18610375105714255,15.64264141640686,109.94873117538448
5.900000000000305,2.095508750625502E7,9015.767849222326,0.0,2.095508944573788E7,0.1597250278059903,0.0,-189.4319177085189,1528.0690782226625,0.0,-1.5855372570428017E-15,0.08121769907636933,188.7744601210255,29443.120277877897,4.367230213734225E-7,0.0,32.108245190427056,163.32817911042298,-8.853320321251028,41.5576383750883,-2.8629819478194394,1.0931721954481464,19.293358214091537,-11326.46760726153,997.2379619078631,9.090743397167565E-4,645.7567707162783,413.8191468777042,0.0,0.0,-0.0,5.285794639472971E-5,-8.088119220128046E-5,-3.5667408231688835E-4,0.18929732399023175,16.197797214913326,111.84446589497408
6.000000000000338,2.095506840252198E7,9168.574687582664,0.0,2.095507040830779E7,0.16798508677953006,0.0,-192.6427448388477,1528.067685081088,0.0,-1.1358969320696133E-14,0.08399423671663808,191.9741434981764,29424.08284778893,4.59308239298023E-7,0.0,32.108303624686954,164.854968745421,-10.040740519034822,41.028121987856224,-2.723309578293516,0.9434745438369463,19.011880030302027,-11518.448609890584,997.319530812011,9.097074362817481E-4,646.3122049616705,413.88684617536137,0.0,0.0,-0.0,5.116312966434205E-5,-7.103356585187071E-5,-3.5767651722959885E-4,0.19249012570188453,16.76321477919432,113.74020404755743
6.100000000000372,2.0955048977705855E7,9321.381385457966,0.0,2.095505105090899E7,0.17652512272703103,0.0,-195.8535778514713,1528.0662685219063,0.0,-2.740863092043355E-16,0.08681744317136024,195.17383273723976,29404.725448988378,4.826590250587357E-7,0.0,32.108363041235414,166.3673354827058,-11.206400485231354,40.48423663484828,-2.5861281977505737,0.8076168240757005,18.729137196287944,-11710.429964234387,997.4024639856362,9.103515205014169E-4,646.8773722133371,413.95568344522036,0.0,0.0,-0.0,4.942660128743626E-5,-6.185655205102375E-5,-3.5848344742707655E-4,0.19568214343875512,17.338933999576444,115.63594569133258
6.200000000000405,2.0955029231806174E7,9474.187940506472,0.0,2.0955031373541016E7,0.1853498019787807,0.0,-199.0644168444483,1528.064828544944,0.0,-7.251144129583054E-15,0.089687318647453,198.37352793593405,29385.048081014305,5.067881406457252E-7,0.0,32.10842344008208,167.86649004140523,-12.349314383902588,39.92673439144355,-2.451847109128191,0.6847974960196144,18.445363146884077,-11902.411676156044,997.486761098056,9.110066098768917E-4,647.4522925912635,414.025658695252,0.0,0.0,-0.0,4.765852931935789E-5,-5.3341018920551164E-5,-3.590978279041485E-4,0.19887336446356035,17.924995490775665,117.53169088449799
6.300000000000439,2.095500916482229E7,9626.994350386363,0.0,2.0955011376203224E7,0.19446379089374766,0.0,-202.2752619158384,1528.0633651500248,0.0,-1.2670420268534599E-14,0.09260386336660552,201.5732291919791,29365.050743222237,5.31708348246437E-7,0.0,32.108484821237234,169.35351008387462,-13.468585588181764,39.35629783453366,-2.3208225124346127,0.5742167460700526,18.160780357346663,-12094.393751518746,997.5724218140116,9.116727222157276E-4,648.0369865717903,414.09677193418077,0.0,0.0,-0.0,4.586857188868393E-5,-4.547395965594161E-5,-3.595226856184305E-4,0.20206377605498343,18.521440594899254,119.4274396852529
6.400000000000472,2.095498877675359E7,9779.800612755856,0.0,2.095499105889499E7,0.20387175587406325,0.0,-205.48611316370167,1528.0618783369703,0.0,-7.549516567451064E-15,0.09556707755222171,204.77293660309596,29344.733434986323,5.574324102871387E-7,0.0,32.108547184711256,170.82934441401073,-14.563404172257858,38.7735528204036,-2.1933598346987955,0.4750821384800828,17.875600768874666,-12286.376196185758,997.659445792813,9.123498756257767E-4,648.6314749826739,414.16902317076966,0.0,0.0,-0.0,4.4065839847293163E-5,-3.8238942720090693E-5,-3.5976111144106753E-4,0.20525336550808704,19.128311384117882,121.32319215179703
6.500000000000505,2.0954968067599453E7,9932.606725273143,0.0,2.0954970421615705E7,0.21357836331419833,0.0,-208.69697068609992,1528.0603681055984,0.0,2.609024107869118E-15,0.0985769614299931,207.9726502670057,29324.096155703068,5.839730892959079E-7,0.0,32.10861053051457,172.29481719809587,-15.633044598800796,38.17908043464291,-2.0697162757330774,0.38661366058970204,17.590026276833235,-12478.359016020342,997.7478326883313,9.1303808851563E-4,649.235779003919,414.242412413807,0.0,0.0,-0.0,4.225886797662019E-5,-3.161655653745661E-5,-3.59816254173525E-4,0.20844212013456587,19.74565066350292,123.21894834233055
6.600000000000539,2.095494703735925E7,10085.412685596364,0.0,2.095494946436474E7,0.22358827958288074,0.0,-211.90783458109604,1528.0588344557248,0.0,-2.1094237467877974E-15,0.10163351523000566,211.17237028143177,29303.13890473917,6.11343147855141E-7,0.0,32.10867485865785,173.75063222102318,-16.67686355536156,37.57342805153744,-1.9501035216841962,0.3080481689417563,17.304249259106115,-12670.342216885907,997.8375821492273,9.13737379596939E-4,649.8499201702671,414.3169396722914,0.0,0.0,-0.0,4.0455594264867646E-5,-2.558484399945319E-5,-3.5969131630685764E-4,0.2116300272629489,20.373501973953903,125.11470831505481
6.700000000000572,2.095492568603233E7,10238.218491383665,0.0,2.095492818714145E7,0.23390617108500766,0.0,-215.11870494675338,1528.057277387161,0.0,-1.7243151351209463E-15,0.104736739185126,214.3720967440978,29281.861681446433,6.395553487727849E-7,0.0,32.108740169151964,175.19737719668433,-17.69429789871212,36.957119454515144,-1.834690581498222,0.2386432498258939,17.018453125227214,-12862.325804645869,997.9286938188964,9.144477678845024E-4,650.473920371736,414.39260495537945,0.0,0.0,-0.0,3.866334671515983E-5,-2.0119722688056308E-5,-3.593895512098251E-4,0.2148170742388558,21.011909595130206,127.01047212817119
6.800000000000606,2.095490401361805E7,10391.024140293162,0.0,2.095490658994519E7,0.24453670431748264,0.0,-218.32958188113702,1528.0556968997173,0.0,-4.298644773470528E-15,0.10788663353202887,217.57182975272946,29260.26448518783,6.686224552369593E-7,0.0,32.10880646200784,176.63552815496334,-18.684862670956328,36.33066398193203,-1.7236067048399246,0.1776805134585996,16.732812870072323,-13054.309785163767,998.021167335363,9.151692726960019E-4,651.1078018538532,414.4694082722924,0.0,0.0,-0.0,3.6888837104070316E-5,-1.5195387317724916E-5,-3.589142614514274E-4,0.2180032484252676,21.660918548422053,128.9062398398822
6.900000000000639,2.0954882020115737E7,10543.829629982974,0.0,2.0954884672775295E7,0.2554845455896775,0.0,-221.54046548231247,1528.0540929932013,0.0,1.5407813913626E-14,0.11108319851293647,220.77156940505256,29238.34731529653,6.985572300535829E-7,0.0,32.10887373723666,178.06545392942456,-19.648149155574767,35.694564674116485,-1.6169443435955568,0.1244683457607285,16.44749561886134,-13246.294164303154,998.1150023314644,9.159019136539728E-4,651.751587219864,414.5473496324623,0.0,0.0,-0.0,3.513816108204868E-5,-1.0784691476398174E-5,-3.5826879798591093E-4,0.2211885372027317,22.320574600021136,130.80201150839073
7.000000000000672,2.0954859705524728E7,10696.634958111174,0.0,2.09548624356311E7,0.26675436129541996,0.0,-224.75135584834698,1528.0524656674163,0.0,-1.8283985436795547E-15,0.11432643437088234,223.97131579879292,29216.110171098262,7.293724363920014E-7,0.0,32.108941994849786,179.48742076963538,-20.583822945432043,35.049325408417275,-1.5147621227699755,0.07834414558017448,16.162661152973943,-13438.278947927574,998.2101984347617,9.166457106856772E-4,652.4052994311033,414.62642904545237,0.0,0.0,-0.0,3.3416803990902195E-5,-6.859506307194729E-6,-3.574565599515065E-4,0.22437292796962566,22.990924263994124,132.69778719189986
7.100000000000706,2.0954837069844335E7,10849.440122335813,0.0,2.0954839878511913E7,0.2783508178383327,0.0,-227.96225307730865,1528.0508149221635,0.0,-6.723788192886104E-15,0.11761634135416775,227.17106903168022,29193.55305191502,7.610808375827975E-7,0.0,32.10901123485866,-179.0984028996662,-21.491621998245794,34.39545701922669,-1.4170877902935426,0.03867607827555309,15.878462408583337,-13630.264141900812,998.3067552675316,9.174006840236108E-4,653.0689618079316,414.7066465209436,0.0,0.0,-0.0,3.172965176832839E-5,-3.391054307465773E-6,-3.5648099486513206E-4,0.22755640814240524,23.6720148054194,134.59356694861435
7.200000000000739,2.0954814113073863E7,11002.245120314947,0.0,2.0954817001417052E7,0.29027858165300824,0.0,-231.17315726726676,1528.0491407572397,0.0,2.824129818890242E-15,0.12095291971286479,230.3708292014438,29170.675957050174,7.936951971776377E-7,0.0,32.109081457274996,-177.6919415534631,-22.37135465817037,33.733482409727415,-1.3239211189222733,0.0048643788830674065,15.595045942340027,-13822.249752086627,998.404672446838,9.181668542066299E-4,653.7425980312255,414.788002068788,0.0,0.0,-0.0,3.0081006313312915E-5,-3.502169252312287E-7,-3.5534559902341325E-4,0.23073896515582926,24.363894243588614,136.48935083673902
7.3000000000007725,2.0954790835212637E7,11155.0499497066,0.0,2.0954793804345842E7,0.30254231914384366,0.0,-234.38406851629196,1528.0474431724415,0.0,-1.0685896612017132E-14,0.124336169700877,233.57059640581403,29147.47888584435,8.272282787839815E-7,0.0,32.10915266211047,-176.29320746061566,-23.222897625079177,33.06394067153234,-1.2352367369955588,-0.023657760306507437,15.312552360282568,-14014.235784348843,998.503949584301,9.189442420787329E-4,654.4262321418122,414.87049569880975,0.0,0.0,-0.0,2.8474604698277385E-5,2.2921848988862204E-6,-3.5405391794840913E-4,0.23392058646325703,25.066611355197207,138.3851389144796
7.400000000000806,2.0954767236259907E7,11307.854608168767,0.0,2.095477028729753E7,0.3151466967522607,0.0,-237.59498692245566,1528.0457221675606,0.0,8.368306048112117E-15,0.12776609157861082,236.77037074252328,29123.961837530136,8.616928462508308E-7,0.0,32.10922484937724,-174.90229538776507,-24.046193855893645,32.387390237494365,-1.1509868682675117,-0.047423681967260926,15.031116707815006,-14206.222244551396,998.6045862867255,9.197328687945805E-4,655.1198885458388,414.95412742132197,0.0,0.0,-0.0,2.691364163343812E-5,4.565137666462769E-6,-3.5260954674933036E-4,0.23710125953674346,25.780215677765256,140.2809312400424
7.500000000000839,2.0954743316214994E7,11460.659093359427,0.0,2.0954746450271443E7,0.3280963808895745,0.0,-240.80591258383072,1528.0439777423878,0.0,-5.273559366969494E-16,0.13124268560656682,239.97015230930413,29100.12481144443,8.9710166348712E-7,0.0,32.1092980190873,-173.51937710951296,-24.84125038498525,31.70441110175107,-1.071103964318396,-0.06693309956765513,14.75086881998305,-14398.209138558248,998.7065821552012,9.205327558130461E-4,655.8235920096228,415.03889724637133,0.0,0.0,-0.0,2.5400794613045973E-5,6.497209765851427E-6,-3.5101613028753825E-4,0.2402809718674899,26.504757512786124,142.17672787163445
7.600000000000873,2.0954719075077146E7,11613.463402936548,0.0,2.0954722293266833E7,0.3413960380076473,0.0,-244.01684559849133,1528.0422098967083,0.0,9.787309851461146E-15,0.1347659520497196,243.16994120389015,29075.967806834728,9.334674946568595E-7,0.0,32.10937217125302,-172.14469572798885,-25.608136053312126,31.01560614948861,-0.9955032161538548,-0.08265224073989025,14.471933632415238,-14590.196472233409,998.8099367859396,9.213439249043853E-4,656.5373676664881,415.1248051844273,0.0,0.0,-0.0,2.393825120447587E-5,8.116353112127733E-6,-3.492773630738497E-4,0.24345971096588795,27.240287929295878,144.07252886746332
7.700000000000906,2.0954694512845624E7,11766.26753455808,0.0,2.095469781628297E7,0.3550503345617031,0.0,-247.227786064513,1528.0404186303074,0.0,-8.409939411535561E-15,0.13833589117891887,246.36973752401815,29051.490822970867,9.708031040794059E-7,0.0,32.109447305886874,-170.77855981180878,-26.346979138582373,30.321601646878467,-0.924084934492912,-0.09501426268020505,14.194431454192243,-14782.18425144109,998.9146497698039,9.221663981471709E-4,657.2612410146085,415.2118512459845,0.0,0.0,-0.0,2.252773797327656E-5,9.449731362450277E-6,-3.4739698883035834E-4,0.24663746436187056,27.98685876721294,145.96833428573797
7.8000000000009395,2.0954669629519686E7,11919.071485881923,0.0,2.09546730193191E7,0.3690639369800772,0.0,-250.43873407997194,1528.0386039429661,0.0,5.4262150328554526E-15,0.14195250326574582,249.5695413674242,29026.69385910034,1.0091212561487024E-6,0.0,32.10952342300152,-169.42133737138764,-27.05796488138141,29.62304694904452,-0.8567367909186313,-0.10441990501582779,13.918478204595745,-14974.172482045451,999.0207206925081,9.230001979304879E-4,657.9952379194846,415.3000354417217,0.0,0.0,-0.0,2.1170550575059843E-5,1.0523573823350023E-5,-3.453787996839162E-4,0.24981421960510047,28.74452264087443,147.8641441846674
7.900000000000973,2.0954644425098564E7,12071.875254565966,0.0,2.0954647902374458E7,0.3834415117119345,0.0,-253.6496897429464,1528.0367658344612,0.0,3.1953606427492787E-15,0.14561578858569374,252.7693528318468,29001.576914459467,1.0484347154657036E-6,0.0,32.10960052260977,-168.07344969435255,-27.74133290486604,28.920613490627062,-0.7933359145066686,-0.11123834684254241,13.644185616182778,-15166.161169910807,999.1281491345785,9.23845346954266E-4,658.7393846147913,415.3893577824622,0.0,0.0,-0.0,1.986758458292195E-5,1.1363053943649802E-5,-3.4322663496677113E-4,0.252989964265219,29.513332942572045,149.75995862246185
8.000000000001005,2.0954618899581484E7,12224.678838268093,0.0,2.095462246544829E7,0.3981877252310797,0.0,-256.86065315151507,1528.0349043045687,0.0,1.3818807209631245E-14,0.14932574741958515,255.96917201502467,28976.13998829201,1.0887562468507431E-6,0.0,32.10967860472457,-166.7353650711839,-28.397374528301494,28.214993129382727,-0.7337508407551588,-0.11580823617214697,13.37166140696557,-15358.15032090148,999.236934671281,9.247018682293598E-4,659.4937077030113,415.47981827910723,0.0,0.0,-0.0,1.861936665903747E-5,1.1992191103543473E-5,-3.409443796176906E-4,0.25616468593209923,30.29334384612844,151.6557776573318
8.10000000000095,2.0954593052967675E7,12377.482234646157,0.0,2.095459670853981E7,0.41330724400241525,0.0,-260.07162440375856,1528.0330193530626,0.0,-1.0470790900996008E-14,0.15308238005190805,259.16899901469765,28950.38307981193,1.1300986152537725E-6,0.0,32.10975766935909,-165.40759244696383,-29.02642997737175,27.506895918154186,-0.6778433116138078,-0.11843886177830129,13.10100942467337,-15550.139940881858,999.3470768727906,9.255697850795327E-4,660.2582341577515,415.571416942769,0.0,0.0,-0.0,1.7426085719208023E-5,1.2433774264886439E-5,-3.38535962189105E-4,0.25933837221604006,31.08461031058658,153.5516013474887
8.200000000000895,2.0954566885256335E7,12530.285441357975,0.0,2.095457063164823E7,0.4288047344913455,0.0,-263.2826035977587,1528.0311109797092,0.0,-1.672273430841642E-15,0.15688568676673606,262.36883392860915,28924.306188233197,1.1724745857820245E-6,0.0,32.10983771652666,-164.09067504003698,-29.62888549679707,26.797047384330106,-0.6254699271532381,-0.11941143934257799,12.832329766150758,-15742.13003571655,999.4585753040717,9.264491211411804E-4,661.0329913240798,415.66415378466434,0.0,0.0,-0.0,1.6287623778972897E-5,1.2709305937655057E-5,-3.3600535247302034E-4,0.26251101074803224,31.88718808387924,155.44742975114542
8.30000000000084,2.0954540396446686E7,12683.088456061361,0.0,2.0954544234772764E7,0.44468486317476685,0.0,-266.49359083159834,1528.0291791842774,0.0,-3.3813229993739924E-14,0.16073566785540117,265.56867685450146,28897.909312766045,1.2158969237320144E-6,0.0,32.109918746240695,-162.78518397231989,-30.205170373298486,26.086185398483835,-0.5764836509355187,-0.1189804858345815,12.565718874936495,-15934.120611270087,999.5714295249028,9.273399003642034E-4,661.8180069198793,415.758028816128,0.0,0.0,-0.0,1.5203586209315187E-5,1.2838964840662158E-5,-3.333565587688203E-4,0.2656825891799837,32.701133706585075,157.3432629265145
8.400000000000784,2.095451358653791E7,12835.891276414091,0.0,2.0954517517912608E7,0.46095229653149783,0.0,-269.70458620336177,1528.0272239665298,0.0,6.9909356081865326E-15,0.16463232361140073,268.7685278901194,28871.19245260954,1.2603783945653234E-6,0.0,32.11000075851482,-161.4917119587958,-30.755753879305736,25.375056715144147,-0.5307351724504857,-0.11737525816888886,12.301269619979651,-16126.111673407164,999.6856390899173,9.282421470130053E-4,662.6133090373231,415.85304204863905,0.0,0.0,-0.0,1.4173331167943645E-5,1.2841585587944669E-5,-3.3059362481995154E-4,0.26885309518494455,33.52650451574322,159.23910093181019
8.500000000000728,2.0954486455529176E7,12988.693900073924,0.0,2.095449048106693E7,0.4776117010626635,0.0,-272.915589811135,1528.0252453262283,0.0,-2.1121993043493603E-14,0.1685756543339313,271.9683871332085,28844.155606936663,1.305931763966289E-6,0.0,32.11008375336288,-160.21086710531407,-31.281142149965525,24.66441326856815,-0.4880741310817353,-0.1148012343299925,12.03907135831017,-16318.103227992511,999.8012035486768,9.291558856677647E-4,663.418926144599,415.94919349387425,0.0,0.0,-0.0,1.319599800863207E-5,1.273465371316176E-5,-3.2772062645080793E-4,0.272022516457318,34.36335864873079,161.13494382524695
8.600000000000673,2.0954459003419694E7,13141.496324698579,0.0,2.0954463124234945E7,0.4946677432265103,0.0,-276.1266017530057,1528.0232432631292,0.0,-7.695233339433116E-15,0.17256566031974976,275.1682546815173,28816.798774950206,1.3525697976657154E-6,0.0,32.11016773079877,-158.9432668641229,-31.78187500791737,23.955008304941746,-0.4483502069724996,-0.11144161731092114,11.779209984300769,-16510.095280891037,999.91812244544,9.300811412233146E-4,664.2348870855327,416.0464831635089,0.0,0.0,-0.0,1.2270534505626621E-5,1.2534314349821015E-5,-3.2474166793658535E-4,0.2751908407131553,35.21175504710557,163.03079166504097
8.700000000000617,2.0954431230208557E7,13294.298547945775,0.0,2.0954435447415743E7,0.5121250895702092,0.0,-279.33762212706176,1528.0212177769906,0.0,-2.1142809725205325E-14,0.17660234188125332,278.3681306327933,28789.121955748647,1.400305261803223E-6,0.0,32.110252690836795,-157.68953219561212,-32.25852275191882,23.247592429665293,-0.4114140848883848,-0.1074588443424883,11.521767967949899,-16702.087837967596,1000.0363953197461,9.310179388944605E-4,665.0612210848969,416.14491106969405,0.0,0.0,-0.0,1.1395722762702754E-5,1.2255392912481753E-5,-3.216608781441096E-4,0.2783580556902238,36.0717534607401,164.92664450940802
8.800000000000562,2.095440313589497E7,13447.100567473197,0.0,2.095440745060853E7,0.529988406574442,0.0,-282.5486510313936,1528.0191688675627,0.0,-2.017830347256222E-14,0.18068569932076362,281.56801508478674,28761.125148534775,1.449150922504239E-6,0.0,32.110338633491125,-156.45028198256674,-32.71168292668586,22.542909644361558,-0.3771182977354593,-0.10299608597297047,11.266824384394566,-16894.080905087205,1000.1560217055322,9.319663042097154E-4,665.8979577435157,416.24447722431455,0.0,0.0,-0.0,1.0570203706160164E-5,1.191142616963513E-5,-3.184824064724479E-4,0.2815241491484811,36.94341445157513,166.82250241656553
8.900000000000507,2.0954374720478054E7,13599.902380938503,0.0,2.095437913381244E7,0.5482623607622097,0.0,-285.759688564092,1528.017096534596,0.0,-6.217248937900877E-15,0.1848157329522929,284.76790813524883,28732.80835244432,1.4991195461794746E-6,0.0,32.11042555877625,-155.22612773992856,-33.14197709223305,21.841693443086374,-0.34531795680281,-0.0981787215709936,11.014454936635024,-17086.07448811493,1000.2770011318747,9.32926263017898E-4,666.7451270447182,416.34518163959837,0.0,0.0,-0.0,9.792500089237289E-6,1.1514702161323836E-5,-3.1521041863641076E-4,0.2846891088700984,37.82679939790889,168.71836544473123
9.000000000000451,2.095434598395696E7,13752.703985999324,0.0,2.095435049702662E7,0.5669516186350911,0.0,-288.97073482325044,1528.0150007778377,0.0,-1.6944778913341452E-14,0.1889924430910192,287.96780988193285,28704.171566624194,1.5502238993525815E-6,0.0,32.11051346670675,-154.0176686587564,-33.5500476115362,21.14466303107991,-0.31587137607273064,-0.09311577974962464,10.764731973225357,-17278.06859291597,1000.3993331226645,9.338978414862976E-4,667.6027593533659,416.44702432783845,0.0,0.0,-0.0,9.061037959885869E-6,1.1076307488830525E-5,-3.1184909231881487E-4,0.287852922659779,38.72197049842219,170.61423365212445
9.100000000000396,2.0954316926330794E7,13905.505380313276,0.0,2.095432154025018E7,0.5860608467396284,0.0,-292.1817899069633,1528.0128815970297,0.0,-1.0505485370515544E-14,0.19321583005482781,291.1677204225946,28675.21479018405,1.6024767488436262E-6,0.0,32.11060235729749,-152.82548701793112,-33.9365544754924,20.452519722440805,-0.28864059809461484,-0.08790133403309121,10.517724502465937,-17470.063225355676,1000.523017196824,9.348810661031335E-4,668.4708854186769,416.55000530156497,0.0,0.0,-0.0,8.374166566825963E-6,1.0606180589597202E-5,-3.0840261272761717E-4,0.2910155783449226,39.62899077642439,172.51010709696524
9.20000000000034,2.0954287547598675E7,14058.306561537918,0.0,2.0954292263482247E7,0.6055947115788909,0.0,-295.3928539133258,1528.0107389919135,0.0,-4.683753385137379E-15,0.19748589416627382,294.3676398549878,28645.938022252172,1.6558908615292259E-6,0.0,32.110692230563366,-151.6501439913472,-34.30217218391924,19.765943565541598,-0.2634918289641513,-0.08261584579798498,10.273498204424932,-17662.058391299266,1000.6480528680768,9.358759636764927E-4,669.3495363739491,416.6541245733466,0.0,0.0,-0.0,7.730176698539119E-6,1.011316970364946E-5,-3.0487516808497196E-4,0.2941770637759141,40.54792408400925,174.4059858374736
9.300000000000285,2.095425784775972E7,14211.107527330829,0.0,2.0954262666721936E7,0.6255578797059647,0.0,-298.60392694043617,1528.008572962228,0.0,-6.737665980693919E-15,0.20180263575170454,297.56756827687093,28616.341261945665,1.7104790046001307E-6,0.0,32.11078308651948,-150.4921758720709,-34.64758670074095,19.085590237033887,-0.24029578990164172,-0.07732744811023465,10.032115441921311,-17854.054096612257,1000.7744396450861,9.368825613361821E-4,670.238743738866,416.7593821558966,0.0,0.0,-0.0,7.12731746752059E-6,9.605094337069352E-6,-3.012709450779316E-4,0.2973373668263138,41.47883510638539,176.30186993187164
9.40000000000023,2.095422782681299E7,14363.908275349537,0.0,2.0954232749968305E7,0.645955017678923,0.0,-301.8150090863923,1528.0063835077074,0.0,1.5015766408055242E-14,0.20616605514169656,300.7675057860036,28586.42450831458,1.7662539454400563E-6,0.0,32.110874925181285,-149.35209072842727,-34.97349250057186,18.41208823713524,-0.21892799279565134,-0.07209316554230356,9.7936352714228,-18046.050347160217,1000.9021770317022,9.379008865364802E-4,671.1385394226058,416.8657780622712,0.0,0.0,-0.0,6.56381156713264E-6,9.088809130663522E-6,-2.97594124295324E-4,0.3004964753930024,42.42178936630499,178.19775943838178
9.500000000000174,2.0954197484757587E7,14516.708803251537,0.0,2.0954202513220474E7,0.6667907920355303,0.0,-305.02610044929514,1528.0041706280838,0.0,7.306655280814311E-15,0.2105761526681107,303.9674524801448,28556.187760483474,1.8232284515584553E-6,0.0,32.11096774656409,-148.23036550040302,-35.28058972267497,17.74603641074827,-0.19926894688319646,-0.0669600663890654,9.558113454649598,-18238.047148808688,1001.0312645263684,9.389309670521799E-4,672.0489557210342,416.9733123053667,0.0,0.0,-0.0,6.0378690412101184E-6,8.570269146364503E-6,-2.938488756713808E-4,0.303654377396581,43.37685322824975,180.093654415227
