time,eiPosition_ft_X,eiPosition_ft_Y,eiPosition_ft_Z,eiVelocity_ft_s_X,eiVelocity_ft_s_Y,eiVelocity_ft_s_Z,feVelocity_ft_s_X,feVelocity_ft_s_Y,feVelocity_ft_s_Z,altitudeMsl_ft,longitude_deg,latitude_deg,localGravity_ft_s2,eulerAngle_deg_Yaw,eulerAngle_deg_Pitch,eulerAngle_deg_Roll,bodyAngularRateWrtEi_deg_s_Roll,bodyAngularRateWrtEi_deg_s_Pitch,bodyAngularRateWrtEi_deg_s_Yaw,speedOfSound_ft_s,airDensity_slug_ft3,ambientPressure_lbf_ft2,ambientTemperature_dgR,aero_bodyForce_lbf_X,aero_bodyForce_lbf_Y,aero_bodyForce_lbf_Z,aero_bodyMoment_ftlbf_L,aero_bodyMoment_ftlbf_M,aero_bodyMoment_ftlbf_N,mach,dynamicPressure_lbf_ft2
0.0,2.09556463255E7,0.0,0.0,0.0,1528.10982905,0.0,0.0,0.0,-0.0,30000.0,0.0,0.0,32.1065359519,0.0,0.0,0.0,10.0,20.0,30.0,994.849493459,8.90685451211E-4,629.673709538,411.838873082,-0.0,0.0,-0.0,0.0,0.0,0.0,0.0,0.0
0.1,2.09556461649E7,152.810982514,0.0,-3.21065361152,1528.10981734,0.0,0.0,2.33311981015E-5,3.19951045886,29999.8400245,2.12636283364E-12,0.0,32.10653644285363,3.00795913657,1.9949242762,1.02456851017,9.44780953223,20.4215661882,29.7904945599,994.850180536,8.90690687135E-4,629.67828085,411.839441943,-0.0,0.0,-0.0,-2.9007074342E-6,-2.50796710742E-5,-9.14640676693E-6,0.00321607265249,0.00455894112995
0.2,2.09556456833E7,305.621962687,0.0,-6.42130732108,1528.10978222,0.0,0.0,9.33247945784E-5,6.39902101541,29999.3600979,1.70109025607E-11,0.0,32.10653791581453,6.03574253261,3.97461300617,2.09848480161,8.88054669014,20.791773813,29.5818071067,994.852241766,8.9070639505E-4,629.691994949,411.841148525,-0.0,0.0,-0.0,-5.45318412769E-6,-5.10695455583E-5,-1.81649899056E-5,0.00643213207695,0.0182360866792
0.3,2.09556448807E7,458.432938178,0.0,-9.63196122668,1528.10972369,0.0,0.0,2.09980794584E-4,9.59853176734,29998.5602203,5.74117986225E-11,0.0,32.10654037078269,9.0890374072,5.93134058587,3.22103442064,8.30079059118,21.1096342164,29.3752727274,994.85567714,8.90732575381E-4,629.71485232,411.843992828,-0.0,0.0,-0.0,-7.64599400048E-6,-7.7777717579E-5,-2.70580442391E-5,0.00964816504564,0.0410324031477
0.4,2.09556437569E7,611.243906645,0.0,-12.8426154264,1528.10964175,0.0,0.0,3.73299207616E-4,12.7980428123,29997.4403915,1.3608723458E-10,0.0,32.10654380775811,12.173246454,7.85726002373,4.39174726002,7.71111708637,21.3744739816,29.1720951053,994.860486643,8.90769228839E-4,629.746853772,411.847974853,-0.0,0.0,-0.0,-9.47083816492E-6,-1.050090054E-4,-3.58293342688E-5,0.0128641583313,0.072949501442
0.5,2.09556423121E7,764.054865747,0.0,-16.0532700182,1528.10953639,0.0,0.0,5.83280045925E-4,15.9975542481,29996.0006117,2.65795401314E-10,0.0,32.106548226740806,15.2934100839,9.74442223976,5.61031726281,7.11408249265,21.5859272506,28.9733341245,994.866670258,8.90816356416E-4,629.788000438,411.8530946,-0.0,0.0,-0.0,-1.09225244183E-5,-1.32566816721E-4,-4.44838740316E-5,0.0160800987077,0.113989636984
0.6,2.09556405463E7,916.865813143,0.0,-19.2639251001,1528.10940762,0.0,0.0,8.39923324517E-4,19.1970661723,29994.2408807,4.59294495665E-10,0.0,32.10655362773077,18.4541174565,11.5848026579,6.87650507723,6.51220892801,21.7439261497,28.7798964064,994.874227959,8.9087395939E-4,629.838293773,411.85935207,-0.0,0.0,-0.0,-1.19989102599E-5,-1.60254943569E-4,-5.30276896957E-5,0.0192959729493,0.164155709865
0.7,2.09556384594E7,1069.67674649,0.0,-22.4745807703,1528.10925544,0.0,0.0,0.00114322906411,22.3965786826,29992.1611984,7.29342727705E-10,0.0,32.106560010628,21.6594055899,13.3703362673,8.19002430555,5.90797120112,21.8486896831,28.5925287968,994.883159715,8.90942039323E-4,629.897735559,411.866747264,-0.0,0.0,-0.0,-1.27008227526E-5,-1.87879274014E-4,-6.14675711734E-5,0.0225117678323,0.223451265043
0.8,2.09556360514E7,1222.48766345,0.0,-25.6852371266,1528.10907985,0.0,0.0,0.00149319728611,25.5960918767,29989.7615649,1.08869831813E-9,0.0,32.10656737563251,24.9126468382,15.0929623289,9.5504127604,5.30378516438,21.9007114157,28.4118147599,994.89346549,8.91020598059E-4,629.966327899,411.875280182,-0.0,0.0,-0.0,-1.30319583188E-5,-2.15249411109E-4,-6.9810818922E-5,0.0257274701344,0.291880492581
0.9,2.09556333223E7,1375.29856168,0.0,-28.8958942671,1528.10888084,0.0,0.0,0.00188982801993,28.7956058524,29987.04198,1.55011950758E-9,0.0,32.1065757225443,28.2164263298,16.7446798079,10.9568912405,4.70199740827,21.9007462235,28.2381735835,994.905145244,8.91109637729E-4,630.044073221,411.884950825,-0.0,0.0,-0.0,-1.29987652455E-5,-2.42180192069E-4,-7.80649918537E-5,0.0289430666351,0.369448227936
1.0,2.09556302722E7,1528.10943884,0.0,-32.1065522899,1528.10865842,0.0,0.0,0.00233312129432,31.9951207073,29984.0024437,2.12636454625E-9,0.0,32.10658505146338,31.5724125766,18.3176143783,12.4082137699,4.1048761541,21.8497963462,28.0718622526,994.918198929,8.91209160745E-4,630.130974278,411.895759196,-0.0,0.0,-0.0,-1.26103113049E-5,-2.68493102867E-4,-8.62376618989E-5,0.0321585441162,0.456159952284
1.1,2.0955626901E7,1680.92029258,0.0,-35.317211293,1528.10841259,0.0,0.0,0.00282307714305,35.194636539,29980.6429559,2.83019171207E-9,0.0,32.10659536238974,34.9812263436,19.8040974266,13.9025149628,3.51460319274,21.7490969262,27.9129798098,994.932626493,8.91319169807E-4,630.227034145,411.907705295,-0.0,0.0,-0.0,-1.18781385113E-5,-2.9401758505E-4,-9.43361802913E-5,0.035373889362,0.552021792894
1.2,2.09556232087E7,1833.73112058,0.0,-38.5278713744,1528.10814335,0.0,0.0,0.0033596956031,38.3941534453,29976.9635164,3.67435929426E-9,0.0,32.106606655323404,38.4423148871,21.1967568578,15.4371620556,2.9332667165,21.6001011763,27.7614739906,994.948427878,8.91439667896E-4,630.332256222,411.920789123,-0.0,0.0,-0.0,-1.08161066538E-5,-3.18592232668E-4,-1.02367460095E-4,0.0385890891593,0.657040523544
1.3,2.09556191954E7,1986.54192047,0.0,-41.7385326322,1528.10785069,0.0,0.0,0.00394297671671,41.5936715239,29972.9641251,4.6716256176E-9,0.0,32.106618930264354,41.953840622,22.4886186482,17.0086209834,2.36285489995,21.4044652724,27.6171498978,994.96560302,8.91570658278E-4,630.446644236,411.935010682,-0.0,0.0,-0.0,-9.44022690389E-6,-3.42065877904E-4,-1.10337778879E-4,0.0418041302982,0.771223564982
1.4,2.0955614861E7,2139.35268993,0.0,-44.9491951643,1528.10753462,0.0,0.0,0.00457292052773,44.7931908725,29968.644782,5.83474902421E-9,0.0,32.10663218721262,45.5125948581,23.6732170297,18.6123473601,1.80525010096,21.1640330351,27.4796804577,994.98415185,8.91712144505E-4,630.570202236,411.950369974,-0.0,0.0,-0.0,-7.76848650319E-6,-3.6429856428E-4,-1.18252604797E-4,0.0450189995716,0.894578985429
1.5,2.09556102056E7,2292.16342662,0.0,-48.1598590688,1528.10719514,0.0,0.0,0.00524952708481,47.9927115887,29964.0054869,7.17648788659E-9,0.0,32.106646426168204,49.1139480793,24.7447099868,20.2427139777,1.26222357407,20.8808204302,27.348618392,995.004074293,8.91864130413E-4,630.702934595,411.966867001,-0.0,0.0,-0.0,-5.82066531767E-6,-3.85162406342E-4,-1.26116448647E-4,0.0482336837765,1.02711550113
1.6,2.09556052291E7,2444.97412818,0.0,-51.3705244438,1528.10683224,0.0,0.0,0.0059727964389,51.1922337702,29959.0462397,8.70960060236E-9,0.0,32.10666164713111,52.7518479362,25.6979955075,21.8929860781,0.735430613566,20.5569998967,27.2234094267,995.025370271,8.92026620121E-4,630.844846015,411.984501765,-0.0,0.0,-0.0,-3.61814489917E-6,-4.04542334499E-4,-1.33932743808E-4,0.0514481697132,1.16884247693
1.7,2.09555999315E7,2597.78479228,0.0,-54.5811913872,1528.10644594,0.0,0.0,0.0067427286453,54.3917575148,29953.7670401,1.04468456099E-8,0.0,32.10667785010134,56.4188743535,26.5288229289,23.5553538332,0.22640607048,20.1948844953,27.1034064584,995.048039696,8.92199618035E-4,630.995941519,412.003274268,-0.0,0.0,-0.0,-1.18371063226E-6,-4.22336723457E-4,-1.41703755236E-4,0.0546624441865,1.31976992695
1.8,2.09555943128E7,2750.59541659,0.0,-57.7918599972,1528.10603622,0.0,0.0,0.00755932376296,57.5912829201,29948.1678881,1.24009813763E-8,0.0,32.106695035078914,60.1063577667,27.2338929386,25.2210280589,-0.263439784187,19.796911861,26.9878843963,995.072082478,8.92383128845E-4,631.156226458,412.023184512,-0.0,0.0,-0.0,1.45865244011E-6,-4.38457902351E-4,-1.49430518057E-4,0.0578764940051,1.47990851522
1.9,2.09555883731E7,2903.40599875,0.0,-61.0025303716,1528.10560308,0.0,0.0,0.00842258185406,60.7908100838,29942.2487834,1.45847664119E-8,0.0,32.10671320206384,63.8045616189,27.8109395406,26.8804002808,-0.732825050827,19.3656279439,26.8760554035,995.09749852,8.92577157527E-4,631.325706507,412.0442325,-0.0,0.0,-0.0,4.28396943014E-6,-4.52832544485E-4,-1.57112805603E-4,0.0610903059827,1.64926955643
2.0,2.09555821123E7,3056.21653642,0.0,-64.2132026086,1528.10514654,0.0,0.0,0.00933250298443,63.9903391036,29936.009726,1.70109592541E-8,0.0,32.10673235115612,67.502924329,28.2587877123,28.5232623483,-1.18059962307,18.9036705275,26.7670842666,995.124287721,8.92781709342E-4,631.504387669,412.066418234,-0.0,0.0,-0.0,7.26649022555E-6,-4.6540193451E-4,-1.64749126113E-4,0.0643038669378,1.82786501669
2.1,2.09555755305E7,3209.02702727,0.0,-67.4238768062,1528.10466658,0.0,0.0,0.0102890872247,67.1898700772,29929.4507155,1.96923184963E-8,0.0,32.10675248215575,71.1903497472,28.5773816453,30.1390745986,-1.60574819439,18.4137525237,26.6601036353,995.152449972,8.92996789834E-4,631.692276273,412.089741717,-0.0,0.0,-0.0,1.03799078855E-5,-4.76122111028E-4,-1.7233674677E-4,0.0675171636938,2.01570751436
2.2,2.09555686275E7,3361.83746896,0.0,-70.6345530625,1528.1041632,0.0,0.0,0.0112923346462,70.3894031023,29922.5717519,2.26416027611E-8,0.0,32.10677359526278,74.8555296227,28.7677803056,31.7172660922,-2.00739278637,17.8986450632,26.5542288858,995.181985161,8.93222404837E-4,631.889378971,412.114202951,-0.0,0.0,-0.0,1.35975795498E-5,-4.84963882968E-4,-1.79871743144E-4,0.0707301830798,2.21281032088
2.3,2.09555614036E7,3514.64785913,0.0,-73.8452314753,1528.10363642,0.0,0.0,0.0123422453257,73.5889382766,29915.3728349,2.58715707139E-8,0.0,32.10679569037719,78.4872777602,28.8321193954,33.2475466085,-2.38479472302,17.3611604139,26.448572382,995.212893168,8.93458560468E-4,632.095702747,412.139801941,-0.0,0.0,-0.0,1.68927483536E-5,-4.91912718807E-4,-1.87349071704E-4,0.0739429119304,2.41918736168
2.4,2.09555538585E7,3667.45819546,0.0,-77.0559121429,1528.10308622,0.0,0.0,0.0134388193438,76.7884756977,29907.8539642,2.9394981076E-8,0.0,32.10681876749901,82.0748540642,28.7735413413,34.7202086321,-2.7373559682,16.8041347892,26.3422569254,995.245173871,8.93705263131E-4,632.311254909,412.166538689,-0.0,0.0,-0.0,2.02387645965E-5,-4.96968508587E-4,-1.94762662601E-4,0.0771553370865,2.63485321714
2.5,2.09555459924E7,3820.2684756,0.0,-80.2665951632,1528.10251261,0.0,0.0,0.0145820567846,79.9880154635,29900.0151396,3.32245926188E-8,0.0,32.10684282672823,85.6082578399,28.5960973419,36.1263987526,-3.06461974162,16.2304111212,26.234428212,995.278827138,8.93962519515E-4,632.536043093,412.194413198,-0.0,0.0,-0.0,2.36093041946E-5,-5.00145199953E-4,-2.02105529641E-4,0.0803674453948,2.85982312357
2.6,2.09555378052E7,3973.0786972,0.0,-83.4772806342,1528.10191558,0.0,0.0,0.0157719577349,83.1875576714,29891.856361,3.73731641624E-8,0.0,32.10686786796488,89.0784733166,28.3046274468,37.4583415181,-3.36627033242,15.6428219044,26.124266139,995.313852835,8.94230336597E-4,632.770075264,412.223425471,-0.0,0.0,-0.0,2.69785822582E-5,-5.01470310846E-4,-2.09369894086E-4,0.0835792237088,3.09411297424
2.7,2.09555292969E7,4125.88885793,0.0,-86.687968654,1528.10129514,0.0,0.0,0.0170085222861,86.3871024194,29883.377628,4.18534545719E-8,0.0,32.106893891208976,92.4776557121,27.9046258853,38.7095041611,-3.64213203806,15.0441722287,26.0109948329,995.350250822,8.94508721639E-4,633.013359713,412.253575513,-0.0,0.0,-0.0,3.03215595058E-5,-5.00984323117E-4,-2.1654731882E-4,0.0867906588886,3.33773932047
2.8,2.09555204676E7,4278.69895545,0.0,-89.8986593207,1528.10065129,0.0,0.0,0.0182917505314,89.5866498049,29874.5789404,4.6678222787E-8,0.0,32.106920896560524,95.799252329,27.4020992941,39.8746968005,-3.89216716952,14.4372231416,25.893891302,995.388020952,8.94797682193E-4,633.265905061,412.284863326,-0.0,0.0,-0.0,3.36141391513E-5,-4.98739963114E-4,-2.23628849299E-4,0.0900017378014,3.59071937273
2.9,2.09555113172E7,4431.50898741,0.0,-93.1093527322,1528.09998402,0.0,0.0,0.0196216425704,92.7861999259,29865.460298,5.18602277944E-8,0.0,32.106948883919536,99.0380591855,26.8034251657,40.9501087588,-4.11647308093,13.8246754903,25.7722926466,995.427163074,8.95097226094E-4,633.527720258,412.317288916,-0.0,0.0,-0.0,3.68333519026E-5,-4.94801377066E-4,-2.30605157796E-4,0.0932124473217,3.85307100185
3.0,2.09555018457E7,4584.31895147,0.0,-96.3200489865,1528.09929334,0.0,0.0,0.0209981985031,95.9857528798,29856.0217004,5.74122286361E-8,0.0,32.10697785338603,102.190218744,26.1152168737,41.9332866994,-4.31527820161,13.2091544045,25.6456017938,995.46767703,8.95407361467E-4,633.798814584,412.350852285,-0.0,0.0,-0.0,3.99575267774E-5,-4.89243210906E-4,-2.37466687552E-4,0.0964227743316,4.1248127402
3.1,2.09554920532E7,4737.1288453,0.0,-99.5307481819,1528.09857925,0.0,0.0,0.0224214184358,99.1853087645,29846.2631473,6.33469844236E-8,0.0,32.10700780486003,105.253167898,25.3442002606,42.823063897,-4.48893707061,12.5931945814,25.5132917541,995.509562659,8.95728096725E-4,634.079197647,412.385553438,-0.0,0.0,-0.0,4.29664455934E-5,-4.8214960586E-4,-2.44203793642E-4,0.0996327057209,4.40596378293
3.2,2.09554819396E7,4889.93866654,0.0,-102.741450416,1528.09784174,0.0,0.0,0.0238913024764,102.384867678,29836.1846385,6.96772543274E-8,0.0,32.10703873844153,108.225547361,24.4971052251,43.6194519427,-4.63792439684,11.9792265359,25.3749084284,995.552819792,8.96059440567E-4,634.368879386,412.421392379,-0.0,0.0,-0.0,4.58414791995E-5,-4.73613122669E-4,-2.50806877685E-4,0.102842228388,4.69654398935
3.3,2.09554715049E7,5042.74841287,0.0,-105.952155787,1528.09708082,0.0,0.0,0.0254078507368,105.584429717,29825.7861737,7.64157975872E-8,0.0,32.10707065403057,111.107084108,23.580574211,44.3235066738,-4.76282819068,11.3695639678,25.2300720215,995.597448255,8.96401401981E-4,634.667870072,412.458369112,-0.0,0.0,-0.0,4.85657037998E-5,-4.63733608594E-4,-2.57266513843E-4,0.106051329239,4.99657388418
3.4,2.09554607491E7,5195.55808193,0.0,-109.162864394,1528.09629649,0.0,0.0,0.0269710633341,108.78399498,29815.0677524,8.35753735211E-8,0.0,32.10710355182716,113.898457812,22.6010881564,44.9371794285,-4.86434203483,10.7663923872,25.0784771443,995.64344787,8.96753990244E-4,634.976180305,412.496483643,-0.0,0.0,-0.0,5.11239960511E-5,-4.52617022362E-4,-2.6357356397E-4,0.109259995188,5.30607465902
3.5,2.09554496723E7,5348.36767138,0.0,-112.373576333,1528.09548874,0.0,0.0,0.0285809403866,111.983563565,29804.0293745,9.11687414971E-8,0.0,32.10713743163131,116.601160775,21.564909368,45.4631632406,-4.94325658256,10.171759122,24.919891709,995.690818453,8.97117214921E-4,635.293821018,412.535735975,-0.0,0.0,-0.0,5.35031059888E-5,-4.40374232902E-4,-2.69719280209E-4,0.112468213161,5.62506817375
3.6,2.09554382744E7,5501.1771789,0.0,-115.584291704,1528.09465757,0.0,0.0,0.0302374820171,115.183135568,29792.6710396,9.92086609686E-8,0.0,32.107172293543044,119.217358955,20.4780400028,45.9047416927,-5.00045038834,9.5875648087,24.7541547411,995.739559813,8.97491085867E-4,635.620803476,412.576126113,-0.0,0.0,-0.0,5.56917072404E-5,-4.27119808023E-4,-2.75695393766E-4,0.115675970089,5.95357695801
3.7,2.09554265555E7,5653.98660212,0.0,-118.795010603,1528.093803,0.0,0.0,0.0319406883532,118.382711089,29780.9927473,1.07707891479E-7,0.0,32.107208137562374,121.749759714,19.3461943414,46.2656461565,-5.03688019066,9.01555644595,24.5811732432,995.789671756,8.97875613225E-4,635.957139276,412.617654063,-0.0,0.0,-0.0,5.76804243952E-5,-4.12970809133E-4,-2.81494189087E-4,0.118883252916,6.29162421275
3.8,2.09554145154E7,5806.79593871,0.0,-122.00573313,1528.092925,0.0,0.0,0.0336905595232,121.582290224,29768.9944973,1.1667919261E-7,0.0,32.10724496368933,124.201490106,18.174782783,46.5499252816,-5.05357077698,8.45732206068,24.4009182585,995.841154079,8.98270807428E-4,636.302840348,412.660319829,-0.0,0.0,-0.0,5.94618378167E-5,-3.98045607693E-4,-2.87108563052E-4,0.122090048593,6.6392338118
3.9,2.09554021543E7,5959.60518634,0.0,-125.216459382,1528.0920236,0.0,0.0,0.0354870956618,124.781873072,29756.6762891,1.26135324054E-7,0.0,32.107282771823925,126.575987885,16.9689054461,46.7618289932,-5.05160456781,7.91428701218,24.2134202841,995.894006578,8.986766792E-4,636.657918958,412.704123417,-0.0,0.0,-0.0,6.10304665787E-5,-3.8246273833E-4,-2.9253206928E-4,0.125296344083,6.99643030345
4.0,2.09553894721E7,6112.41434265,0.0,-128.427189457,1528.09109878,0.0,0.0,0.0373302969057,127.98145973,29744.0381225,1.36089045574E-7,0.0,32.107321562166184,128.876906214,15.7333533419,46.9057079673,-5.03211105962,7.38771192937,24.0187641887,995.948229041,8.99093239555E-4,637.022387702,412.749064833,-0.0,0.0,-0.0,6.23827305771E-5,-3.66339802449E-4,-2.97758947969E-4,0.128502126358,7.3632389122
4.1,2.09553764689E7,6265.22340531,0.0,-131.637923454,1528.09015054,0.0,0.0,0.0392201633956,131.181050295,29731.0799971,1.46553117017E-7,0.0,32.107361334716124,131.108032063,14.4726152761,46.9859285921,-4.99625626551,6.87869225074,23.81708378,996.003821249,8.99520499798E-4,637.396259516,412.79514408,-0.0,0.0,-0.0,6.35168932026E-5,-3.49792434852E-4,-3.02784142058E-4,0.131707382401,7.73968554036
4.2,2.09553631445E7,6418.03237198,0.0,-134.84866147,1528.08917889,0.0,0.0,0.0411566952755,134.380644866,29717.8019123,1.57540298317E-7,0.0,32.107402089273755,133.273217667,13.190888861,47.0068027429,-4.94523228792,6.38815931017,23.6085561678,996.060782982,8.99958471523E-4,637.779547668,412.842361166,-0.0,0.0,-0.0,6.44329862427E-5,-3.32933344266E-4,-3.07603300757E-4,0.134912099206,8.1257967699
4.3,2.09553494991E7,6570.84124031,0.0,-138.059403603,1528.08818382,0.0,0.0,0.0431398926949,137.58024354,29704.203868,1.69063349518E-7,0.0,32.10744382593912,135.376323987,11.8920942775,46.9725312709,-4.88024715039,5.91688288904,23.3933960519,996.119114011,9.00407166618E-4,638.172265762,412.890716096,-0.0,0.0,-0.0,6.51327189166E-5,-3.15871436998E-4,-3.12212771731E-4,0.138116263777,8.52159986422
4.4,2.09553355327E7,6723.65000796,0.0,-141.270149952,1528.08716534,0.0,0.0,0.0451697558036,140.779846415,29690.2858635,1.81135030704E-7,0.0,32.107486544812225,137.421174902,10.5798896733,46.8871598636,-4.80251500478,5.46547513448,23.1718500555,996.178814102,9.00866597262E-4,638.574427739,412.940208876,-0.0,0.0,-0.0,6.56193731224E-5,-2.9871103102E-4,-3.16609583357E-4,0.14131986313,8.92712276997
4.5,2.09553212451E7,6876.4586726,0.0,-144.480900614,1528.08612345,0.0,0.0,0.0472462847568,143.979453588,29676.0478985,1.93768102084E-7,0.0,32.1075302458931,139.411520789,9.25768731593,46.7545458337,-4.71324681828,5.03439572631,22.9441912093,996.239883017,9.01336775925E-4,638.98604788,412.990839512,-0.0,0.0,-0.0,6.58976870966E-5,-2.81551165966E-4,-3.20791418588E-4,0.144522884292,9.34239411897
4.6,2.09553066365E7,7029.26723187,0.0,-147.691655688,1528.08505813,0.0,0.0,0.0493694797131,147.179065158,29661.4899726,2.06975323967E-7,0.0,32.10757492908177,141.351010134,7.92866982781,46.5783343975,-4.61364163026,4.62395816179,22.7107136752,996.302320511,9.01817715371E-4,639.4071408,413.04260801,-0.0,0.0,-0.0,6.59737297486E-5,-2.64485012563E-4,-3.24756581998E-4,0.147725314303,9.76744323018
4.7,2.09552917068E7,7182.07568345,0.0,-150.902415272,1528.08396941,0.0,0.0,0.0515393408345,150.378681221,29646.6120854,2.20769456733E-7,0.0,32.10762059437825,143.243167937,6.59580600765,46.3619430647,-4.50487845398,4.23433701724,22.4717277837,996.366126335,9.02309428656E-4,639.837721454,413.095514377,-0.0,0.0,-0.0,6.5854767944E-5,-2.47599383216E-4,-3.28503961564E-4,0.150927140214,10.2023001116
4.8,2.0955276456E7,7334.88402497,0.0,-154.113179463,1528.08285726,0.0,0.0,0.0537558682874,153.578301877,29631.4142362,2.35163260892E-7,0.0,32.107667241882574,145.091379739,5.2618658911,46.1085528672,-4.38810888292,3.86557603921,22.2275554412,996.431300234,9.02811929131E-4,640.277805137,413.149558618,-0.0,0.0,-0.0,6.55491289722E-5,-2.30974343715E-4,-3.32032986698E-4,0.154128349088,10.6469954624
4.9,2.09552608841E7,7487.69225412,0.0,-157.323948359,1528.08172171,0.0,0.0,0.0560190622403,156.777927221,29615.8964248,2.50169497021E-7,0.0,32.10771487159476,146.898880281,3.92943482538,45.821105277,-4.26445044532,3.5175969148,21.9785259485,996.497841947,9.03325230439E-4,640.727407484,413.204740742,-0.0,0.0,-0.0,6.50660603516E-5,-2.1468292441E-4,-3.35343583925E-4,0.157328928002,11.101560675
5.0,2.09552449912E7,7640.50036854,0.0,-160.53472206,1528.08056273,0.0,0.0,0.0583289228663,159.977557353,29600.0586506,2.65800925835E-7,0.0,32.10776348351483,148.668745886,2.6009264276,45.5023037913,-4.13498073581,3.19020857135,21.7249722576,996.565751209,9.03849346518E-4,641.18654447,413.261060753,-0.0,0.0,-0.0,6.44155890055E-5,-1.98790927749E-4,-3.38436131511E-4,0.160528864044,11.5660278371
5.1,2.09552287772E7,7793.30836588,0.0,-163.745500662,1528.07938034,0.0,0.0,0.0606854503415,163.177192369,29583.9009132,2.82070308135E-7,0.0,32.10781307764282,150.403889826,1.27859437066,45.1546192906,-4.00073233824,2.88311685849,21.4672276787,996.635027748,9.043842916E-4,641.655232411,413.31851866,-0.0,0.0,-0.0,6.36083816948E-5,-1.83356827801E-4,-3.41311414178E-4,0.163728144316,12.0404297338
5.2,2.09552122421E7,7946.11624382,0.0,-166.956284264,1528.07817453,0.0,0.0,0.0630886448464,166.376832368,29567.423212,2.98990404823E-7,0.0,32.107863653878745,152.107060031,-0.0354570044838,44.780298395,-3.8626885407,2.59593447171,21.2056230381,996.705671287,9.04930080215E-4,642.133487965,413.377114469,-0.0,0.0,-0.0,6.26556084194E-5,-1.68431756305E-4,-3.43970578876E-4,0.166926755934,12.5247998502
5.3,2.09551953859E7,8098.92400001,0.0,-170.167072964,1528.07694531,0.0,0.0,0.065538506563,169.576477447,29550.6255465,3.16573976911E-7,0.0,32.107915212422654,153.780838621,-1.33926321193,44.3813741505,-3.72177983119,2.32819098405,20.9404842774,996.777681546,9.05486727183E-4,642.621328136,413.436848188,-0.0,0.0,-0.0,6.15688103102E-5,-1.54059568878E-4,-3.46415092444E-4,0.170124686027,13.0191723731
5.4,2.09551782087E7,8251.7316321,0.0,-173.377866859,1528.07569267,0.0,0.0,0.0680350356805,172.776127704,29533.5079163,3.34833785542E-7,0.0,32.10796775317455,155.427642823,-2.63099121365,43.9596784761,-3.57888115219,2.07934286231,20.6721304748,996.851058235,9.06054247626E-4,643.118770267,413.497719823,-0.0,0.0,-0.0,6.03597733356E-5,-1.40276984363E-4,-3.48646701793E-4,0.173321921737,13.5235821938
5.5,2.09551607104E7,8404.53913776,0.0,-176.588666049,1528.07441662,0.0,0.0,0.0705782323872,175.975783237,29516.0703208,3.53782591958E-7,0.0,32.108021276134465,157.049726927,-3.90893199953,43.5168558881,-3.4348098828,1.84878335501,20.4008722634,996.925801063,9.06632656959E-4,643.625832048,413.559729383,-0.0,0.0,-0.0,5.904040894E-5,-1.27113789754E-4,-3.50667397108E-4,0.176518450222,14.0380649102
5.6,2.0955142891E7,8557.34651465,0.0,-179.799470631,1528.07311714,0.0,0.0,0.0731680968789,179.175444143,29498.3127595,3.73433157508E-7,0.0,32.108075781302446,158.649184996,-5.17149406259,43.0543780891,-3.29032450969,1.635852151,20.1270106151,997.001909732,9.07221970895E-4,644.142531515,413.622876875,-0.0,0.0,-0.0,5.7622642529E-5,-1.14593102838E-4,-3.52479378383E-4,0.179714258652,14.5626568294
5.7,2.09551247505E7,8710.15376041,0.0,-183.010280703,1528.07179425,0.0,0.0,0.0758046293533,182.37511052,29480.2352318,3.93798243688E-7,0.0,32.10813126877849,160.227954125,-6.41719767346,42.5735590786,-3.14612394184,1.43984472004,19.8508359563,997.079383937,9.07822205445E-4,644.668887048,413.687162306,-0.0,0.0,-0.0,5.61183105144E-5,-1.02731684556E-4,-3.54085025497E-4,0.182909334213,15.0973949698
5.8,2.09551062889E7,8862.96087272,0.0,-186.221096363,1528.07044795,0.0,0.0,0.0784878300107,185.574782465,29461.8377372,4.14890612064E-7,0.0,32.10818773846267,161.787818063,-7.64466985887,42.07557049,-3.00284741949,1.26002125914,19.5726275771,997.158223371,9.08433376917E-4,645.204917376,413.752585685,-0.0,0.0,-0.0,5.45390664453E-5,-9.15402930284E-5,-3.55486871896E-4,0.186103664107,15.642317064
5.9,2.09550875063E7,9015.76784922,0.0,-189.431917709,1528.06907822,0.0,0.0,0.0812176990568,188.774460078,29443.1202751,4.36723024383E-7,0.0,32.10824519045497,163.330411087,-8.85263999237,41.5614569131,-2.86107496434,1.09561518114,19.2926532989,997.238427719,9.09055501918E-4,645.750641574,413.819147019,-0.0,0.0,-0.0,5.2896296567E-5,-8.10240713957E-5,-3.56687581829E-4,0.189297235548,16.1974615611
6.0,2.09550684025E7,9168.57468758,0.0,-192.642744839,1528.06768508,0.0,0.0,0.0839942366989,191.974143454,29424.082845,4.59308242481E-7,0.0,32.10830362475545,164.85722202,-10.0399359106,41.0321509938,-2.72132831605,0.945841093769,19.0111693606,997.319996661,9.09688597354E-4,646.306079066,413.886846316,-0.0,0.0,-0.0,5.1201044986E-5,-7.11829618E-5,-3.57689931027E-4,0.192490035768,16.7628676297
6.1,2.09550489777E7,9321.38138546,0.0,-195.853577852,1528.06626852,0.0,0.0,0.0868174431504,195.173832692,29404.7254462,4.82659028325E-7,0.0,32.10836304126413,166.369598343,-11.2054804753,40.4884881425,-2.58407229912,0.809902229695,18.7284204887,997.402929873,9.10332680431E-4,646.871249626,413.955683586,-0.0,0.0,-0.0,4.94639484696E-5,-6.20121382341E-5,-3.58496790622E-4,0.195682052013,17.3385751598
6.2,2.09550292318E7,9474.1879405,0.0,-199.064416845,1528.06482854,0.0,0.0,0.0896873186257,198.37352789,29385.0480783,5.06788144016E-7,0.0,32.10842344008105,167.868750351,-12.3482885076,39.9312207072,-2.4497165645,0.686997298611,18.4446401164,997.487227025,9.10987768654E-4,647.446173379,414.025658836,-0.0,0.0,-0.0,4.7695180769E-5,-5.35024513774E-5,-3.59111114045E-4,0.198873271547,17.9246247662
6.3,2.09550091648E7,9626.99435038,0.0,-202.275261916,1528.06336515,0.0,0.0,0.0926038633451,201.573229146,29365.0507405,5.31708351778E-7,0.0,32.10848482130623,169.35575534,-13.4674640295,39.3610314945,-2.31861765097,0.576326742976,18.1600507202,997.57288778,9.11653879831E-4,648.0308708,414.096772075,-0.0,0.0,-0.0,4.59044062414E-5,-4.56408790406E-5,-3.59535926623E-4,0.202063681648,18.5210577909
6.4,2.09549887768E7,9779.80061275,0.0,-205.486113164,1528.06187834,0.0,0.0,0.0955670775297,204.772936556,29344.7334322,5.57432413971E-7,0.0,32.10854718473971,170.831561801,-14.5621977525,38.7785465411,-2.19108131339,0.477098388281,17.8748642455,997.6599118,9.12331032069E-4,648.625362717,414.169023311,-0.0,0.0,-0.0,4.41007424405E-5,-3.84109763736E-5,-3.59774317562E-4,0.205253269611,19.1279163061
6.5,2.09549680676E7,9932.60672527,0.0,-208.696970686,1528.06036811,0.0,0.0,0.098576961407,207.972650219,29324.0961529,5.83973093111E-7,0.0,32.10861053058152,172.296993654,-15.6317647622,38.1843470578,-2.06736506679,0.388532487277,17.5892825938,997.748298736,9.13019243778E-4,649.229670311,414.242412554,-0.0,0.0,-0.0,4.22927312625E-5,-3.17933205607E-5,-3.59829433992E-4,0.208442022747,19.7452431167
6.6,2.09549470374E7,10085.4126856,0.0,-211.907834581,1528.05883446,0.0,0.0,0.101633515206,211.172370233,29303.138902,6.11343151814E-7,0.0,32.1086748586317,173.752754497,-16.6755223514,37.5789804842,-1.94768089851,0.309866165102,17.3034981514,997.838048239,9.13718533669E-4,649.843815117,414.316939813,-0.0,0.0,-0.0,4.04883181615E-5,-2.57659453143E-5,-3.59704476743E-4,0.211629928386,20.3730817637
6.7,2.0954925686E7,10238.2184914,0.0,-215.118704947,1528.05727739,0.0,0.0,0.104736739161,214.372096695,29281.8616787,6.39555352854E-7,0.0,32.10874016919027,175.199431927,-17.6929079607,36.962970604,-1.83219810333,0.240357278856,17.0176943378,997.929159951,9.14428920757E-4,650.467819026,414.392605096,-0.0,0.0,-0.0,3.8694838897E-5,-2.03047610762E-5,-3.59402697559E-4,0.214816973873,21.0114765266
6.8,2.09549040136E7,10391.0241403,0.0,-218.329581881,1528.0556969,0.0,0.0,0.107886633508,217.571829703,29260.2644824,6.6862245917E-7,0.0,32.10880646205728,176.637501925,-18.683437192,36.3368266865,-1.72104620031,0.179287710837,16.7320461594,998.021633511,9.15150424362E-4,651.101704284,414.469408413,-0.0,0.0,-0.0,3.69190132312E-5,-1.53839574264E-5,-3.58927397435E-4,0.218003146571,21.6604724268
6.9,2.09548820201E7,10543.82963,0.0,-221.540465482,1528.05409299,0.0,0.0,0.111083198488,220.771569354,29238.3473125,6.98557233794E-7,0.0,32.10887373723276,178.06733335,-19.6467018602,35.7010516307,-1.6143178933,0.125966119396,16.4467207541,998.115468551,9.15883064106E-4,651.745493494,414.547349773,-0.0,0.0,-0.0,3.51669449701E-5,-1.09763847809E-5,-3.58281925822E-4,0.22118843386,22.3201152305
7.0,2.09548597055E7,10696.6349581,0.0,-224.751355849,1528.05246567,0.0,0.0,0.114326434345,223.971315747,29216.1101683,7.29372439941E-7,0.0,32.108941994916755,179.48919255,-20.5823680588,35.0561490973,-1.51207204103,0.0797301752643,16.1618779172,998.210664698,9.16626859916E-4,652.399209618,414.626429186,-0.0,0.0,-0.0,3.34441277223E-5,-7.05391302136E-6,-3.57469680432E-4,0.224372823139,22.9904514516
7.1,2.09548370698E7,10849.4401223,0.0,-227.962253077,1528.05081492,0.0,0.0,0.117616341326,227.171068979,29193.5530491,7.61080840971E-7,0.0,32.10901123490928,-179.096751878,-21.4901742115,34.4026296267,-1.4143366063,0.0399483142691,15.8776705995,998.307221576,9.17381832025E-4,653.062875978,414.706646661,-0.0,0.0,-0.0,3.17554557476E-5,-3.58776523301E-6,-3.5649410745E-4,0.227556301825,23.6715283552
7.2,2.09548141131E7,11002.2451203,0.0,-231.173157267,1528.04914076,0.0,0.0,0.120952919683,230.370829148,29170.6759543,7.93695200365E-7,0.0,32.10908145731039,-177.690424157,-22.3699290907,33.7410157505,-1.32111155737,0.00602103965235,15.5942453727,998.405138801,9.18148000973E-4,653.736516254,414.788002209,-0.0,0.0,-0.0,3.01052392676E-5,-5.48825232395E-7,-3.55358701938E-4,0.230738857351,24.3633939605
7.3,2.09547908352E7,11155.0499497,0.0,-234.384068516,1528.04744317,0.0,0.0,0.12433616967,233.570596352,29147.4788831,8.27228281791E-7,0.0,32.10915266212012,-176.291836232,-23.221509784,33.0718461101,-1.23237169844,-0.0226181911649,15.3117428589,998.504415984,9.18925387605E-4,654.420154489,414.870495838,-0.0,0.0,-0.0,2.84972236269E-5,2.09208196677E-6,-3.5406700829E-4,0.233920477172,25.0660970443
7.4,2.09547672363E7,11307.8546082,0.0,-237.594986923,1528.04572217,0.0,0.0,0.127766091547,236.770370688,29123.9618348,8.61692849068E-7,0.0,32.10922484943849,-174.901082468,-24.0448595923,32.3956786113,-1.14806940923,-0.0465024595879,15.0302981194,998.605052734,9.19714013075E-4,655.113815089,414.954127561,-0.0,0.0,-0.0,2.69346117084E-5,4.36393717111E-6,-3.52622620596E-4,0.23710114876,25.7796871439
7.5,2.09547433162E7,11460.6590934,0.0,-240.805912584,1528.04397774,0.0,0.0,0.131242685573,239.970152254,29100.1248087,8.97101666147E-7,0.0,32.10929801906556,-173.518334165,-24.8399858481,31.7130926456,-1.06813727742,-0.0661312224308,14.7500410058,998.707048649,9.20513898843E-4,655.817522821,415.038897386,-0.0,0.0,-0.0,2.54200890337E-5,6.29530154087E-6,-3.51029182807E-4,0.240280859605,26.5042145609
7.6,2.09547190751E7,11613.4634029,0.0,-244.016845599,1528.0422099,0.0,0.0,0.134765952017,243.169941148,29075.9678041,9.33467497147E-7,0.0,32.10937217130136,-172.14383388,-25.6069576421,31.0246904233,-0.992490610309,-0.0819704560053,14.4710964701,998.810403328,9.2132506668E-4,656.531302819,415.124805324,-0.0,0.0,-0.0,2.39558510103E-5,7.91411832379E-6,-3.49290388638E-4,0.243459597218,27.2397303642
7.7,2.09546945128E7,11766.2675346,0.0,-247.227786065,1528.04041863,0.0,0.0,0.138335891145,246.369737467,29051.4908202,9.70803106362E-7,0.0,32.10944730594593,-170.777889569,-26.3459034513,30.3310974674,-0.92102981532,-0.0944530722044,14.193584838,998.915116361,9.22147538664E-4,657.255180582,415.211851385,-0.0,0.0,-0.0,2.25436318172E-5,9.24754116905E-6,-3.47409981122E-4,0.24663734913,27.9862863937
7.8,2.09546696295E7,11919.0714859,0.0,-250.43873408,1528.03860394,0.0,0.0,0.141952503231,249.56954131,29026.6938564,1.00912125825E-6,0.0,32.10952342299931,-169.420868566,-27.0570086638,29.6329623261,-0.853642641496,-0.103979572014,13.9176220451,999.021187333,9.22981337187E-4,657.989181977,415.300035581,-0.0,0.0,-0.0,2.11847344618E-5,1.03217881371E-5,-3.45391751808E-4,0.249814102889,28.7439352638
7.9,2.09546444251E7,12071.8752546,0.0,-253.649689743,1528.03676583,0.0,0.0,0.145615788551,252.769352774,29001.5769117,1.04843471744E-6,0.0,32.109600522661545,-168.073191427,-27.7405129972,28.9309555695,-0.790206276561,-0.110918903157,13.6433198401,999.128615825,9.23826484947E-4,658.733333236,415.389357921,-0.0,0.0,-0.0,1.98800615756E-5,1.11620202981E-5,-3.4323953955E-4,0.252989846065,29.5127303666
8.0,2.09546188996E7,12224.6788383,0.0,-256.860653152,1528.0349043,0.0,0.0,0.149325747384,255.969171956,28976.1399855,1.08875624866E-6,0.0,32.10967860473267,-166.735325657,-28.3967078113,28.2257681397,-0.730589296396,-0.115609490102,13.370785957,999.237401413,9.24683004956E-4,659.487660964,415.479818418,-0.0,0.0,-0.0,1.86301465578E-5,1.17922436296E-5,-3.40957228912E-4,0.256164566249,30.2927258761
8.1,2.0954593053E7,12377.4822346,0.0,-260.071624404,1528.03301935,0.0,0.0,0.153082380014,259.168998955,28950.3830771,1.13009861689E-6,0.0,32.10975766941272,-165.407779372,-29.0259333182,27.5181091302,-0.674653465685,-0.118360406425,13.1001242592,999.347543665,9.25550920539E-4,660.252192135,415.571417082,-0.0,0.0,-0.0,1.74351847153E-5,1.22352327763E-5,-3.38548748164E-4,0.25933825105,31.0839767511
8.2,2.09545668853E7,12530.2854414,0.0,-263.282603598,1528.03111098,0.0,0.0,0.156885686728,262.368833868,28924.3061855,1.17247458726E-6,0.0,32.10983771650176,-164.091094921,-29.6285756951,26.8087030735,-0.622255390297,-0.119452661432,12.8314348587,999.459042149,9.26430255332E-4,661.026954094,415.664153923,-0.0,0.0,-0.0,1.62950640884E-5,1.25124751278E-5,-3.36018066905E-4,0.2625108881,31.8865387397
8.3,2.09545403964E7,12683.0884561,0.0,-266.493590832,1528.02917918,0.0,0.0,0.160735667816,265.568676793,28897.90931,1.21589692503E-6,0.0,32.109918746299805,-162.785842532,-30.2050641077,26.0982868181,-0.573248023425,-0.119140574959,12.5648142139,999.571896422,9.27321033286E-4,661.81197456,415.758028955,-0.0,0.0,-0.0,1.52093956895E-5,1.26441335908E-5,-3.33369193323E-4,0.26568246505,32.7004683822
8.4,2.09545135865E7,12835.8912764,0.0,-269.704586204,1528.02722397,0.0,0.0,0.164632323572,268.768527828,28871.1924498,1.26037839573E-6,0.0,32.11000075850692,-161.492614,-30.7558676552,25.3876060783,-0.527482028855,-0.117653216403,12.3003552079,999.68610604,9.28223278667E-4,662.607281627,415.853042187,-0.0,0.0,-0.0,1.41775429206E-5,1.26490263862E-5,-3.30606171127E-4,0.268852969574,33.5258230159
8.5,2.09544864555E7,12988.6939001,0.0,-272.915589811,1528.02524533,0.0,0.0,0.168575654294,271.968387071,28844.1556042,1.30593176495E-6,0.0,32.11008375342313,-160.2120165,-31.2814922489,24.677411739,-0.484807005815,-0.115195886173,12.0381472115,999.801670553,9.29137016054E-4,663.412903762,415.949193632,-0.0,0.0,-0.0,1.3198649973E-5,1.25446221831E-5,-3.27733076176E-4,0.272022389365,34.3626607781
8.6,2.09544590034E7,13141.4963247,0.0,-276.126601753,1528.02324326,0.0,0.0,0.172565660283,275.168254618,28816.7987721,1.35256979853E-6,0.0,32.110167730848495,-158.944666549,-31.7824774385,23.9684559974,-0.445072580762,-0.111951619896,11.7782761322,999.918589504,9.30062270344E-4,664.228869812,416.046483302,-0.0,0.0,-0.0,1.22716690443E-5,1.23470488879E-5,-3.2475401284E-4,0.275190712141,35.2110406102
8.7,2.09544312302E7,13294.2985479,0.0,-279.337622127,1528.02121778,0.0,0.0,0.176602341842,278.368130569,28789.121953,1.40030526249E-6,0.0,32.11025269088306,-157.691184177,-32.2593932038,23.261488419,-0.408129372201,-0.108082697867,11.5208244527,1000.03686243,9.3099906675E-4,665.055208999,416.144911208,-0.0,0.0,-0.0,1.13953862446E-5,1.20711144303E-5,-3.21673110139E-4,0.278357925638,36.0710222621
8.8,2.09544031359E7,13447.1005675,0.0,-282.548651032,1528.01916887,0.0,0.0,0.18068569928,281.56801502,28761.1251457,1.449150923E-6,0.0,32.11033863352685,-156.452187348,-32.7128367267,22.5572519836,-0.373829835176,-0.103732144296,11.26587126,1000.15648887,9.31947430803E-4,665.891950927,416.244477362,-0.0,0.0,-0.0,1.05684460881E-5,1.17303379392E-5,-3.18494517673E-4,0.281524017617,36.9426662958
8.9,2.09543747205E7,13599.9023809,0.0,-285.759688564,1528.01709653,0.0,0.0,0.184815732909,284.76790807,28732.8083497,1.49911954647E-6,0.0,32.11042555877993,-155.228286679,-33.1434291636,21.8564791904,-0.342028992514,-0.0990252029245,11.0134922683,1000.27746836,9.32907388352E-4,666.73912558,416.345181777,-0.0,0.0,-0.0,9.78937450027E-6,1.13369897595E-5,-3.15222401404E-4,0.28468897586,37.8260340895
9.0,2.0954345984E7,13752.703986,0.0,-288.970734823,1528.01500078,0.0,0.0,0.188992443047,287.967809816,28704.1715638,1.5502238995E-6,0.0,32.11051346674234,-154.02008049,-33.5518124371,21.1598882841,-0.312585060124,-0.0940707775107,10.7637598368,1000.39980041,9.33878965566E-4,667.596763323,416.447024466,-0.0,0.0,-0.0,9.05660028997E-6,1.0902138836E-5,-3.11860939294E-4,0.287852788172,38.721187842
9.1,2.09543169263E7,13905.5053803,0.0,-292.181789907,1528.0128816,0.0,0.0,0.19321583001,291.167720356,28675.2147874,1.60247674879E-6,0.0,32.11060235731413,-152.828150227,-33.9386460635,20.4681796604,-0.28535997388,-0.0889628275085,10.516742984,1000.52348454,9.34862188932E-4,668.464894907,416.550005439,-0.0,0.0,-0.0,8.36847506296E-6,1.0435706079E-5,-3.08414316865E-4,0.291015442379,39.6281905765
9.2,2.09542875476E7,14058.3065615,0.0,-295.392853914,1528.01073899,0.0,0.0,0.19748589412,294.367639787,28645.9380195,1.65589086133E-6,0.0,32.11069223059534,-151.65305627,-34.3046040385,19.7820324978,-0.260219825592,-0.0837817109692,10.2725073991,1000.64852027,9.3585708526E-4,669.343551465,416.654124711,-0.0,0.0,-0.0,7.72329157024E-6,9.94652241577E-6,-3.04886722678E-4,0.294176926333,40.5471061451
9.3,2.09542578478E7,14211.1075273,0.0,-298.603926941,1528.00857296,0.0,0.0,0.201802635705,297.567568208,28616.3412591,1.71047900425E-6,0.0,32.110783086586025,-150.495334164,-34.6503717957,19.1021016577,-0.237035215561,-0.0785954682922,10.0311154536,1000.7749071,9.3686368168E-4,670.232764519,416.759382293,-0.0,0.0,-0.0,7.11930050379E-6,9.44239033316E-6,-3.0128234378E-4,0.297337227907,41.4779992332
9.4,2.09542278268E7,14363.9082753,0.0,-301.815009087,1528.00638351,0.0,0.0,0.206166055094,300.767505717,28586.4245055,1.76625394491E-6,0.0,32.11087492518623,-149.355491284,-34.9766432573,18.4290148843,-0.215681529091,-0.0734610419086,9.79262621214,1000.90264455,9.37882005647E-4,671.132565977,416.8657782,-0.0,0.0,-0.0,6.55472576657E-6,8.93014782057E-6,-2.97605361134E-4,0.300496334998,42.4209353632
9.5,2.09541974848E7,14516.7088032,0.0,-305.02610045,1528.00417063,0.0,0.0,0.21057615262,303.96745241,28556.1877577,1.82322845085E-6,0.0,32.110967746596,-148.234003929,-35.2841179921,17.76337033,-0.196039144103,-0.0684254283201,9.55709544375,1001.0317321,9.38912084936E-4,672.042988137,416.973312443,-0.0,0.0,-0.0,6.02777825707E-6,8.4157337239E-6,-2.93859945064E-4,0.303654235526,43.3759808999
9.6,2.09541668216E7,14669.5091087,0.0,-308.237201127,1528.00193432,0.0,0.0,0.21503292862,307.167408386,28525.6310147,1.88141528982E-6,0.0,32.11106155071539,-147.131314869,-35.573498495,17.1057344222,-0.177993576784,-0.0635267601175,9.32457563516,1001.16216926,9.39953947649E-4,672.964063687,417.081985035,-0.0,0.0,-0.0,5.5366682188E-6,7.90425362848E-6,-2.90050250721E-4,0.306810917436,44.343203054
9.7,2.09541358373E7,14822.3091893,0.0,-311.448311219,1527.99967459,0.0,0.0,0.219536383434,310.367373743,28494.7542757,1.94082722976E-6,0.0,32.11115633754445,-146.047831319,-35.8454876017,16.4566400805,-0.161435571883,-0.0587953166801,9.09511600549,1001.29395551,9.41007622213E-4,673.895825709,417.191795992,-0.0,0.0,-0.0,5.07961621427E-6,7.40004549052E-6,-2.86180413605E-4,0.309966368697,45.3226698873
9.8,2.09541045319E7,14975.1090428,0.0,-314.659430821,1527.99739144,0.0,0.0,0.224086517406,313.567348578,28463.5575397,2.00147703884E-6,0.0,32.11125210718323,-144.983923351,-36.1007860482,15.8165852869,-0.146261143951,-0.0542544632072,8.86876252341,1001.42709033,9.42073137378E-4,674.838307676,417.302745324,-0.0,0.0,-0.0,4.65486278951E-6,6.90674433756E-6,-2.82254545151E-4,0.3131205773,46.3144503168
9.9,2.09540729054E7,15127.9086668,0.0,-317.870560033,1527.99508485,0.0,0.0,0.228683330883,316.767332989,28432.0408057,2.06337748542E-6,0.0,32.11134885963178,-143.939922707,-36.3400901848,15.1860320039,-0.132371575462,-0.0499215185618,8.64555792685,1001.56157321,9.43150522224E-4,675.791543458,417.414833047,-0.0,0.0,-0.0,4.26067690054E-6,6.42734545491E-6,-2.78276728389E-4,0.316273531264,47.3186141196
10.0,2.09540409578E7,15280.708059,0.0,-321.081698952,1527.99275484,0.0,0.0,0.233326824216,319.967327074,28400.2040727,2.12654133805E-6,0.0,32.11144659489015,-142.916122013,-36.5640898524,14.5654054321,-0.119673377375,-0.0458085531177,8.42554174543,1001.69740361,9.44239806159E-4,676.755567322,417.528059174,-0.0,0.0,-0.0,3.89536317665E-6,5.96426556699E-6,-2.74251013705E-4,0.319425218629,48.3352319375
10.1,2.09540086891E7,15433.507217,0.0,-324.292847677,1527.99040141,0.0,0.0,0.238016997761,323.167330931,28368.0473399,2.19098136555E-6,0.0,32.11154531295839,-141.912774361,-36.7734664231,13.9550935908,-0.10807821733,-0.0419231184061,8.20875032595,1001.834581,9.45341018918E-4,677.730413932,417.642423719,-0.0,0.0,-0.0,3.55726809767E-6,5.51940160912E-6,-2.70181414697E-4,0.322575627464,49.3643752817
10.2,2.09539760992E7,15586.3061385,0.0,-327.504006305,1527.98802454,0.0,0.0,0.242753851874,326.367344656,28335.5706062,2.25671033693E-6,0.0,32.111645013836565,-140.930093233,-36.9688910123,13.355447204,-0.0975028202703,-0.0382689108554,7.99521686089,1001.97310486,9.46454190567E-4,678.716118353,417.757926696,-0.0,0.0,-0.0,3.24478516356E-6,5.09418676608E-6,-2.66071904153E-4,0.325724745859,50.4061165375
10.3,2.09539431883E7,15739.1048212,0.0,-330.715174935,1527.98562425,0.0,0.0,0.247537386919,329.567368349,28302.7738707,2.32374102139E-6,0.0,32.11174569752471,-139.968252738,-37.1510228594,12.7667798704,-0.0878688458953,-0.0348463723243,7.78497141992,1002.11297463,9.47579351501E-4,679.712716051,417.874568119,-0.0,0.0,-0.0,2.95635913443E-6,4.68964352829E-6,-2.61926410141E-4,0.328872561932,51.4605289696
10.4,2.09539099562E7,15891.9032626,0.0,-333.926353666,1527.98320054,0.0,0.0,0.25236760326,332.767402107,28269.6571322,2.39208618832E-6,0.0,32.111847364122895,-139.02738814,-37.3205078788,12.1893684914,-0.0791027469923,-0.0316532304424,7.57804098459,1002.25418977,9.48716532448E-4,680.720242894,417.992348002,-0.0,0.0,-0.0,2.69048941845E-6,4.30643358433E-6,-2.57748812233E-4,0.332019063826,52.5276867263
10.5,2.0953876403E7,16044.7014605,0.0,-337.137542594,1527.98075339,0.0,0.0,0.257244501266,335.967446028,28236.2203899,2.46175860747E-6,0.0,32.11195001363116,-138.107596636,-37.4779773788,11.6234539337,-0.0711356122994,-0.0286849820124,7.37444948601,1002.39674973,9.49865764469E-4,681.738735157,418.11126636,-0.0,0.0,-0.0,2.44573268332E-6,3.9449044303E-6,-2.53542937868E-4,0.335164239709,53.6076648451
10.6,2.09538425287E7,16197.4994125,0.0,-340.348741818,1527.97828282,0.0,0.0,0.26216808131,339.167500209,28202.4636427,2.53277104867E-6,0.0,32.112053645949565,-137.208938357,-37.6240469428,11.0692418974,-0.0639029972114,-0.0259353228901,7.17421784549,1002.54065396,9.51027078957E-4,682.768229519,418.231323208,-0.0,0.0,-0.0,2.22070476472E-6,3.60513263101E-6,-2.49312558844E-4,0.338308077776,54.7005392572
10.7,2.09538083333E7,16350.2971163,0.0,-343.559951437,1527.97578881,0.0,0.0,0.267138343767,342.367564749,28168.3868895,2.605136282E-6,0.0,32.11215826127817,-136.331437561,-37.7593154706,10.5269039647,-0.0573447452968,-0.023396527864,6.97736401813,1002.68590189,9.5220050764E-4,683.808763069,418.352518559,-0.0,0.0,-0.0,2.01408194249E-6,3.286963717E-6,-2.45061387968E-4,0.341450566248,55.8063867931
10.8,2.09537738167E7,16503.0945695,0.0,-346.771171548,1527.97327138,0.0,0.0,0.272155289018,345.567639744,28133.9901294,2.67886707787E-6,0.0,32.11226385951703,-135.475083988,-37.8843643712,9.99657880063,-0.0514048032671,-0.0210597840949,6.78390303917,1002.83249295,9.53386082583E-4,684.860373304,418.474852429,-0.0,0.0,-0.0,1.82460165191E-6,2.99004874302E-6,-2.40793075841E-4,0.344591693371,56.9252851873
10.9,2.0953738979E7,16655.8917698,0.0,-349.98240225,1527.97073052,0.0,0.0,0.277218917444,348.767725293,28099.2733612,2.75397620677E-6,0.0,32.11237044066618,-134.639834353,-37.9997569011,9.47837348118,-0.046031031739,-0.0189154816794,6.59384707301,1002.98042658,9.54583836186E-4,685.923098133,418.598324833,-0.0,0.0,-0.0,1.65106269413E-6,2.71387757018E-6,-2.36511207803E-4,0.347731447419,58.0573130838
11.0,2.09537038202E7,16808.6887148,0.0,-353.19364364,1527.96816623,0.0,0.0,0.282329229434,351.967821494,28064.2365839,2.83047643952E-6,0.0,32.11247800482571,-133.825613938,-38.1060376409,8.9723649234,-0.0411750138414,-0.0169534648475,6.40720546486,1003.1297022,9.55793801186E-4,686.996975879,418.722935786,-0.0,0.0,-0.0,1.49232500607E-6,2.45780896433E-6,-2.32219301033E-4,0.350869816693,59.2025500412
11.1,2.09536683403E7,16961.4854022,0.0,-356.404895817,1527.96557851,0.0,0.0,0.287486225377,355.167928445,28028.8797965,2.90838054714E-6,0.0,32.112586551995655,-133.032318265,-38.2037321005,8.47860139389,-0.036791863455,-0.0151632472309,6.22398479475,1003.28031922,9.57016010659E-4,688.082045278,418.848685303,-0.0,0.0,-0.0,1.34730904632E-6,2.22109762837E-6,-2.27920801793E-4,0.354006789519,60.361076538
11.2,2.09536325392E7,17114.2818297,0.0,-359.616158879,1527.96296736,0.0,0.0,0.292689905667,358.368046242,27993.2029979,2.9877013009E-6,0.0,32.112696082176086,-132.259814835,-38.2933464451,7.99710407413,-0.032840034627,-0.0135341945199,6.04418893381,1003.43227707,9.58250498022E-4,689.178345485,418.9755734,-0.0,0.0,-0.0,1.21499484949E-6,2.00291830633E-6,-2.23619082847E-4,0.357142354253,61.5329739781
11.3,2.09535964171E7,17267.0779949,0.0,-362.827432924,1527.96033278,0.0,0.0,0.297940270702,361.568174984,27957.2061869,3.06845147229E-6,0.0,32.112806595367054,-131.507944891,-38.3753673331,7.52786866258,-0.0292811334762,-0.0120556776999,5.86781910282,1003.58557515,9.59497297031E-4,690.285916071,419.103600092,-0.0,0.0,-0.0,1.09442079785E-6,1.80238711287E-6,-2.19317441019E-4,0.360276499276,62.7183246962
11.4,2.09535599738E7,17419.8738955,0.0,-366.03871805,1527.95767477,0.0,0.0,0.303237320882,364.76831477,27920.8893625,3.15064383308E-6,0.0,32.11291809166862,-130.776525208,-38.4502618566,7.0708669955,-0.026079733701,-0.0107171998996,5.69487393268,1003.74021287,9.60756441784E-4,691.404797028,419.232765395,-0.0,0.0,-0.0,9.84682154965E-7,1.61858025291E-6,-2.15019094926E-4,0.363409212997,63.917211963
11.5,2.09535232093E7,17572.6695291,0.0,-369.250014355,1527.95499333,0.0,0.0,0.308581056612,367.968465695,27884.2525236,3.23429115523E-6,0.0,32.11303057088083,-130.065349872,-38.5184775744,6.62604867022,-0.0232031966103,-0.00950849972105,5.52534952676,1003.89618962,9.62027966723E-4,692.535028771,419.363069324,-0.0,0.0,-0.0,8.84929402465E-7,1.45055030439E-6,-2.10727182863E-4,0.366540483854,65.1297199914
11.6,2.09534861238E7,17725.4648934,0.0,-372.461321938,1527.95228845,0.0,0.0,0.313971478301,371.16862786,27847.295669,3.31940621098E-6,0.0,32.11314403330376,-129.374192054,-38.5804426311,6.19334265689,-0.0206214964364,-0.00841963374187,5.35923952501,1004.05350481,9.63311906631E-4,693.676652137,419.494511897,-0.0,0.0,-0.0,7.94366417152E-7,1.29734024102E-6,-2.06444760848E-4,0.369670300313,66.3559339416
11.7,2.09534487171E7,17878.259986,0.0,-375.672640897,1527.94956015,0.0,0.0,0.319408586359,374.36880136,27810.0187976,3.40600177279E-6,0.0,32.11325847883747,-128.702805749,-38.6365659509,5.77265888615,-0.0183070515275,-0.00744104070073,5.19653516969,1004.21215782,9.64608296639E-4,694.829708391,419.627093128,-0.0,0.0,-0.0,7.12248522413E-7,1.15799537382E-6,-2.02174800826E-4,0.372798650866,67.5959399267
11.8,2.09534109892E7,18031.0548046,0.0,-378.883971329,1527.94680841,0.0,0.0,0.324892381202,377.568986294,27772.4219084,3.49409061337E-6,0.0,32.11337390738201,-128.050927477,-38.6872374992,5.36388980242,-0.0162345618921,-0.00656358968991,5.03722537247,1004.37214804,9.65917172222E-4,695.994239222,419.760813034,-0.0,0.0,-0.0,6.37880444282E-7,1.031573389E-6,-1.97920189032E-4,0.375925524034,68.8498250191
11.9,2.09533729403E7,18183.8493469,0.0,-382.095313333,1527.94403324,0.0,0.0,0.330422863249,380.76918276,27734.505,3.58368550575E-6,0.0,32.113490319137455,-127.418277939,-38.7328286034,4.966911874,-0.0143808534394,-0.00577861449585,4.88129678291,1004.53347484,9.67238569203E-4,697.170286753,419.895671631,-0.0,0.0,-0.0,5.70614199415E-7,9.17152656668E-7,-1.93683724518E-4,0.37905090837,70.1176772555
12.0,2.09533345702E7,18336.6436105,0.0,-385.306667007,1527.94123464,0.0,0.0,0.336000032923,383.969390856,27696.2680714,3.67479922311E-6,0.0,32.11360771410386,-126.804563611,-38.7736923259,4.58158705269,-0.0127247291603,-0.00507793604527,4.72873385814,1004.69613761,9.68572523752E-4,698.357893534,420.031668936,-0.0,0.0,-0.0,5.0984693919E-7,8.13838979982E-7,-1.89468117824E-4,0.38217479245,71.3995856433
12.1,2.09532958789E7,18489.437593,0.0,-388.518032449,1527.9384126,0.0,0.0,0.341623890648,387.169610679,27657.7111214,3.76744453894E-6,0.0,32.11372609218129,-126.209478284,-38.8101638808,4.2077641775,-0.0112468273969,-0.00445387473702,4.57951893348,1004.86013572,9.6991907239E-4,699.557102551,420.168804966,-0.0,0.0,-0.0,4.55018771305E-7,7.20770947708E-7,-1.85275989819E-4,0.385297164884,72.6956401664
12.2,2.09532568666E7,18642.2312922,0.0,-391.729409757,1527.93556713,0.0,0.0,0.347294436856,390.369842327,27618.8341489,3.86163422702E-6,0.0,32.11384545346979,-125.632704535,-38.8425610885,3.84528031778,-0.00992948727194,-0.0038992542682,4.43363229411,1005.02546852,9.71278251989E-4,700.767957224,420.307079737,-0.0,0.0,-0.0,4.05610577628E-7,6.37124045875E-7,-1.81109870686E-4,0.388418014308,74.0059317911
12.3,2.09532175331E7,18795.0247057,0.0,-394.94079903,1527.93269823,0.0,0.0,0.353011671978,393.570085898,27579.6371526,3.95738106131E-6,0.0,32.113965797969456,-125.073915123,-38.871184862,3.49396205287,-0.00875662127725,-0.00340739839838,4.29105224741,1005.19213539,9.72650099769E-4,701.990501411,420.446493267,-0.0,0.0,-0.0,3.61141844575E-7,5.62113675507E-7,-1.76972199063E-4,0.391537329388,75.3305524722
12.4,2.09531778784E7,18947.8178311,0.0,-398.152200366,1527.92980589,0.0,0.0,0.358775596453,396.77034149,27540.1201313,4.05469781609E-6,0.0,32.11408712578033,-124.532774325,-38.896319718,3.15362668608,-0.00771359496381,-0.00297212194036,4.15175519602,1005.36013568,9.74034653306E-4,703.224779409,420.587045572,-0.0,0.0,-0.0,3.21168520086E-7,4.94997214439E-7,-1.72865321334E-4,0.394655098821,76.6695951592
12.5,2.09531379026E7,19100.6106661,0.0,-401.363613862,1527.92689012,0.0,0.0,0.364586210718,399.9706092,27500.2830839,4.15359726585E-6,0.0,32.114209436802476,-124.008939193,-38.9182343087,2.82408339193,-0.00678711362593,-0.00258771711833,4.01571571143,1005.52946875,9.7543195053E-4,704.470835955,420.728736669,-0.0,0.0,-0.0,2.85280909139E-7,4.35075251601E-7,-1.68791491073E-4,0.397771311332,78.0231538024
12.6,2.09530976057E7,19253.4032083,0.0,-404.575039617,1527.92395092,0.0,0.0,0.370443515219,403.170889127,27460.1260091,4.25409218543E-6,0.0,32.11433273113597,-123.502060737,-38.9371819685,2.50513429614,-0.00596511582994,-0.00224893629781,3.88290660795,1005.70013393,9.76842029724E-4,705.728716231,420.871566577,-0.0,0.0,-0.0,2.53101617904E-7,3.81692112452E-7,-1.64752868622E-4,0.400885955675,79.3913233593
12.7,2.09530569876E7,19406.1954555,0.0,-407.786477729,1527.92098827,0.0,0.0,0.376347510404,406.371181369,27419.6489056,4.35619534988E-6,0.0,32.114457008680866,-123.01178504,-38.9534012716,2.19657548898,-0.00523667360495,-0.00195097196362,3.75329901701,1005.87213058,9.7826492953E-4,706.998465862,421.015535312,-0.0,0.0,-0.0,2.2428355488E-7,3.3423578438E-7,-1.60751520826E-4,0.403999020637,80.7741998005
12.8,2.09530160484E7,19558.9874052,0.0,-410.997928297,1527.9180022,0.0,0.0,0.382298196723,409.571486022,27378.8517724,4.45991953451E-6,0.0,32.11458226963724,-122.537754301,-38.9671165962,1.89819797276,-0.00459189908527,-0.00168943470525,3.62686246158,1006.04545803,9.79700688945E-4,708.280130923,421.160642892,-0.0,0.0,-0.0,1.98507995834E-7,2.92137341176E-7,-1.567894209E-4,0.407110495033,82.1718801166
12.9,2.0952974788E7,19711.7790551,0.0,-414.209391418,1527.91499268,0.0,0.0,0.38829557463,412.771803185,27337.734608,4.56527751493E-6,0.0,32.11470851390516,-122.079607809,-38.9785386921,1.60978854489,-0.00402185737319,-0.001460329861,3.50356493072,1006.22011561,9.81149347326E-4,709.573757936,421.306889335,-0.0,0.0,-0.0,1.75482717927E-7,2.54869956141E-7,-1.52868448437E-4,0.410220367709,83.5844623243
13.0,2.09529332065E7,19864.570403,0.0,-417.42086719,1527.91195973,0.0,0.0,0.394339644583,415.972132956,27296.2974113,4.67228206701E-6,0.0,32.11483574158468,-121.636982845,-38.9878652478,1.33113061838,-0.00351848537429,-0.00126003337502,3.38337295405,1006.39610265,9.8261094439E-4,710.879393876,421.454274658,-0.0,0.0,-0.0,1.54940207198E-7,2.21947584184E-7,-1.48990389547E-4,0.413328627541,85.0120454732
13.1,2.09528913038E7,20017.3614463,0.0,-420.632355712,1527.90890335,0.0,0.0,0.400430407045,419.172475432,27254.540181,4.7809459669E-6,0.0,32.11496395257588,-121.209515527,-38.9952814553,1.06200498192,-0.00307451634601,-0.00108526733235,3.26625167604,1006.57341849,9.84085520216E-4,712.197086171,421.602798881,-0.0,0.0,-0.0,1.36635942423E-7,1.92923384426E-7,-1.45156937131E-4,0.416435263436,86.454729652
13.2,2.095284908E7,20170.1521829,0.0,-423.843857082,1527.90582353,0.0,0.0,0.406567862481,422.372830712,27212.4629158,4.89128199104E-6,0.0,32.115093146978815,-120.796841583,-39.0009605694,0.802190501809,-0.0026834098925,-9.33075558406E-4,3.15216493008,1006.75206243,9.85573115243E-4,713.526882706,421.75246202,-0.0,0.0,-0.0,1.20346757387E-7,1.67387946456E-7,-1.41369691281E-4,0.419540264334,87.9126159955
13.3,2.09528065351E7,20322.9426102,0.0,-427.055371398,1527.90272027,0.0,0.0,0.412752011359,425.573198893,27170.0656144,5.00330291619E-6,0.0,32.11522332489357,-120.398597072,-39.0050644586,0.551464768339,-0.00233928713428,-8.00799598208E-4,3.04107531215,1006.93203379,9.87073770276E-4,714.868831821,421.903264096,-0.0,0.0,-0.0,1.05869282761E-7,1.44967375497E-7,-1.37630159805E-4,0.422643619202,89.385806691
13.4,2.0952763669E7,20475.7327261,0.0,-430.266898759,1527.89959357,0.0,0.0,0.418982854152,428.773580073,27127.3482756,5.11702151927E-6,0.0,32.1153544862202,-120.014419044,-39.0077441482,0.309604689318,-0.00203687078017,-6.86055328398E-4,2.93294425407,1007.11333189,9.88587526485E-4,716.22298232,422.055205124,-0.0,0.0,-0.0,9.3018467965E-8,1.25321284409E-7,-1.33939758868E-4,0.425745317042,90.8744049853
13.5,2.09527204817E7,20628.5225282,0.0,-433.478439261,1527.89644343,0.0,0.0,0.425260391335,431.97397435,27084.310898,5.23245057758E-6,0.0,32.115486631058786,-119.643946141,-39.009140351,0.0763870333536,-0.00177142983002,-5.86710400039E-4,2.82773209617,1007.29595602,9.90114425404E-4,717.589383466,422.208285126,-0.0,0.0,-0.0,8.16261827787E-8,1.08140733638E-7,-1.30299813755E-4,0.428845346885,92.3785151915
13.6,2.09526769733E7,20781.312014,0.0,-436.689993005,1527.89326986,0.0,0.0,0.431584623388,435.174381822,27040.9534803,5.34960286872E-6,0.0,32.115619759309396,-119.286819158,-39.0093839862,-0.148411074255,-0.00153872863979,-5.00862662328E-4,2.72539815927,1007.4799055,9.91654508936E-4,718.968084988,422.362504118,-0.0,0.0,-0.0,7.15398978707E-8,9.31461539967E-8,-1.26711559745E-4,0.431943697795,93.8982426959
13.7,2.09526331437E7,20934.1011814,0.0,-439.901560087,1527.89007284,0.0,0.0,0.437955550795,438.374802586,26997.2760212,5.46849117052E-6,0.0,32.1157538711721,-118.942681542,-39.008596685,-0.365011700323,-0.00133498008605,-4.26819676055E-4,2.62590081603,1007.66517961,9.93207819355E-4,720.359137083,422.517862121,-0.0,0.0,-0.0,6.26214429329E-8,8.0085281469E-8,-1.23176143088E-4,0.435040358867,95.433693965
13.8,2.0952588993E7,21086.8900278,0.0,-443.113140606,1527.88685239,0.0,0.0,0.444373174042,441.575236741,26953.2785193,5.58912826118E-6,0.0,32.11588896644695,-118.611179856,-39.006891282,-0.573635694546,-0.0011568025729,-3.63079390161E-4,2.5291975614,1007.85177765,9.94774399301E-4,721.762590415,422.674359153,-0.0,0.0,-0.0,5.47458407025E-8,6.87311280999E-8,-1.19694622094E-4,0.438135319228,96.9849765524
13.9,2.09525445211E7,21239.6785511,0.0,-446.32473466,1527.8836085,0.0,0.0,0.450837493619,444.775684383,26908.9609734,5.71152691908E-6,0.0,32.116025045434064,-118.29196419,-39.0043722903,-0.77450231957,-0.00100118063233,-3.08312024833E-4,2.43524508212,1008.03969891,9.96354291788E-4,723.178496121,422.831995233,-0.0,0.0,-0.0,4.7800214809E-8,5.88800084192E-8,-1.16267968316E-4,0.441228568039,98.5521991062
14.0,2.0952499728E7,21392.4667487,0.0,-449.536342347,1527.88034116,0.0,0.0,0.45734851002,447.976145612,26864.323382,5.835699923E-6,0.0,32.11616210793346,-117.984688544,-39.001136363,-0.967828917782,-8.65428877438E-4,-2.61343179387E-4,2.34399932542,1008.22894266,9.97947540203E-4,724.60690581,422.990770381,-0.0,0.0,-0.0,4.16827691096E-8,5.03496367582E-8,-1.12897067826E-4,0.44432009449,100.135471376
14.1,2.09524546138E7,21545.2546185,0.0,-452.747963766,1527.87705039,0.0,0.0,0.463906223742,451.176620525,26819.3657438,5.96166005199E-6,0.0,32.11630015404526,-117.689011159,-38.9972727366,-1.15383061232,-7.47159077245E-4,-2.21138162499E-4,2.25541556644,1008.4195082,9.99554188306E-4,726.047871569,423.150684616,-0.0,0.0,-0.0,3.63018359506E-8,4.29773071998E-8,-1.09582722591E-4,0.447409887805,101.73490422
14.2,2.09524091784E7,21698.042158,0.0,-455.959599015,1527.87373618,0.0,0.0,0.470510635287,454.377109219,26774.0880574,6.08942008537E-6,0.0,32.11643918376951,-117.404594822,-38.9928636596,-1.33272003992,-6.44250131653E-4,-1.86787525444E-4,2.16944847469,1008.61139478,0.00100117428023,727.501445962,423.311737958,-0.0,0.0,-0.0,3.15749906259E-8,3.66181647479E-8,-1.06325651926E-4,0.450497937242,103.350609613
14.3,2.09523634219E7,21850.829365,0.0,-459.171248191,1527.87039852,0.0,0.0,0.477161745158,457.577611794,26728.4903215,6.21899280275E-6,0.0,32.11657919720627,-117.131107136,-38.9879848039,-1.50470711326,-5.54820735226E-4,-1.57493765579E-4,2.08605217926,1008.80460169,0.0010028078605,728.967682034,423.473930426,-0.0,0.0,-0.0,2.74282291731E-8,3.11435735644E-8,-1.03126494032E-4,0.453584232089,104.982700653
14.4,2.09523173442E7,22003.616237,0.0,-462.382911394,1527.86703742,0.0,0.0,0.483859553864,460.778128345,26682.5725346,6.35039098411E-6,0.0,32.11672019435565,-116.86822076,-38.9827056595,-1.66999881067,-4.77204528909E-4,-1.32559156859E-4,2.00518033276,1008.99912819,0.00100445497399,730.446633315,423.63726204,-0.0,0.0,-0.0,2.37952065644E-8,2.64395857824E-8,-9.99858076073E-5,0.456668761668,106.631291568
14.5,2.09522709453E7,22156.4027717,0.0,-465.594588721,1527.86365288,0.0,0.0,0.490604061917,463.978658972,26636.3346953,6.4836274097E-6,0.0,32.1168621751177,-116.615613615,-38.9770899136,-1.82879899116,-4.09927549263E-4,-1.11374656344E-4,1.92678617397,1009.19497353,0.00100611566598,731.938353818,423.801732821,-0.0,0.0,-0.0,2.06165322944E-8,2.2405512422E-8,-9.69040735403E-5,0.459751515336,108.296497727
14.6,2.09522242252E7,22309.1889667,0.0,-468.80628027,1527.8602449,0.0,0.0,0.497395269832,467.179203773,26589.7768023,6.61871486007E-6,0.0,32.11700513969251,-116.372969072,-38.9711958122,-1.98130823271,-3.51687795266E-4,-9.34098300254E-5,1.85082258913,1009.39213698,0.00100778998212,733.442898045,423.967342788,-0.0,0.0,-0.0,1.78391203497E-8,1.89525962754E-8,-9.38816966574E-5,0.462832482481,109.978435643
14.7,2.0952177184E7,22461.9748199,0.0,-472.01798614,1527.85681348,0.0,0.0,0.504233178127,470.379762844,26542.8988541,6.75566611612E-6,0.0,32.117149087980145,-116.13997611,-38.9650765063,-2.12772369211,-3.01336743151E-4,-7.82037376383E-5,1.77724217175,1009.59061778,0.00100947796845,734.960320989,424.134091962,-0.0,0.0,-0.0,1.54155905474E-8,1.60027852707E-8,-9.0919007542E-5,0.465911652525,111.677222985
14.8,2.09521298216E7,22614.7603287,0.0,-475.229706429,1527.85335861,0.0,0.0,0.511117787326,473.580336284,26495.7008493,6.89449395905E-6,0.0,32.11729401998068,-115.91632945,-38.9587803821,-2.26823898457,-2.57862649958E-4,-6.53567139987E-5,1.70599728105,1009.79041519,0.00101117967138,736.490678136,424.301980364,-0.0,0.0,-0.0,1.330371826E-8,1.34876037237E-8,-8.80162644072E-5,0.468989014923,113.39297858
