time,eiPosition_ft_X,eiPosition_ft_Y,eiPosition_ft_Z,gePosition_ft_X,gePosition_ft_Y,gePosition_ft_Z,eiVelocity_ft_s_X,eiVelocity_ft_s_Y,eiVelocity_ft_s_Z,feVelocity_ft_s_X,feVelocity_ft_s_Y,feVelocity_ft_s_Z,altitudeMsl_ft,longitude_deg,latitude_deg,localGravity_ft_s2,eulerAngle_deg_Yaw,eulerAngle_deg_Pitch,eulerAngle_deg_Roll,bodyAngularRateWrtEi_deg_s_Roll,bodyAngularRateWrtEi_deg_s_Pitch,bodyAngularRateWrtEi_deg_s_Yaw,altitudeRateWrtMsl_ft_min,speedOfSound_ft_s,airDensity_slug_ft3,ambientPressure_lbf_ft2,ambientTemperature_dgR,aero_bodyForce_lbf_X,aero_bodyForce_lbf_Y,aero_bodyForce_lbf_Z,aero_bodyMoment_ftlbf_L,aero_bodyMoment_ftlbf_M,aero_bodyMoment_ftlbf_N,mach,dynamicPressure_lbf_ft2,trueAirspeed_nmi_h,feVelocity_ft_s_Z
0.0,2.0925646325459316E7,0.0,0.0,2.0925646325459316E7,0.0,0.0,1000.0,2525.9221945457675,0.0,6.123233995736766E-14,1000.0,-1000.0,0.0,0.0,0.0,32.1988102141521,89.99999999999999,-0.0,0.0,1.5996043844491983E-18,-0.004178074132240403,1.5996043844491983E-18,60000.0,1116.4492075028113,0.002376899999999995,2116.22,518.67,-33.00089455844678,-0.0,33.00089455844678,0.0,0.0,0.0,1.2667065858840942,2376.89990234375,837.8986206054688,-1000.0
0.009999999776482582,2.092565632220001E7,25.257572429275164,1.1321621587485447E-19,2.092565632221287E7,9.998343194073845,1.132162158748545E-19,999.3482300092185,2525.5923617553635,2.3373564851920547E-17,6.121599078283298E-14,999.6682320049255,-999.3512784353129,9.996755942702293,2.7376100339354084E-5,3.0999320844166854E-25,32.198779399783504,89.99999999999999,2.7376100329984084E-5,9.37000237023281E-15,1.5996043844491983E-18,-0.004178074132240403,1.5996043844491983E-18,59961.07670611877,1116.4108381023077,0.002376204781819402,2115.455615267414,518.6343499859156,-32.96414444800783,-1.5569623379128887E-18,32.953661386520224,0.0,0.0,0.0,1.2661291360855103,2373.87548828125,837.4878540039062,-999.3512784353129
0.019999999552965164,2.0925666312425442E7,50.51184842275742,4.601091150368753E-19,2.0925666312476855E7,19.993375382348063,4.601091150368753E-19,998.6969419521297,2525.2629028685274,4.673259041254486E-17,6.119965650560935E-14,999.3368401133242,-998.7030376068241,19.98702709004283,5.474310879868768E-5,1.2598074543213837E-24,32.19874860544808,89.99999999999999,5.474310881990144E-5,5.774134055714843E-15,1.5996043844491983E-18,-0.004178074132240403,1.5996043844491983E-18,59922.18225640945,1116.3724923109364,0.0023755101707093737,2114.6919504799566,518.5987231317812,-32.92745663730558,-1.829789468817031E-15,32.90651040279539,0.0,0.0,0.0,1.2655521631240845,2370.8564453125,837.0774536132812,-998.7030376068241
0.029999999329447746,2.0925676296140354E7,75.76283165763508,1.0624647572604984E-18,2.0925676296256024E7,29.98510025622143,1.0624647572604984E-18,998.0461255450444,2524.9338099236174,7.008325256708573E-17,6.118334267200594E-14,999.005816361018,-998.0552672327775,29.97081819176674,8.210103552372832E-5,2.9090933841525174E-24,32.19871783113113,89.99999999999999,8.210103551695524E-5,-2.2228903754357637E-15,1.5996043844491983E-18,-0.004178074132240403,1.5996043844491983E-18,59883.31603396665,1116.3341701128275,0.002374816166011418,2113.929004787933,518.5631194205919,-32.89083046783222,-4.6625119734214E-18,32.8594408332084,0.0,0.0,0.0,1.264975666999817,2367.842529296875,836.66748046875,-998.0552672327775
0.03999999910593033,2.092568627334946E7,101.01052579025124,1.8398745479123706E-18,2.092568627355508E7,39.97352148623383,1.839874547912371E-18,997.3957799740074,2524.6050823056485,8.61344915063445E-17,6.115975817249116E-14,998.6751601304928,-997.407966501144,39.94813394546509,1.0944989060302982E-4,5.0376864610623594E-24,32.19868707681806,90.0,1.094498905828977E-4,2.013210405630283E-14,1.5996043844491983E-18,-0.004178074132240403,1.5996043844491983E-18,59844.47799006864,1116.2958714923066,0.002374122767071258,2113.1667773465465,518.527538835529,-32.854265801342265,-4.129680268519958E-18,32.81245249413409,0.0,0.0,0.0,1.264399766921997,2364.833740234375,836.2578125,-997.407966501144
0.05000000074505806,2.0925696244057458E7,126.25493447080603,2.7995657768724565E-18,2.0925696244378705E7,49.95864273676834,2.7995657768724565E-18,996.7459044268983,2524.276719401016,1.0581254675378244E-16,6.113982919697805E-14,998.3448708056217,-996.761134601724,49.91897902265191,1.367896841082278E-4,7.665374743585294E-24,32.198656342494395,89.99999999999999,1.3678968410382072E-4,4.407064816169782E-15,1.5996043844491983E-18,-0.004178074132240403,1.5996043844491983E-18,59805.668076103444,1116.2575964337964,0.0023734299732370164,2112.405267313898,518.4919813598669,-32.817762500000654,-1.101493174221449E-17,32.76554520248562,0.0,0.0,0.0,1.263824224472046,2361.830078125,835.8485717773438,-996.761134601724
0.05999999865889549,2.092570620826905E7,151.49606134337046,3.956215140263658E-18,2.09257062087316E7,59.940467666065445,3.9562151402636584E-18,996.096498093427,2523.94872059749,1.255191467901946E-16,6.111995742444896E-14,998.0149477716581,-996.1147707261468,59.883358132094145,1.6412042609407844E-4,1.0832343153482247E-23,32.19862562814556,90.0,1.6412042609468275E-4,1.738760412055491E-14,1.5996043844491983E-18,-0.004178074132240403,1.5996043844491983E-18,59766.88624356881,1116.2193449215729,0.0023727377838548094,2111.644473846147,518.4564469767473,-32.78132042632036,-9.777503099679422E-18,32.71871877565186,0.0,0.0,0.0,1.2632492780685425,2358.831787109375,835.4396362304688,-996.1147707261468
0.07000000029802322,2.0925716165988922E7,176.73391004590005,5.30982602823587E-18,2.0925716166618444E7,69.91899992623624,5.3098260282358714E-18,995.447560165128,2523.6210852842105,1.4521416372168612E-16,6.110010267762285E-14,997.6853904152289,-995.4688740678589,69.84127593785524,1.9144212659849503E-4,1.4538600205724427E-23,32.198594933757036,90.0,1.91442126589296E-4,9.199020135906092E-15,1.5996043844491983E-18,-0.004178074132240403,1.5996043844491983E-18,59728.13244407153,1116.1811169400805,0.0023720461982744486,2110.8843961037724,518.4209356694713,-32.74493944323984,-1.1435753373633831E-17,32.67197303157413,0.0,0.0,0.0,1.2626748085021973,2355.838623046875,835.0311279296875,-995.4688740678589
0.07999999821186066,2.0925726117221747E7,201.96848421024856,6.86021599320094E-18,2.0925726118043903E7,79.8942431632767,6.860215993200942E-18,994.7990898353557,2523.2938128516844,1.6486674630776998E-16,6.108023405598334E-14,997.3561981243374,-994.8234438221243,79.79273710399866,2.187547956425872E-4,1.8783645582399507E-23,32.19856425931444,89.99999999999999,2.187547956133679E-4,1.1227281346015525E-14,1.5996043844491983E-18,-0.004178074132240403,1.5996043844491983E-18,59689.40662932746,1116.1429124737597,0.002371355215846327,2110.1250332481536,518.3854474213401,-32.70861941407897,-1.7716783447801384E-17,32.62530778870175,0.0,0.0,0.0,1.2621008157730103,2352.850341796875,834.6229858398438,-994.8234438221243
0.09000000357627869,2.092573606197221E7,227.1997874621817,8.578233678585477E-18,2.0925736063012645E7,89.86620101708098,8.578233678585477E-18,994.1510862992786,2522.9669026917836,1.8090501951192071E-16,6.105677963532883E-14,997.0273702883543,-994.178479186016,89.73774629458785,2.460584432306973E-4,2.3487660552315993E-23,32.19853360480323,89.99999999999997,2.460584432070184E-4,2.3678840381782088E-14,1.5996043844491983E-18,-0.004178074132240403,1.5996043844491983E-18,59650.708751160964,1116.1047315070475,0.002370664835921416,2109.366384441567,518.3499822156552,-32.67236020253751,-1.486347443388905E-17,32.57872286599014,0.0,0.0,0.0,1.2615272998809814,2349.867431640625,834.2151489257812,-994.178479186016
0.10000000149011612,2.0925746000244964E7,252.4278234213906,1.0485751219679923E-17,2.092574600152934E7,99.83487712145524,1.0485751219679926E-17,993.5035487538745,2522.640354197737,2.0059100270737417E-16,6.103700138597804E-14,996.6989062980142,-993.5339793584133,99.67630817368627,2.7335307935043827E-4,2.8710531507983964E-23,32.198502970209006,90.0,2.733530793393464E-4,2.0958776012458284E-15,1.5996043844491983E-18,-0.004178074132240403,1.5996043844491983E-18,59612.038761504795,1116.0665740243776,0.002369975057851275,2108.6084488471897,518.3145400357181,-32.636161672694016,-1.6511941920195158E-17,32.532218082899355,0.0,0.0,0.0,1.2609542608261108,2346.8896484375,833.8077392578125,-993.5339793584133
0.10999999940395355,2.0925755932044674E7,277.65259570150556,1.2629695159191409E-17,2.0925755933598623E7,109.80027510413106,1.2629695159191412E-17,992.8564763979255,2522.3141667641303,2.3287850800091447E-16,6.10298530710934E-14,996.3708055454139,-992.8899435399939,109.60842737555504,3.006387139727312E-4,3.4580744965425466E-23,32.19847235551735,90.0,3.006387139309483E-4,1.479497110899179E-14,1.5996043844491983E-18,-0.004178074132240403,1.5996043844491983E-18,59573.39661239963,1116.0284400102948,0.0023692858809901047,2107.8512256313643,518.2791208649365,-32.60002368903278,-1.774479293861352E-17,32.48579325942047,0.0,0.0,0.0,1.260381817817688,2343.9169921875,833.4006958007812,-992.8899435399939
0.11999999731779099,2.092576585737598E7,302.8741079101094,1.508188132525602E-17,2.092576585922513E7,119.76239858677926,1.508188132525602E-17,992.2098684320127,2521.9883397868994,2.6332228083738797E-16,6.102088938728533E-14,996.0430674240052,-992.2463709332312,119.53410852700472,3.2791535705184254E-4,4.129493528951244E-23,32.19844176071395,90.0,3.2791535699338296E-4,1.347969701996342E-14,1.5996043844491983E-18,-0.004178074132240403,1.5996043844491983E-18,59534.78225599387,1115.9903294493688,0.002368597304693205,2107.0947139618956,518.2437246867452,-32.56394611642136,-1.9035258871976644E-17,32.43944821605269,0.0,0.0,0.0,1.2598097324371338,2340.949462890625,832.9940185546875,-992.2463709332312
0.12999999523162842,2.0925775776243526E7,328.0923636487511,1.781682469097798E-17,2.092577577841351E7,129.72125118502333,1.7816824690977984E-17,991.5637240585118,2521.662872663329,2.9014199439787613E-16,6.100832995901016E-14,995.7156913285967,-991.6032607423896,129.4533562734723,3.551830185254213E-4,4.8783322057333786E-23,32.1984111857844,90.0,3.551830184852644E-4,1.316902317976454E-14,1.5996043844491983E-18,-0.004178074132240403,1.5996043844491983E-18,59496.195644543375,1115.9522423260942,0.0023679093283151594,2106.33891300606,518.2083514845121,-32.52792882008452,-2.0441364914905272E-17,32.39318277377688,0.0,0.0,0.0,1.2592382431030273,2337.987060546875,832.5877075195312,-991.6032607423896
0.14000000059604645,2.0925785688651945E7,353.30736651295916,2.0772993961353937E-17,2.0925785691168375E7,139.67683650845277,2.077299396135394E-17,990.9180424815864,2521.3377647920474,3.0436039951427724E-16,6.098319748848415E-14,995.3886766553434,-990.9606121735156,139.3661752231419,3.8244170831453584E-4,5.687742861249562E-23,32.1983806307144,89.99999999999999,3.824417082628114E-4,1.5740605691174848E-14,1.5996043844491983E-18,-0.004178074132240403,1.5996043844491983E-18,59457.63673041094,1115.914178625105,0.00236722195121371,2105.5838219348607,518.1730012417386,-32.49197166565578,-1.817874908313871E-15,32.34699675410682,0.0,0.0,0.0,1.2586671113967896,2335.029541015625,832.1817626953125,-990.9606121735156
0.15000000596046448,2.0925795594605856E7,378.51912009225515,2.3964865998656033E-17,2.092579559749435E7,149.62915816063662,2.396486599865604E-17,990.2728229071848,2521.0130155730235,3.311434733409605E-16,6.097065790435518E-14,995.0620228017483,-990.3184244344378,149.2725699916482,4.096914363237109E-4,6.561689240856728E-23,32.198350095489616,89.99999999999999,4.096914362552968E-4,2.343424206071237E-14,1.5996043844491983E-18,-0.004178074132240403,1.5996043844491983E-18,59419.10546606627,1115.8761383310039,0.0023665351727466593,2104.829439919623,518.1376739418994,-32.45607451913412,-1.8167166031858675E-15,32.30088997904526,0.0,0.0,0.0,1.2580965757369995,2332.0771484375,831.776123046875,-990.3184244344378
0.1599999964237213,2.0925805494109876E7,403.7276279701669,2.746036616875021E-17,2.0925805497396033E7,159.57821973913707,2.746036616875021E-17,989.628064543034,2520.6886244075613,3.615006477440502E-16,6.096172059009143E-14,994.7357291666531,-989.6766967347584,159.1725451797247,4.3693221244096517E-4,7.518769518828102E-23,32.198319580095806,90.0,4.369322123616219E-4,7.375561488792005E-15,1.5996043844491983E-18,-0.004178074132240403,1.5996043844491983E-18,59380.601804085505,1115.8381214284468,0.0023658489922734143,2104.07576613369,518.1023695685225,-32.42023724690344,-1.8154432878366495E-15,32.25486227110313,0.0,-0.0,0.0,1.2575265169143677,2329.1298828125,831.3709106445312,-989.6766967347584
0.17000000178813934,2.092581538716862E7,428.93289372424215,3.1223468539129194E-17,2.092581539087804E7,169.52402483552265,3.12234685391292E-17,988.9837665986348,2520.3645906982983,3.8825272350622965E-16,6.094920629818609E-14,994.4097951502414,-989.0354282858498,169.0661053955555,4.6416404653784707E-4,8.549119523307809E-23,32.19828908451869,89.99999999999999,4.6416404647733124E-4,1.5536021519890688E-14,1.5996043844491983E-18,-0.004178074132240403,1.5996043844491983E-18,59342.12569715099,1115.8001279020573,0.0023651634091534377,2103.3227997507215,518.0670881051092,-32.38445971571056,-1.814289030621077E-15,32.20891345327702,0.0,-0.0,0.0,1.256956934928894,2326.187744140625,830.966064453125,-989.0354282858498
0.18000000715255737,2.0925825273786683E7,454.1349209260614,3.528614525721485E-17,2.0925825277944956E7,179.4665770353813,3.528614525721486E-17,988.3399282852567,2520.0409138492005,4.239177388104342E-16,6.094563301864062E-14,994.0842201540274,-988.3946183008484,178.95325522124767,4.913869484694715E-4,9.661493258191693E-23,32.19825860874406,89.99999999999999,4.913869484091786E-4,6.317042840167884E-15,1.5996043844491983E-18,-0.004178074132240403,1.5996043844491983E-18,59303.6770980509,1115.762157736556,0.002364478422748572,2102.5705399472454,518.0318295352542,-32.34874179269527,-2.7438642629905472E-17,32.16304334907895,0.0,0.0,0.0,1.2563878297805786,2323.250732421875,830.5615844726562,-988.3946183008484
0.1899999976158142,2.0925835153968655E7,479.3337131412516,3.964103742180015E-17,2.0925835158601362E7,189.40587991833445,3.9641037421800157E-17,987.6965488159334,2519.717593265559,4.506258795514408E-16,6.093313088927607E-14,993.7590035808594,-987.7542659946511,188.83399922773242,5.186009280745579E-4,1.0853875711444133E-22,32.198228152757714,89.99999999999999,5.18600927992103E-4,1.4910791326490473E-15,1.5996043844491983E-18,-0.004178074132240403,1.5996043844491983E-18,59265.25595967907,1115.7242109167034,0.0023637940324220006,2101.8189859015165,517.9965938425922,-32.31308334537527,-1.8116965364926862E-15,32.11725178252061,0.0,-0.0,0.0,1.2558192014694214,2320.318359375,830.1574096679688,-987.7542659946511
0.20000000298023224,2.092584502771912E7,504.5292739294993,4.426651801614034E-17,2.0925845032851834E7,199.34193705804933,4.426651801614035E-17,987.0536274054572,2519.3946283539863,4.719734980007581E-16,6.091529621439769E-14,993.4341448349097,-987.1143705839091,198.7083419933915,5.458059951754643E-4,1.2120345209322867E-22,32.1981977165455,89.99999999999999,5.458059950802581E-4,1.424227111264102E-14,1.5996043844491983E-18,-0.004178074132240403,1.5996043844491983E-18,59226.86223503455,1115.6862874272274,0.002363110237536964,2101.068136792103,517.9613810107311,-32.2774842416273,-3.0394465403640487E-17,32.07153857809437,0.0,0.0,0.0,1.2552510499954224,2317.391357421875,829.753662109375,-987.1143705839091
0.20999999344348907,2.0925854895042665E7,529.7216068445636,4.910540496006391E-17,2.092585490070096E7,209.27475202225293,4.910540496006392E-17,986.4111632703747,2519.072018522412,4.950906703766798E-16,6.089925902236465E-14,993.1096433216737,-986.4749312870242,208.57628810033202,5.730021595782251E-4,1.3445244979011573E-22,32.198167300093154,90.0,5.730021595200534E-4,1.3191857209981205E-14,1.5996043844491983E-18,-0.004178074132240403,1.5996043844491983E-18,59188.49587722145,1115.6483872528381,0.002362427037457006,2100.3179917981624,517.9261910232658,-32.241944349689014,-3.189741373252372E-17,32.02590356077477,0.0,0.0,0.0,1.2546833753585815,2314.46923828125,829.3502807617188,-986.4749312870242
0.2199999988079071,2.0925864755943846E7,554.9107154342894,5.418606140291787E-17,2.092586476215328E7,219.2043283727445,5.418606140291787E-17,985.7691556289814,2518.7497631800798,5.235234778131066E-16,6.088856534655858E-14,992.7854984479677,-985.8359473241422,218.43784207850695,6.001894310725871E-4,1.4836340872605908E-22,32.1981369033867,90.0,6.001894309972483E-4,3.3709919462063123E-15,1.5996043844491983E-18,-0.004178074132240403,1.5996043844491983E-18,59150.15683944854,1115.6105103784432,0.0023617444315498525,2099.568550103695,517.8910238639775,-32.20646353821108,-3.3224866301576785E-17,31.980346556069783,0.0,0.0,0.0,1.2541162967681885,2311.552001953125,828.9472045898438,-985.8359473241422
0.23000000417232513,2.0925874610427234E7,580.0966032406208,5.955093915737295E-17,2.0925874617213357E7,229.13066966540964,5.955093915737294E-17,985.1276037013167,2518.427861737544,5.53706102155739E-16,6.087964932117947E-14,992.4617096219234,-985.1974179171496,228.2930084876716,6.27367819432046E-4,1.6305256253168015E-22,32.19810652641192,89.99999999999999,6.27367819338346E-4,1.2736050179318625E-14,1.5996043844491983E-18,-0.004178074132240403,1.5996043844491983E-18,59111.84507502897,1115.5726567888314,0.0023610624191817285,2098.8198108913048,517.8558795165408,-32.17104167617829,-3.449281729306148E-17,31.934867389941942,0.0,0.0,0.0,1.253549575805664,2308.639892578125,828.5444946289062,-985.1974179171496
0.23999999463558197,2.0925884458497375E7,605.2792737996139,6.520691505853431E-17,2.0925884465885747E7,239.05377945023247,6.520691505853431E-17,984.4865067091597,2518.106313606665,5.785510412319447E-16,6.086542339651524E-14,992.1382762529839,-984.5593422896686,238.14179188385606,6.545373344138813E-4,1.7853873912804015E-22,32.19807616915473,89.99999999999999,6.545373343127077E-4,2.2178370422010114E-15,1.5996043844491983E-18,-0.004178074132240403,1.5996043844491983E-18,59073.560537380115,1115.5348264688032,0.0023603809997196825,2098.0717733447495,517.8207579646439,-32.135678632939886,-1.806151932818138E-15,31.889465888838206,0.0,0.0,0.0,1.2529833316802979,2305.73291015625,828.1422119140625,-984.5593422896686
0.25,2.0925894300158817E7,630.4587306414498,7.117145440607837E-17,2.0925894308174975E7,248.97366127130937,7.117145440607839E-17,983.8458638760236,2517.785118200606,6.13995587975398E-16,6.0861824818066E-14,991.8151977518995,-983.9217196670498,247.9841967858374,6.81697985759194E-4,1.9486975796271592E-22,32.19804583160115,90.0,6.816979856775604E-4,1.8661735705490866E-14,1.5996043844491983E-18,-0.004178074132240403,1.5996043844491983E-18,59035.30318002299,1115.4970194032985,0.002359700172533901,2097.324436651485,517.7856591921081,-32.10037427824001,-1.8047280942670295E-15,31.844141879719714,0.0,-0.0,0.0,1.2524175643920898,2302.83056640625,827.740234375,-983.9217196670498
0.25999999046325684,2.09259041354161E7,655.6349772904481,7.748319154497306E-17,2.092590414408557E7,258.89031866686145,7.748319154497306E-17,983.2056744271512,2517.464274933829,6.47639145345928E-16,6.085645294146371E-14,991.4924735307253,-983.2845492763712,257.8202277198434,7.088497831929406E-4,2.1215139990238855E-22,32.198015513737076,89.99999999999999,7.088497830790673E-4,1.4917585724839397E-14,1.5996043844491983E-18,-0.004178074132240403,1.5996043844491983E-18,58997.07295658227,1115.4592355772254,0.0023590199369946173,2096.5777999992665,517.7505831827281,-32.06512848217435,-1.8033643820043226E-15,31.79889519001838,0.0,-0.0,0.0,1.2518523931503296,2299.933349609375,827.338623046875,-983.2845492763712
0.27000001072883606,2.0925913964273755E7,680.808017265079,8.407827775361447E-17,2.0925913973622072E7,268.8037551692479,8.40782777536145E-17,982.5659375895099,2517.1437832220927,6.689061098516883E-16,6.083873211599408E-14,991.1701030028203,-982.6478303464309,267.649889215827,7.359927364239691E-4,2.3020884390931627E-22,32.1979852155485,89.99999999999999,7.359927363222335E-4,2.7798793360788097E-15,1.5996043844491983E-18,-0.004178074132240403,1.5996043844491983E-18,58958.869820785854,1115.4214749754742,0.0023583402924723666,2095.8318625764314,517.7155299202853,-32.02994111519268,-3.971654025439099E-17,31.75372564763878,0.0,0.0,0.0,1.251287579536438,2297.041015625,826.9373779296875,-982.6478303464309
0.2800000011920929,2.0925923786736302E7,705.9778540779771,9.089301790049455E-17,2.0925923796788983E7,278.7139743049793,9.089301790049455E-17,981.9266525917867,2516.8236424824463,6.919259180732163E-16,6.082279173112013E-14,990.8480855828356,-982.011562107742,277.4731857739389,7.63126855145057E-4,2.4886768980983163E-22,32.197954937021464,89.99999999999999,7.631268550335862E-4,3.5192068815933606E-15,1.5996043844491983E-18,-0.004178074132240403,1.5996043844491983E-18,58920.69372646452,1115.3837375830456,0.002357661238340305,2095.0866235744406,517.6804993886676,-31.99481204812858,-4.120227411978423E-17,31.708633080987614,0.0,0.0,0.0,1.2507232427597046,2294.153564453125,826.5364990234375,-982.011562107742
0.28999999165534973,2.092593360280825E7,731.1444912359539,9.794490568098542E-17,2.0925933613590807E7,288.62097959472993,9.794490568098545E-17,981.2878186643842,2516.503852133228,7.184495279658611E-16,6.081038269778458E-14,990.5264206867212,-981.3757437925295,287.2901218943298,7.902521490329445E-4,2.681758349911271E-22,32.197924678142016,90.0,7.902521489355751E-4,7.409533478372651E-15,1.5996043844491983E-18,-0.004178074132240403,1.5996043844491983E-18,58882.544627551775,1115.3460233849382,0.002356982773972144,2094.3420821856153,517.645491571763,-31.959741152170867,-1.80025579720599E-15,31.663617318944496,0.0,0.0,0.0,1.250159502029419,2291.271240234375,826.1359252929688,-981.3757437925295
0.30000001192092896,2.092594341249411E7,756.3079322400105,1.053146605491616E-16,2.092594342403206E7,298.52477455335065,1.0531466054916163E-16,980.6494350394147,2516.1844115940607,7.537377099586275E-16,6.080676573950822E-14,990.205107731713,-980.7403746347247,297.1007020846009,8.173686277483687E-4,2.883542905299133E-22,32.197894438896185,90.0,8.173686276262E-4,1.4217131841514623E-14,1.5996043844491983E-18,-0.004178074132240403,1.5996043844491983E-18,58844.422478083485,1115.3083323661176,0.0023563048987416397,2093.598237602572,517.6105064534332,-31.924728298854948,-1.7988454491936552E-15,31.61867819085348,0.0,0.0,0.0,1.249596118927002,2288.3935546875,825.7357788085938,-980.7403746347247
0.3100000023841858,2.092595321579839E7,781.4681805853508,1.1297395073400612E-16,2.0925953228117216E7,308.4253626898819,1.1297395073400612E-16,980.0115009506961,2515.8653202858472,7.802206644909004E-16,6.079437100992638E-14,989.884146136334,-980.1054538699593,306.90493082255125,8.444763009361016E-4,3.093254821279537E-22,32.19786421927007,89.99999999999997,8.444763008129303E-4,1.521969377118996E-14,1.5996043844491983E-18,-0.004178074132240403,1.5996043844491983E-18,58806.32723219756,1115.2706645116612,0.0023556276120251596,2092.8550890210404,517.5755440176459,-31.889773360096747,-1.7977206223226765E-15,31.573815526555816,0.0,0.0,0.0,1.2490332126617432,2285.52099609375,825.3359375,-980.1054538699593
0.3199999928474426,2.0925963012725573E7,806.625239761394,1.2092952059462561E-16,2.0925963025850773E7,318.32274750756716,1.2092952059462561E-16,979.374015633747,2515.546577630769,8.084378227451117E-16,6.078373789352141E-14,989.5635353203919,-979.470980735563,316.70281259715557,8.715751782249853E-4,3.3110787490407796E-22,32.197834019249754,90.0,8.715751781013293E-4,1.5704376992847003E-14,1.5996043844491983E-18,-0.004178074132240403,1.5996043844491983E-18,58768.25884413378,1115.2330198065995,0.002354950913198856,2092.1126356367604,517.5406042483294,-31.854876208153186,-1.79654138905618E-15,31.529029156350653,0.0,0.0,0.0,1.2484709024429321,2282.6533203125,824.9365234375,-979.470980735563
0.33000001311302185,2.0925972803280137E7,831.779113251788,1.2919164306517398E-16,2.09259728172372E7,328.21693250386545,1.29191643065174E-16,978.736978325782,2515.228183052282,8.436295395867573E-16,6.078010669856228E-14,989.2432747049734,-978.8369544705565,326.4943518675864,8.986652692279674E-4,3.53729595261026E-22,32.19780383882143,89.99999999999999,8.986652691255217E-4,2.1481944646853356E-14,1.5996043844491983E-18,-0.004178074132240403,1.5996043844491983E-18,58730.21726823339,1115.1953982360747,0.002354274801641492,2091.370876648582,517.505687129518,-31.820036715659224,-4.740852864450052E-17,31.484318911031192,0.0,0.0,0.0,1.2479089498519897,2279.790283203125,824.5374145507812,-978.8369544705565
0.3400000035762787,2.0925982587466568E7,856.9298045344208,1.3775308696344053E-16,2.092598260228097E7,338.1079211704624,1.3775308696344056E-16,978.1003882657069,2514.91013597511,8.683083399937587E-16,6.076598990353373E-14,988.9233637124356,-978.2033743156485,336.2795531153679,9.257465835421307E-4,3.7717084291244717E-22,32.19777367797118,90.0,9.257465834132749E-4,1.1907958680325965E-14,1.5996043844491983E-18,-0.004178074132240403,1.5996043844491983E-18,58692.20245893891,1115.1577997851393,0.002353599276730837,2090.6298112545132,517.4707926451669,-31.78525475557762,-1.7940769830761583E-15,31.439684621834854,0.0,-0.0,0.0,1.2473474740982056,2276.932373046875,824.1386108398438,-978.2033743156485
0.3499999940395355,2.092599236528933E7,882.0773170814344,1.4659615587489808E-16,2.092599238098654E7,347.9957169932858,1.4659615587489808E-16,977.4642446941139,2514.5924358252455,8.947197462186216E-16,6.0753632984298E-14,988.6038017664147,-977.5702395132292,346.05842078104615,9.528191307487362E-4,4.0138316359819886E-22,32.19774353668525,90.0,9.528191306154307E-4,1.6358095126216023E-14,1.5996043844491983E-18,-0.004178074132240403,1.5996043844491983E-18,58654.21437079376,1115.1202244390004,0.0023529243378480422,2089.889438656515,517.435920779377,-31.750530201257675,-5.0180731725348464E-17,31.39512612050037,0.0,0.0,0.0,1.2467865943908691,2274.0791015625,823.740234375,-977.5702395132292
0.36000001430511475,2.0926002136752892E7,907.2216543592372,1.5564048409953905E-16,2.092600215335838E7,357.8803234525159,1.5564048409953908E-16,976.8285468532769,2514.275082029945,9.141448130787271E-16,6.073431694938512E-14,988.2845882918124,-976.9375493073682,355.83095933124423,9.798829204132513E-4,4.261465134916514E-22,32.19771341494976,90.0,9.798829202855223E-4,1.9777230234550037E-14,1.5996043844491983E-18,-0.004178074132240403,1.5996043844491983E-18,58616.25295844209,1115.0826721827611,0.0023522499843730074,2089.149758055419,517.4010715161567,-31.71586292637073,-5.1758975374763425E-17,31.350643239204175,0.0,0.0,0.0,1.2462260723114014,2271.230712890625,823.3421630859375,-976.9375493073682
0.3700000047683716,2.0926011901861694E7,932.3628198285163,1.6487903285564843E-16,2.092601191940091E7,367.76174402260017,1.6487903285564845E-16,976.1932939871471,2513.958074017723,9.33563854539471E-16,6.071502206657546E-14,987.9657227147953,-976.3053029438066,365.5971731878817,0.0010069379620853919,4.514416195381326E-22,32.19768331275104,90.0,0.0010069379619607737,1.666675491312016E-14,1.5996043844491983E-18,-0.004178074132240403,1.5996043844491983E-18,58578.318176628396,1115.0451430016935,0.0023515762156892665,2088.4107686562916,517.3662448396739,-31.68125280497534,-5.3334280737937723E-17,31.30623581062422,0.0,0.0,0.0,1.2456660270690918,2268.38720703125,822.9445190429688,-976.3053029438066
0.3799999952316284,2.0926021660620194E7,957.5008169442499,1.743395364697546E-16,2.0926021679118596E7,377.63998217226276,1.7433953646975466E-16,975.5584853413478,2513.6414112183497,9.564506963232123E-16,6.069922211550855E-14,987.64720446279,-975.673499669955,375.3570668064058,0.001033984265299145,4.773444180422069E-22,32.19765323007523,89.99999999999999,0.0010339842651486176,2.4583975503466004E-14,1.5996043844491983E-18,-0.004178074132240403,1.5996043844491983E-18,58540.409980197306,1115.0076368809368,0.0023509030311785863,2087.6724696624988,517.3314407339766,-31.64669971144305,-5.4795346671337855E-17,31.261903667866253,0.0,0.0,0.0,1.2451064586639404,2265.548583984375,822.5471801757812,-975.673499669955
0.38999998569488525,2.0926031413032826E7,982.6356491557208,1.8401494933378658E-16,2.0926031432515856E7,387.51504136452127,1.8401494933378663E-16,974.9241201631706,2513.3250930628496,9.79323927936631E-16,6.068343563971013E-14,987.3290329644819,-975.042138734888,385.11064460501075,0.0010610218395728176,5.038356171992178E-22,32.197623166908684,90.0,0.0010610218394166962,3.1898727133038155E-15,1.5996043844491983E-18,-0.004178074132240403,1.5996043844491983E-18,58502.52832409328,1114.970153805771,0.0023502304302258493,2086.9348602810724,517.2966591832464,-31.612203520523284,-1.7891814061781706E-15,31.21764664452743,0.0,-0.0,0.0,1.2445473670959473,2262.714599609375,822.150146484375,-975.042138734888
0.4000000059604645,2.0926041159104016E7,1007.7673199065277,1.9396062374926684E-16,2.0926041179597106E7,397.38692505669576,1.9396062374926681E-16,974.2901977015699,2513.009118983496,1.005650768139086E-15,6.067112981206021E-14,987.0112076498131,-974.4112193893384,394.857910990715,0.0010880506944090618,5.310667715491924E-22,32.197593123237695,90.0,0.0010880506942759305,-1.8080863225398363E-15,1.5996043844491983E-18,-0.004178074132240403,1.5996043844491983E-18,58464.673163360305,1114.9326937615149,0.002349558412217255,2086.1979397207256,517.2619001717044,-31.577764107318,-5.759902766347535E-17,31.173464574670913,0.0,0.0,0.0,1.2439887523651123,2259.885498046875,821.7535400390625,-974.4112193893384
0.4099999964237213,2.0926050898838196E7,1032.8958326345987,2.0413137863895525E-16,2.0926050920366786E7,407.25563670042277,2.0413137863895525E-16,973.6567172071585,2512.6934884138072,1.0336844471940049E-15,6.066055781704424E-14,986.6937279499731,-973.7807408856951,404.59887040406466,0.0011150708392949097,5.589141737488977E-22,32.1975630990485,89.99999999999999,0.0011150708391355665,1.5407850060602235E-14,1.5996043844491983E-18,-0.004178074132240403,1.5996043844491983E-18,58426.844453141704,1114.8952567333552,0.002348886976537234,2085.461707188477,517.2271636834522,-31.54338134723859,-1.7869132860238983E-15,31.12935729278312,0.0,-0.0,0.0,1.2434306144714355,2257.061279296875,821.3572387695312,-973.7807408856951
0.41999998688697815,2.0926060632239778E7,1058.0211907722032,2.145858664704413E-16,2.0926060654829286E7,417.12117974166824,2.1458586647044134E-16,973.0236779322034,2512.3782007885447,1.0547931589468282E-15,6.064308780283062E-14,986.3765932974015,-973.150702477996,414.3335272297263,0.0011420822837018144,5.875384140509118E-22,32.19753309432753,90.0,0.001142082283537101,1.1782068195826099E-14,1.5996043844491983E-18,-0.004178074132240403,1.5996043844491983E-18,58389.04214867976,1114.857842706691,0.0023482161225746095,2084.726161896403,517.1924497027911,-31.50905511608828,-6.039315951351138E-17,31.085324633854338,0.0,0.0,0.0,1.242872953414917,2254.24169921875,820.9613037109375,-973.150702477996
0.4300000071525574,2.0926070359313168E7,1083.143397745964,2.2525482134757113E-16,2.092607038298901E7,426.98355762073766,2.2525482134757113E-16,972.3910791306209,2512.0632555437073,1.082787989083955E-15,6.063253080952955E-14,986.0598031257788,-972.5211034219246,424.06188586354256,0.0011690850370856731,6.167498407151514E-22,32.197503109061124,90.0,0.0011690850369114087,1.233658812083383E-14,1.5996043844491983E-18,-0.004178074132240403,1.5996043844491983E-18,58351.26620531548,1114.8204516668739,0.002347545849717981,2083.991303056574,517.1577582139824,-31.474785289998167,-6.167668923100196E-17,31.041366433315506,0.0,0.0,0.0,1.242315649986267,2251.427001953125,820.5657348632812,-972.5211034219246
0.4399999976158142,2.092608008006277E7,1108.262456976871,2.3618296731282074E-16,2.092608010485036E7,436.84277377229205,2.361829673128208E-16,971.7589200579719,2511.748652116531,1.109037835152513E-15,6.062025568921241E-14,985.7433568700297,-971.8919429748059,433.78395070135593,0.0011960791088868729,6.466709077451981E-22,32.197473143235676,89.99999999999999,0.0011960791087272107,6.730724605696503E-15,1.5996043844491983E-18,-0.004178074132240403,1.5996043844491983E-18,58313.51657848836,1114.7830835992531,0.0023468761573564824,2083.2571298818893,517.1230892012878,-31.440571745437143,-1.7837191537488566E-15,30.99748252704731,0.0,-0.0,0.0,1.241758942604065,2248.616943359375,820.1704711914062,-971.8919429748059
0.44999998807907104,2.0926089794492975E7,1133.3783718802918,2.474389403347451E-16,2.0926089820417713E7,446.6988316253578,2.4743894033474516E-16,971.1271999714573,2511.434389945483,1.1369942929524409E-15,6.060971399230355E-14,985.4272539663124,-971.2632203956002,443.4997261278331,0.0012230645085303184,6.774895399381979E-22,32.19744319683755,89.99999999999999,0.001223064508374144,3.2426748908246505E-15,1.5996043844491983E-18,-0.004178074132240403,1.5996043844491983E-18,58275.793223736015,1114.7457384892173,0.0023462070448805605,2082.5236415869235,517.0884426490084,-31.406414359220456,-1.7825666168129167E-15,30.953672751388616,0.0,-0.0,0.0,1.2412025928497314,2245.811767578125,819.775634765625,-971.2632203956002
0.46000000834465027,2.0926099502608176E7,1158.491145865985,2.5896060478333335E-16,2.0926099529695462E7,456.55173460333845,2.589606047833334E-16,970.4959181299142,2511.1204684702584,1.1632136278092348E-15,6.059746193885285E-14,985.111493852021,-970.6349349449009,453.20921651646495,0.0012500412454254629,7.090356083633226E-22,32.19741326985322,89.99999999999999,0.001250041245248251,1.5284192021033103E-14,1.5996043844491983E-18,-0.004178074132240403,1.5996043844491983E-18,58238.096096694055,1114.7084163221946,0.002345538511681968,2081.7908373879254,517.0538185414856,-31.372313008508986,-6.562467171329718E-17,30.90993694313502,0.0,0.0,0.0,1.2406468391418457,2243.01123046875,819.3810424804688,-970.6349349449009
0.4699999988079071,2.092610920441274E7,1183.6007823381121,2.7070317041294414E-16,2.0926109232687954E7,466.4014861240287,2.7070317041294414E-16,969.8650737938104,2510.806887131778,1.1859837689522721E-15,6.058178741291367E-14,984.7960759657788,-970.0070858849272,462.91242621839046,0.001277009328966349,7.41186476145893E-22,32.197383362269186,89.99999999999999,0.0012770093287924895,1.1932030262576428E-14,1.5996043844491983E-18,-0.004178074132240403,1.5996043844491983E-18,58200.42515309563,1114.6711170836961,0.0023448705571545336,2081.058716503658,517.0192168631409,-31.338267570818168,-6.70637657608402E-17,30.866274939547367,0.0,0.0,0.0,1.2400914430618286,2240.215576171875,818.9868774414062,-970.0070858849272
0.47999998927116394,2.0926118899911046E7,1208.7072846952506,2.827042105711645E-16,2.092611892939958E7,476.24808959962786,2.8270421057116455E-16,969.2346662252405,2510.493645372184,1.217301612824965E-15,6.057468726585284E-14,984.4809997474371,-969.3796724795232,472.60935962200165,0.0013039687685316413,7.740450184173433E-22,32.19735347407183,89.99999999999999,0.0013039687683663154,1.2394534628581133E-14,1.5996043844491983E-18,-0.004178074132240403,1.5996043844491983E-18,58162.78034877139,1114.633840759086,0.0023442031806900575,2080.3272781508967,516.9846375982623,-31.304277923962264,-6.822817855210196E-17,30.82268657829651,0.0,0.0,0.0,1.2395365238189697,2237.424560546875,818.593017578125,-969.3796724795232
0.49000000953674316,2.0926128589107454E7,1233.8106563304048,2.9501146957239343E-16,2.0926128619834684E7,486.0915484367471,2.950114695723935E-16,968.6046946879211,2510.180742634837,1.2468825012226453E-15,6.056587679448812E-14,984.1662646380678,-968.7526939941487,482.3000210598111,0.0013309195734846511,8.077419582458593E-22,32.197323605247746,89.99999999999999,0.0013309195733086736,5.0538672240942756E-15,1.5996043844491983E-18,-0.004178074132240403,1.5996043844491983E-18,58125.16163964892,1114.5965873339408,0.0023435363816847214,2079.596521551459,516.950080731338,-31.2703439461385,-1.7780325670892324E-15,30.779171697545827,0.0,0.0,0.0,1.238982081413269,2234.63818359375,818.1995239257812,-968.7526939941487
0.5,2.0926138272006325E7,1258.9109006310189,3.0764519178952185E-16,2.0926138303997617E7,495.9318660364263,3.076451917895219E-16,967.9751584471863,2509.8681783643124,1.2747358624118776E-15,6.055536538220737E-14,983.8518700799654,-968.1261496958793,491.98441488295794,0.0013578617531733806,8.423327236021855E-22,32.1972937557834,90.0,0.0013578617529875104,1.494660751286088E-14,1.5996043844491983E-18,-0.004178074132240403,1.5996043844491983E-18,58087.56898175276,1114.5593567937613,0.002342870159533959,2078.8664459265788,516.9155462467892,-31.236465515857947,-7.071474692757301E-17,30.73573013588262,0.0,0.0,0.0,1.2384281158447266,2231.8564453125,817.806396484375,-968.1261496958793
0.5099999904632568,2.0926147948612016E7,1284.008020978989,3.205163813854648E-16,2.092614798189273E7,505.76904579414474,3.205163813854648E-16,967.3460567699836,2509.555952006397,1.2974539141499192E-15,6.05397452019877E-14,983.5378155166379,-967.5000388533995,501.6625454425812,0.001384795316930551,8.775736427324945E-22,32.197263925665325,89.99999999999999,0.001384795316745816,4.815383860723062E-15,1.5996043844491983E-18,-0.004178074132240403,1.5996043844491983E-18,58050.00233120397,1114.5221491240454,0.002342204513633734,2078.1370504983083,516.8810341290375,-31.20264251196109,-7.214447218007503E-17,30.692361732333183,0.0,0.0,0.0,1.2378746271133423,2229.07958984375,817.41357421875,-967.5000388533995
0.5199999809265137,2.0926157618928857E7,1309.1020207506751,3.3361808212903543E-16,2.0926157653524354E7,515.6030910998347,3.3361808212903553E-16,966.7173889248694,2509.244063008087,1.325265780405004E-15,6.052924533311544E-14,983.2241003928117,-966.8743607369987,511.334417052567,0.0014117202740736425,9.134456686185332E-22,32.19723411488014,89.99999999999999,0.001411720273897159,1.4556220827020968E-14,1.5996043844491983E-18,-0.004178074132240403,1.5996043844491983E-18,58012.461644219926,1114.4849643104317,0.0023415394433831064,2077.408334492329,516.8465443626376,-31.168874813651314,-1.7747748145797398E-15,30.64906632639525,0.0,0.0,0.0,1.2373216152191162,2226.30712890625,817.0211181640625,-966.8743607369987
0.5299999713897705,2.0926167282961186E7,1334.1929033169133,3.470012130999185E-16,2.0926167318896815E7,525.4340053378892,3.470012130999186E-16,966.0891541820037,2508.9325108175826,1.3496573818576893E-15,6.051535165168725E-14,982.9107241544191,-966.2491146185661,521.000034045428,0.0014386366339049137,9.500882166952803E-22,32.19720432341441,90.0,0.0014386366337212004,1.2789871519588574E-14,1.5996043844491983E-18,-0.004178074132240403,1.5996043844491983E-18,57974.946877113965,1114.4478023384827,0.0023408749481803846,2076.6802971337324,516.8120769320775,-31.135162300442246,-7.478097252039266E-17,30.605843757986012,0.0,0.0,0.0,1.2367689609527588,2223.53955078125,816.6290283203125,-966.2491146185661
0.5400000214576721,2.092617694071333E7,1359.2806720430274,3.606451574564174E-16,2.0926176978014436E7,535.2617918871789,3.606451574564175E-16,965.4613518131468,2508.6212948842845,1.3808247530860846E-15,6.05082601477951E-14,982.5976862485993,-965.6242997715884,530.6594007350504,0.00146554440571145,9.874448371068265E-22,32.19717455125479,89.99999999999999,0.0014655444055087122,1.3821940548642923E-14,1.5996043844491983E-18,-0.004178074132240403,1.5996043844491983E-18,57937.4579862953,1114.4106631938298,0.002340211027425686,2075.9529376498303,516.777631821912,-31.101504852190814,-7.593485199146811E-17,30.56269386747404,0.0,0.0,0.0,1.2362169027328491,2220.776611328125,816.2372436523438,-965.6242997715884
0.550000011920929,2.0926186592189606E7,1384.3653302888417,3.7455994541888596E-16,2.0926186630881514E7,545.0864541210619,3.7455994541888596E-16,964.8339810916544,2508.310414658793,1.4068777195948972E-15,6.049608060255494E-14,982.2849861236945,-964.9999154711423,540.3125214204192,0.001492443598765188,1.0255429915836534E-21,32.197144798387875,89.99999999999999,0.0014924435985795876,2.3672749697264955E-14,1.5996043844491983E-18,-0.004178074132240403,1.5996043844491983E-18,57899.99492826854,1114.3735468621592,0.0023395476805206793,2075.226255269867,516.743209016749,-31.067902349092883,-7.724804966412429E-17,30.519616495674683,0.0,0.0,0.0,1.235665202140808,2218.018310546875,815.8458251953125,-964.9999154711423
0.5600000023841858,2.092619623739433E7,1409.446881408692,3.8872843359349433E-16,2.0926196277502377E7,554.907995407396,3.8872843359349443E-16,964.2070412924731,2507.9998695929025,1.432912423004867E-15,6.04839091132961E-14,981.9726232292484,-964.3759609938935,549.9594004154205,0.0015193342223229493,1.064335740640694E-21,32.19711506480036,90.0,0.001519334222138928,2.2093925769734863E-14,1.5996043844491983E-18,-0.004178074132240403,1.5996043844491983E-18,57862.55765963361,1114.3364533290955,0.002338884906866539,2074.50024922278,516.7088085011435,-31.034354671654825,-1.7703509358845832E-15,30.476611483821824,0.0,-0.0,0.0,1.2351139783859253,2215.2646484375,815.4547119140625,-964.3759609938935
0.5699999928474426,2.092620587633181E7,1434.525328751438,4.0320121159745477E-16,2.092620591788132E7,564.7264191085491,4.0320121159745487E-16,963.5805316921361,2507.6896591396003,1.4572441391211277E-15,6.047006091162906E-14,981.660597016,-963.7524356180892,559.6000420190394,0.0015462162856264721,1.1039615973071798E-21,32.197085350478886,90.0,0.001546216285425503,1.205384411059739E-14,1.5996043844491983E-18,-0.004178074132240403,1.5996043844491983E-18,57825.14613708535,1114.299382580318,0.002338222705865987,2073.7749187394347,516.6744302597036,-31.00086170071978,-7.992135071735989E-17,30.433678673593224,0.0,0.0,0.0,1.2345632314682007,2212.515625,815.06396484375,-963.7524356180892
0.5799999833106995,2.0926215509006344E7,1459.6006756604756,4.179003129521211E-16,2.0926215552022625E7,574.5417285814145,4.179003129521211E-16,962.954451568759,2507.37978275306,1.4849356360087965E-15,6.045959872152104E-14,981.3489069358811,-963.1293386235559,569.2344505004585,0.0015730897979024515,1.1442070889886226E-21,32.19705565541022,89.99999999999999,0.0015730897977072817,1.525031709687905E-14,1.5996043844491983E-18,-0.004178074132240403,1.5996043844491983E-18,57787.760317413355,1114.2623346016173,0.002337561076924317,2073.050263053748,516.6400742771438,-30.96742331747989,-1.768204077572541E-15,30.390817907122127,0.0,0.0,0.0,1.2340129613876343,2209.77099609375,814.673583984375,-963.1293386235559
0.5899999737739563,2.0926225135422222E7,1484.6729254737481,4.3288298349059167E-16,2.0926225179930594E7,584.353927177421,4.3288298349059177E-16,962.3288002020355,2507.070239888643,1.514291131698752E-15,6.045082671700146E-14,981.0375524420147,-962.5066692916947,578.8626301661134,0.0015999547683625643,1.1852289533402751E-21,32.19702597958099,90.0,0.001599954768177998,1.3642956698347456E-14,1.5996043844491983E-18,-0.004178074132240403,1.5996043844491983E-18,57750.40015750168,1114.2253093786378,0.0023369000194447902,2072.326281397642,516.6057405380458,-30.93403940341452,-8.237317932504985E-17,30.348029026936338,0.0,0.0,0.0,1.2334630489349365,2207.03125,814.2835083007812,-962.5066692916947
0.6000000238418579,2.0926234755583722E7,1509.7420815237585,4.481321618835088E-16,2.092623480160948E7,594.1630182425434,4.481321618835089E-16,961.7035768732327,2506.7610300028896,1.5402560792772104E-15,6.043869030725108E-14,980.7265329887113,-961.884426905476,588.4845852591097,0.0016268112062035045,1.2269804756120744E-21,32.196996322978066,89.99999999999999,0.0016268112060201483,3.436800543415976E-15,1.5996043844491983E-18,-0.004178074132240403,1.5996043844491983E-18,57713.06561432856,1114.1883068972636,0.002336239532835536,2071.602973008604,516.5714290272173,-30.900709840380404,-8.36759027962393E-17,30.305311876046186,0.0,0.0,0.0,1.232913613319397,2204.2958984375,813.893798828125,-961.884426905476
0.6100000143051147,2.0926244369495127E7,1534.8081471375808,4.636611139887979E-16,2.092624441706357E7,603.9690051173168,4.63661113988798E-16,961.0787808651869,2506.4521525535197,1.5695656563107604E-15,6.042992462602699E-14,980.415848031461,-961.2626107494358,598.100320070982,0.0016536591206070155,1.2694979765774608E-21,32.19696668558814,90.0,0.0016536591204050159,4.08809210600813E-15,1.5996043844491983E-18,-0.004178074132240403,1.5996043844491983E-18,57675.756644966146,1114.15132714319,0.0023355796165018807,2070.8803371212816,516.5371397292935,-30.8674345105089,-8.487067690585951E-17,30.26266629784356,0.0,0.0,0.0,1.2323647737503052,2201.565185546875,813.5044555664062,-961.2626107494358
0.6200000047683716,2.0926253977160707E7,1559.8711256368722,4.794562072463026E-16,2.092625402629712E7,613.7718911368464,4.794562072463027E-16,960.4544114622995,2506.143606999429,1.5954941923097751E-15,6.041780395912562E-14,980.1054970269371,-960.6412201096712,607.7098388373852,0.001680498520739923,1.3127441294665266E-21,32.19693706739803,90.0,0.0016804985205196848,4.33531112392188E-15,1.5996043844491983E-18,-0.004178074132240403,1.5996043844491983E-18,57638.47320658027,1114.1143701023234,0.002334920269853507,2070.158372975326,516.5028726291087,-30.834213296300117,-8.616933238859355E-17,30.220092136193564,0.0,0.0,0.0,1.231816291809082,2198.839111328125,813.1154174804688,-960.6412201096712
0.6299999952316284,2.0926263578584727E7,1584.931020337885,4.955373725162485E-16,2.0926263629314393E7,623.5716796308209,4.955373725162486E-16,959.8304679505325,2505.8353928006845,1.6247588134591218E-15,6.04090453891133E-14,979.7954794329895,-960.0202542738375,617.3131458312273,0.0017073294157541662,1.3567735036944042E-21,32.19690746839455,90.0,0.0017073294155355739,1.168539362400495E-14,1.5996043844491983E-18,-0.004178074132240403,1.5996043844491983E-18,57601.21525643025,1114.0774357604248,0.0023342614922980624,2069.437079808389,516.4686277113648,-30.801046080536924,-8.736047802266452E-17,30.17758923535005,0.0,0.0,0.0,1.2312681674957275,2196.11767578125,812.7266845703125,-960.0202542738375
0.6399999856948853,2.092627317377143E7,1609.9878345514774,5.118809582092533E-16,2.0926273226119626E7,633.3683739235223,5.118809582092533E-16,959.2069496174043,2505.5275094185226,1.645631942889516E-15,6.039192129559717E-14,979.4857947086406,-959.3997125311414,626.9102452807128,0.0017341518147868306,1.4015213405730519E-21,32.196877888564565,90.0,0.0017341518145859765,1.19391158513773E-14,1.5996043844491983E-18,-0.004178074132240403,1.5996043844491983E-18,57563.98275186848,1114.0405241034227,0.0023336032832467746,2068.7164568622734,516.4344049609228,-30.76793274635829,-8.881273876604021E-17,30.135157440027083,0.0,0.0,0.0,1.2307206392288208,2193.400634765625,812.3383178710938,-959.3997125311414
0.6499999761581421,2.0926282762725074E7,1635.0415715831264,5.284466300337868E-16,2.092628281671708E7,643.1619773338404,5.284466300337869E-16,958.5838557519855,2505.219956315345,1.6681695344306784E-15,6.037648758897834E-14,979.176442314085,-958.7795941723391,636.5011414438486,0.0017609657269601817,1.4468772046012493E-21,32.19684832789486,89.99999999999999,0.001760965726730097,1.4181073006917051E-14,1.5996043844491983E-18,-0.004178074132240403,1.5996043844491983E-18,57526.77565034034,1114.003635117129,0.002332945642109351,2067.996503377346,516.4002043625379,-30.734873177191005,-9.02098884452833E-17,30.092796595331667,0.0,0.0,0.0,1.2301734685897827,2190.688232421875,811.9503173828125,-958.7795941723391
0.6600000262260437,2.09262923454499E7,1660.0922347329388,5.452509905220867E-16,2.0926292401110962E7,652.9524931752809,5.452509905220867E-16,957.9611856448946,2504.912732954717,1.6906972461676878E-15,6.03610698840077E-14,978.867421710684,-958.1598984897296,646.0858385190368,0.001787771161381695,1.4928865523917096E-21,32.19681878637241,89.99999999999999,0.0017877711611419924,5.806686503799382E-15,1.5996043844491983E-18,-0.004178074132240403,1.5996043844491983E-18,57489.59390938377,1113.9667687875808,0.0023322885683000954,2067.277218599237,516.3660259011777,-30.701867256829146,-1.759742779856538E-15,30.050506546841074,0.0,-0.0,0.0,1.2296267747879028,2187.980224609375,811.5626220703125,-958.1598984897296
0.6700000166893005,2.092630192195014E7,1685.1398272956626,5.623239059318219E-16,2.0926301979305528E7,662.7399247559804,5.62323905931822E-16,957.3389385882937,2504.6058388013603,1.724879817231686E-15,6.035733287657663E-14,978.5587323609609,-957.5406247771542,655.6643407605588,0.001814568127144087,1.5396311562792624E-21,32.19678926398406,89.99999999999999,0.0018145681269171813,1.1002653706444909E-14,1.5996043844491983E-18,-0.004178074132240403,1.5996043844491983E-18,57452.43748662926,1113.9299251005975,0.00233163206123,2066.5586017701776,516.3318695616107,-30.668914869328805,-1.758425771890615E-15,30.008287140499696,0.0,0.0,0.0,1.2290805578231812,2185.27685546875,811.17529296875,-957.5406247771542
0.6800000071525574,2.092631149223002E7,1710.1843525606985,5.796885486107775E-16,2.092631155130497E7,672.524275378715,5.796885486107775E-16,956.7171138758843,2504.299273321156,1.7457159293862639E-15,6.034027520530285E-14,978.250373728603,-956.9217723299878,665.2366523556411,0.0018413566333253507,1.5871744606726204E-21,32.19675976071679,89.99999999999999,0.0018413566331176464,7.968858016449078E-16,1.5996043844491983E-18,-0.004178074132240403,1.5996043844491983E-18,57415.30633979927,1113.8931040422533,0.0023309761203151643,2065.840652138221,516.2977353288447,-30.636015899118142,-1.7575284217514663E-15,29.966138222726098,0.0,-0.0,0.0,1.2285348176956177,2182.578125,810.7882690429688,-956.9217723299878
0.6899999976158142,2.0926321056293763E7,1735.2258138121126,5.973147049272328E-16,2.0926321117113523E7,682.3055483409157,5.973147049272327E-16,956.095710802903,2503.993035981135,1.7748559137157602E-15,6.033154715821875E-14,977.9423452784522,-956.3033404451381,674.8027775399387,0.0018681366889887858,1.6354337402981473E-21,32.19673027655749,89.99999999999999,0.0018681366887493738,1.4512445495803015E-14,1.5996043844491983E-18,-0.004178074132240403,1.5996043844491983E-18,57378.20042670829,1113.8563055984332,0.0023303207449688846,2065.123368948575,516.2636231877148,-30.603170230892086,-9.525328443892894E-17,29.924059640309885,0.0,0.0,0.0,1.2279894351959229,2179.8837890625,810.401611328125,-956.3033404451381
0.699999988079071,2.0926330614145577E7,1760.2642143286466,6.151623711207783E-16,2.092633067673539E7,692.0837469346766,6.151623711207783E-16,955.4747286661175,2503.6871262494806,1.7989903461846853E-15,6.031783926833039E-14,977.6346464765081,-955.6853284210404,684.3627205044031,0.0018949083031830308,1.6842994649028343E-21,32.19670081149314,90.0,0.0018949083029467903,2.3450378767756008E-15,1.5996043844491983E-18,-0.004178074132240403,1.5996043844491983E-18,57341.11970526242,1113.8195297551904,0.0023296659346080293,2064.4067514505887,516.2295331232154,-30.57037774969528,-9.658705236904562E-17,29.882051240492157,0.0,0.0,0.0,1.2274446487426758,2177.19384765625,810.0152587890625,-955.6853284210404
0.7099999785423279,2.092634016578968E7,1785.2995573837297,6.332347537171324E-16,2.0926340230174776E7,701.8588744467654,6.332347537171325E-16,954.8541667638225,2503.3815435955207,1.8164808873145322E-15,6.0297513153294E-14,977.3272767899175,-955.0677355576522,693.9164854548872,0.0019216714849420867,1.7337804130831624E-21,32.196671365510724,89.99999999999999,0.0019216714847163966,1.878243333883082E-14,1.5996043844491983E-18,-0.004178074132240403,1.5996043844491983E-18,57304.064133459135,1113.7827764985182,0.0023290116886489597,2063.6907988932808,516.1954651202884,-30.537638340867286,-1.7545847535438978E-15,29.84011287091192,0.0,0.0,0.0,1.2269002199172974,2174.508544921875,809.6292724609375,-955.0677355576522
0.7200000286102295,2.0926349711230256E7,1810.3318462454902,6.515880122823884E-16,2.0926349777435854E7,711.6309341586398,6.515880122823884E-16,954.2340243958351,2503.0762874897273,1.8488684625894405E-15,6.029210969582158E-14,977.0202356869796,-954.450561156451,703.4640765599906,0.0019484262432853659,1.7840303474124104E-21,32.1966419385973,89.99999999999999,0.0019484262430447565,1.571020076967229E-14,1.5996043844491983E-18,-0.004178074132240403,1.5996043844491983E-18,57267.03366938706,1113.7460458145501,0.002328358006511095,2062.9755105292443,516.1614191640083,-30.50495189008871,-9.919633011555253E-17,29.79824437965055,0.0,0.0,0.0,1.2263561487197876,2171.82763671875,809.2435913085938,-954.450561156451
0.7300000190734863,2.0926359250471506E7,1835.3610841767663,6.702087392239554E-16,2.0926359318522826E7,721.3999293464547,6.702087392239555E-16,953.6143008634914,2502.7713574037134,1.879570901113003E-15,6.028504668233732E-14,976.7135226371365,-953.8338045204297,713.0054980143905,0.001975172587217707,1.83501255727314E-21,32.19661253073986,90.0,0.0019751725869704734,2.2333768018215535E-14,1.5996043844491983E-18,-0.004178074132240403,1.5996043844491983E-18,57230.02827122578,1113.7093376893158,0.002327704887612579,2062.2608856098996,516.1273952393565,-30.472318283322906,-1.7521317791486396E-15,29.756445615174556,0.0,0.0,0.0,1.2258126735687256,2169.151123046875,808.8582763671875,-953.8338045204297
0.7400000095367432,2.0926368783517614E7,1860.3872744351193,6.891562078201314E-16,2.0926368853439864E7,731.1658632810747,6.891562078201316E-16,952.9949954696413,2502.4667528102286,1.9118985937710967E-15,6.027963446114015E-14,976.407137110972,-953.2174649540902,722.5407539904118,0.002001910525729414,1.8868893301926812E-21,32.19658314192549,90.0,0.0020019105254717754,2.3742537875600547E-14,1.5996043844491983E-18,-0.004178074132240403,1.5996043844491983E-18,57193.047897245415,1113.672652108928,0.0023270523313735922,2061.5469233891235,516.0933933313944,-30.43973740685879,-1.7508832292893335E-15,29.714716426377027,0.0,-0.0,0.0,1.2252695560455322,2166.479248046875,808.4732666015625,-953.2174649540902
0.75,2.092637831037276E7,1885.4104202728422,7.084070449728125E-16,2.092637838219114E7,740.9287392280864,7.084070449728127E-16,952.3761075186452,2502.162473183156,1.9409016023842455E-15,6.027092305155596E-14,976.1010785802098,-952.601541763443,732.0698486529291,0.0020286400677962855,1.9395966701709418E-21,32.196553772141236,89.99999999999999,0.002028640067556491,1.4894484780452308E-14,1.5996043844491983E-18,-0.004178074132240403,1.5996043844491983E-18,57156.092505806584,1113.6359890595254,0.0023264003372153326,2060.8336231221306,516.0594134252103,-30.407209147296292,-1.7497398366376036E-15,29.673056662563077,0.0,-0.0,0.0,1.224726915359497,2163.811767578125,808.088623046875,-952.601541763443
0.7599999904632568,2.09263878310411E7,1910.4305249369736,7.279741630893672E-16,2.0926387904780813E7,750.6885604478102,7.279741630893674E-16,951.7576363163696,2501.8585179975107,1.9731747838682102E-15,6.026550726809786E-14,975.7953465177075,-951.9860342560002,741.5927861556411,0.0020553612223796532,1.993169929877038E-21,32.19652442137424,89.99999999999999,0.0020553612221406357,1.4118176298073137E-14,1.5996043844491983E-18,-0.004178074132240403,1.5996043844491983E-18,57119.16205536001,1113.599348527286,0.0023257489045602686,2060.1209840657475,516.0254555059322,-30.37473339154861,-1.0361928502423402E-16,29.63146617345178,0.0,0.0,0.0,1.2241846323013306,2161.148681640625,807.7042846679688,-951.9860342560002
0.7699999809265137,2.0926397345526814E7,1935.4475916693073,7.477882430193181E-16,2.0926397421213053E7,760.4453301953085,7.477882430193183E-16,951.139581170183,2501.5548867294356,1.9906275491213117E-15,6.024529647935335E-14,975.4899403974582,-951.3709417407728,751.1095706671476,0.002082073998426397,2.0474193146494015E-21,32.19649508961158,89.99999999999999,0.002082073998169867,1.3639268314646779E-14,1.5996043844491983E-18,-0.004178074132240403,1.5996043844491983E-18,57082.25650444636,1113.562730498328,0.002325098032830352,2059.4090054764615,515.991519558635,-30.34231002681806,-1.7477148846281651E-15,29.58994480915203,0.0,-0.0,0.0,1.2236429452896118,2158.489990234375,807.3203125,-951.3709417407728
0.7799999713897705,2.0926406853834055E7,1960.4616237064045,7.678228340233218E-16,2.0926406931491993E7,770.199051720399,7.678228340233218E-16,950.5219413889521,2501.2515788561964,2.0130044390596582E-15,6.023003518401907E-14,975.1848596945806,-950.7562635282659,760.6202063113451,0.002108778404868988,2.102272402402185E-21,32.19646577684046,89.99999999999997,0.002108778404619517,1.5575865819992217E-14,1.5996043844491983E-18,-0.004178074132240403,1.5996043844491983E-18,57045.37581169595,1113.5261349589375,0.002324447721451096,2058.697686614879,515.9576055685532,-30.309938940648216,-1.7467815265354238E-15,29.548492420213222,0.0,0.0,0.0,1.2231016159057617,2155.835693359375,806.9366455078125,-950.7562635282659
0.7900000214576721,2.092641635596697E7,1985.4726242796046,7.880843922719223E-16,2.0926416435621794E7,779.949728267668,7.880843922719225E-16,949.904716283037,2500.9485938561834,2.0402855274592264E-15,6.021970341374297E-14,974.8801038853227,-950.1419989304754,770.124697253108,0.002135474450625522,2.1577468691241552E-21,32.19643648304797,89.99999999999999,0.002135474450368678,1.3953169494527404E-14,1.5996043844491983E-18,-0.004178074132240403,1.5996043844491983E-18,57008.519935828524,1113.489561895241,0.002323797969845713,2057.987026739312,515.9237135207751,-30.277620020846417,-1.0772339226363768E-16,29.507108857549326,0.0,0.0,0.0,1.2225606441497803,2153.18603515625,806.5532836914062,-950.1419989304754
0.800000011920929,2.0926425851929702E7,2010.4805966150361,8.086153776215064E-16,2.092642593360658E7,789.6973630764776,8.086153776215064E-16,949.287905164288,2500.6459312089046,2.0642733730175603E-15,6.020610368518541E-14,974.5756724470555,-949.528147260883,779.6230476088822,0.0021621621445997393,2.213958967531923E-21,32.196407208221345,90.0,0.0021621621443531414,1.270241791840026E-14,1.5996043844491983E-18,-0.004178074132240403,1.5996043844491983E-18,56971.68883565298,1113.4530112935477,0.002323148777441233,2057.2770251124703,515.8898434005622,-30.245353155562743,-1.7447159642164166E-15,29.465793972515367,0.0,0.0,0.0,1.2220202684402466,2150.54052734375,806.1702880859375,-949.528147260883
0.8100000023841858,2.0926435341726396E7,2035.4855439336286,8.294156099820404E-16,2.09264354254505E7,799.4419593809796,8.294156099820404E-16,948.671507346041,2500.343590394983,2.094786172409131E-15,6.019905415307459E-14,974.2715648582684,-948.9147078344536,789.1152615211904,0.0021888414956810613,2.2709082035904872E-21,32.196377952347724,90.0,0.0021888414954080036,1.2174396144949697E-14,1.5996043844491983E-18,-0.004178074132240403,1.5996043844491983E-18,56934.88247006721,1113.4164831400637,0.0023225001436633958,2056.567680995876,515.8559951930828,-30.213138233222182,-1.7435338016189047E-15,29.42454761684126,0.0,0.0,0.0,1.2214802503585815,2147.8994140625,805.78759765625,-948.9147078344536
0.8199999928474426,2.0926444825361174E7,2060.4874694511236,8.505240934941364E-16,2.092644491115766E7,809.1835204101262,8.505240934941366E-16,948.055522143114,2500.041570896155,2.122010084152359E-15,6.01887409340731E-14,973.9677805985715,-948.3016799676293,798.6013430915773,0.002215512512744627,2.3287013681425393E-21,32.19634871541442,90.0,0.002215512512470095,1.364819809583422E-14,1.5996043844491983E-18,-0.004178074132240403,1.5996043844491983E-18,56898.100798057756,1113.379977421149,0.0023218520679412474,2055.8589936548865,515.8221688836513,-30.180975142583957,-1.113503625065036E-16,29.383369642688827,0.0,0.0,0.0,1.2209407091140747,2145.2626953125,805.4052734375,-948.3016799676293
0.8299999833106995,2.0926454302838154E7,2085.486376378085,8.718753278790134E-16,2.092645439073217E7,818.9220493876815,8.718753278790136E-16,947.4399488718021,2499.739872195267,2.1524710421430182E-15,6.018168992031115E-14,973.6643191486872,-947.6890629783272,808.081296429038,0.002242175204651316,2.3871591229962625E-21,32.19631949740866,90.0,0.0022421752043755958,1.483682946384941E-14,1.5996043844491983E-18,-0.004178074132240403,1.5996043844491983E-18,56861.34377869964,1113.343494123133,0.0023212045497038175,2055.150962355064,515.788364457556,-30.14886377269679,-1.7412773783486734E-15,29.342259902608273,0.0,0.0,0.0,1.2204015254974365,2142.630615234375,805.0232543945312,-947.6890629783272
