time,feVelocity_ft_s_X,feVelocity_ft_s_Y,feVelocity_ft_s_Z,altitudeMsl_ft,longitude_deg,latitude_deg,localGravity_ft_s2,eulerAngle_deg_Yaw,eulerAngle_deg_Pitch,eulerAngle_deg_Roll,bodyAngularRateWrtEi_deg_s_Roll,bodyAngularRateWrtEi_deg_s_Pitch,bodyAngularRateWrtEi_deg_s_Yaw,altitudeRateWrtMsl_ft_min,speedOfSound_ft_s,airDensity_slug_ft3,ambientPressure_lbf_ft2,ambientTemperature_dgR,aero_bodyForce_lbf_X,aero_bodyForce_lbf_Y,aero_bodyForce_lbf_Z,aero_bodyMoment_ftlbf_L,aero_bodyMoment_ftlbf_M,aero_bodyMoment_ftlbf_N,mach,trueAirspeed_nmi_h
0.0,6.12E-14,1000.0,-1000.0,0.0,0.0,0.0,32.19881125,90.0,0.0,0.0,0.0,-0.0041768623264976995,0.0,60000.0,1116.449213,0.0023769,2116.21967,518.67,-33.00090142,0.0,33.00090142,0.0,0.0,0.0,1.266706578,837.8986254
0.1,6.1E-14,996.6992851,-993.5335873,99.67628544,2.73353E-4,1.67E-20,32.19853464,90.0,2.73439E-4,-2.56E-20,0.0,-0.0041768623264976995,0.0,59612.01524,1116.066636,0.002370219,2108.825179,518.3145923,-32.67541476,1.17E-20,32.58174333,0.0,0.0,0.0,1.260954226,833.8077488
0.2,6.08E-14,993.4340292,-987.1134944,198.7082625,5.45806E-4,3.34E-20,32.19822919,90.0,5.45982E-4,-5.12E-20,0.0,-0.0041768623264976995,0.0,59226.80966,1115.686403,0.002363581,2101.486584,517.9614831,-32.31920733,2.6E-20,32.12331369,0.0,0.0,0.0,1.255250321,829.7532491
0.3,6.06E-14,990.2042086,-980.7387289,297.1005028,8.17369E-4,5.01E-20,32.19792571,90.0,8.17633E-4,-7.67E-20,0.0,-0.0041768623264976995,0.0,58844.32373,1115.308498,0.002356986,2094.203408,517.6106553,-31.96864068,4.0E-20,31.67240972,0.0,0.0,0.0,1.249594341,825.7347113
0.4,6.04E-14,987.0092645,-974.4085489,394.8575018,0.001088051,6.66E-20,32.1976242,90.0,0.001088403,-1.02E-19,0.0,-0.0041768623264976995,0.0,58464.51293,1114.932906,0.002350433,2086.975049,517.2620918,-31.62359616,5.37E-20,31.22887262,0.0,0.0,0.0,1.243985579,821.7516018
0.5,6.02E-14,983.8486498,-968.1222278,491.9836818,0.001357861,8.31E-20,32.19732464,90.0,0.0013583,-1.28E-19,0.0,-0.0041768623264976995,0.0,58087.33367,1114.559611,0.002343923,2079.801166,516.9157769,-31.28396195,6.71E-20,30.79255141,0.0,0.0,0.0,1.238423343,817.8033982
0.6,6.01E-14,980.7218285,-961.8790543,588.4833928,0.00162681,9.96E-20,32.19702702,90.0,0.001627334,-1.53E-19,0.0,-0.0041768623264976995,0.0,57712.74326,1114.188602,0.002337455,2072.681176,516.5716972,-30.9496272,8.02E-20,30.36329708,0.0,0.0,0.0,1.232906954,813.8895896
0.7,5.99E-14,977.6282758,-955.6783315,684.3609147,0.001894906,1.16E-19,32.19673132,90.0,0.001895515,-1.79E-19,0.0,-0.0041768623264976995,0.0,57340.69989,1113.819861,0.002331028,2065.614736,516.2298352,-30.62048199,9.3E-20,29.94096257,0.0,0.0,0.0,1.227435751,810.009676
0.8,5.97E-14,974.5674772,-949.5193768,779.6204584,0.002162158,1.32E-19,32.19643752,90.0,0.002162851,-2.05E-19,0.0,-0.0041768623264976995,0.0,56971.16261,1113.453376,0.002324643,2058.601262,515.8901757,-30.29642104,1.06E-19,29.52540636,0.0,0.0,0.0,1.222009088,806.1631678
0.9,5.95E-14,971.5389289,-943.4015216,874.2661669,0.002428575,1.49E-19,32.19614563,90.0,0.002429351,-2.3E-19,0.0,-0.0041768623264976995,0.0,56604.09129,1113.089134,0.002318299,2051.640309,515.5527066,-29.97734536,1.18E-19,29.11649405,0.0,0.0,0.0,1.216626326,802.3495862
1.0,5.93E-14,968.5421372,-937.3241109,968.3021175,0.002694166,1.65E-19,32.19585562,90.0,0.002695024,-2.56E-19,0.0,-0.0041768623264976995,0.0,56239.44665,1112.727119,0.002311996,2044.731542,515.2174108,-29.66315114,1.3E-19,28.71408748,0.0,0.0,0.0,1.211286848,798.5684625
1.1,5.91E-14,965.5766182,-931.2865028,1061.732322,0.002958939,1.81E-19,32.19556748,90.0,0.002959879,-2.81E-19,0.0,-0.0041768623264976995,0.0,55877.19017,1112.367322,0.002305733,2037.874397,514.8842761,-29.35374258,1.42E-19,28.31805721,0.0,0.0,0.0,1.205990044,794.8193377
1.2,5.9E-14,962.6418976,-925.2880683,1154.56073,0.003222904,1.97E-19,32.19528121,90.0,0.003223925,-3.07E-19,0.0,-0.0041768623264976995,0.0,55517.2841,1112.009725,0.002299511,2031.06854,514.5532855,-29.04902265,1.53E-19,27.92827351,0.0,0.0,0.0,1.200735323,791.1017626
1.3,5.88E-14,959.7375106,-919.3281912,1246.791228,0.003486069,2.13E-19,32.19499678,90.0,0.003487169,-3.33E-19,0.0,-0.0041768623264976995,0.0,55159.69147,1111.654317,0.002293329,2024.313537,514.224427,-28.74890204,1.64E-19,27.54461501,0.0,0.0,0.0,1.1955221,787.4152973
1.4,5.86E-14,956.8630015,-913.4062671,1338.42764,0.003748441,2.3E-19,32.19471418,90.0,0.00374962,-3.58E-19,0.0,-0.0041768623264976995,0.0,54804.37603,1111.301086,0.002287187,2017.608948,513.8976867,-28.45328832,1.76E-19,27.16695817,0.0,0.0,0.0,1.190349806,783.7595113
1.5,5.84E-14,954.0179234,-907.521704,1429.473733,0.004010029,2.46E-19,32.19443341,90.0,0.004011286,-3.84E-19,0.0,-0.0041768623264976995,0.0,54451.30224,1110.950021,0.002281084,2010.954468,513.5730527,-28.1620948,1.86E-19,26.79518582,0.0,0.0,0.0,1.18521788,780.1339829
1.6,5.83E-14,951.2018383,-901.6739213,1519.933213,0.00427084,2.62E-19,32.19415445,90.0,0.004272175,-4.09E-19,0.0,-0.0041768623264976995,0.0,54100.43528,1110.601107,0.002275021,2004.349529,513.2505096,-27.87523343,1.97E-19,26.42918031,0.0,0.0,0.0,1.180125781,776.5382992
1.7,5.81E-14,948.4143166,-895.8623498,1609.80973,0.004530884,2.77E-19,32.1938773,90.0,0.004532295,-4.35E-19,0.0,-0.0041768623264976995,0.0,53751.74099,1110.254333,0.002268996,1997.793705,512.9300452,-27.59262171,2.07E-19,26.06883012,0.0,0.0,0.0,1.175072971,772.9720557
1.8,5.79E-14,945.6549369,-890.0864315,1699.106877,0.004790167,2.93E-19,32.19360193,90.0,0.004791654,-4.6E-19,0.0,-0.0041768623264976995,0.0,53405.18589,1109.909687,0.002263011,1991.286813,512.611646,-27.31417913,2.17E-19,25.71402637,0.0,0.0,0.0,1.170058928,769.4348565
1.9,5.78E-14,942.923286,-884.345619,1787.828192,0.005048698,3.09E-19,32.19332835,90.0,0.005050259,-4.86E-19,0.0,-0.0041768623264976995,0.0,53060.73714,1109.567157,0.002257064,1984.828305,512.2952998,-27.03982367,2.27E-19,25.36465956,0.0,0.0,0.0,1.165083138,765.9263136
2.0,5.76E-14,940.2189586,-878.6393758,1875.977159,0.005306483,3.25E-19,32.19305653,90.0,0.005308118,-5.12E-19,0.0,-0.0041768623264976995,0.0,52718.36255,1109.226732,0.002251155,1978.417885,511.9809947,-26.76947864,2.37E-19,25.02062598,0.0,0.0,0.0,1.160145099,762.4460471
2.1,5.74E-14,937.5415569,-872.9671753,1963.557208,0.00556353,3.41E-19,32.19278647,90.0,0.005565239,-5.37E-19,0.0,-0.0041768623264976995,0.0,52378.03052,1108.888401,0.002245285,1972.055258,511.6687186,-26.50306751,2.47E-19,24.6818228,0.0,0.0,0.0,1.155244319,758.9936847
2.2,5.73E-14,934.8906908,-867.3285014,2050.571717,0.005819847,3.56E-19,32.19251815,90.0,0.005821629,-5.63E-19,0.0,-0.0041768623264976995,0.0,52039.71008,1108.552152,0.002239453,1965.73975,511.3584579,-26.24051716,2.56E-19,24.34815112,0.0,0.0,0.0,1.150380317,755.5688617
2.3,5.71E-14,932.2659774,-861.7228474,2137.024014,0.006075441,3.72E-19,32.19225158,90.0,0.006077295,-5.88E-19,0.0,-0.0041768623264976995,0.0,51703.37085,1108.217974,0.002233658,1959.471327,511.0502021,-25.98175457,2.65E-19,24.01951283,0.0,0.0,0.0,1.14555262,752.1712211
2.4,5.69E-14,929.6670411,-856.1497166,2222.917376,0.006330319,3.88E-19,32.19198672,90.0,0.006332244,-6.14E-19,0.0,-0.0041768623264976995,0.0,51368.98299,1107.885859,0.0022279,1953.249455,510.743941,-25.72671001,2.74E-19,23.69581361,0.0,0.0,0.0,1.140760765,748.8004126
2.5,5.68E-14,927.0935132,-850.6086213,2308.255031,0.006584487,4.03E-19,32.19172359,90.0,0.006586483,-6.4E-19,0.0,-0.0041768623264976995,0.0,51036.51728,1107.555794,0.00222218,1947.073841,510.4396609,-25.47531378,2.83E-19,23.37695981,0.0,0.0,0.0,1.136004301,745.4560934
2.6,5.66E-14,924.5450317,-845.0990831,2393.040158,0.006837954,4.19E-19,32.19146216,90.0,0.006840019,-6.65E-19,0.0,-0.0041768623264976995,0.0,50705.94499,1107.227765,0.002216497,1940.94419,510.1373481,-25.22749935,2.91E-19,23.06286142,0.0,0.0,0.0,1.131282787,742.1379273
2.7,5.65E-14,922.0212413,-839.6206327,2477.275889,0.007090725,4.34E-19,32.19120243,90.0,0.007092859,-6.91E-19,0.0,-0.0041768623264976995,0.0,50377.23796,1106.901768,0.002210851,1934.859998,509.8369973,-24.98319854,3.0E-19,22.75342755,0.0,0.0,0.0,1.126595783,738.8455851
2.8,5.63E-14,919.5217935,-834.1728092,2560.96531,0.007342807,4.5E-19,32.19094439,90.0,0.00734501,-7.16E-19,0.0,-0.0041768623264976995,0.0,50050.36855,1106.57779,0.002205241,1928.82109,509.5385932,-24.74234951,3.08E-19,22.44857377,0.0,0.0,0.0,1.121942866,735.578744
2.9,5.62E-14,917.0463458,-828.7551605,2644.111462,0.007594208,4.65E-19,32.19068803,90.0,0.007596479,-7.42E-19,0.0,-0.0041768623264976995,0.0,49725.30963,1106.255822,0.002199668,1922.827074,509.2421272,-24.5048902,3.16E-19,22.14821608,0.0,0.0,0.0,1.117323619,732.3370878
3.0,5.6E-14,914.5945619,-823.3672426,2726.717338,0.007844933,4.8E-19,32.19043333,90.0,0.007847271,-7.67E-19,0.0,-0.0041768623264976995,0.0,49402.03456,1105.935852,0.002194131,1916.877671,508.9475871,-24.27075684,3.24E-19,21.85226952,0.0,0.0,0.0,1.112737633,729.1203063
3.1,5.59E-14,912.1661119,-818.00862,2808.785892,0.008094989,4.96E-19,32.1901803,90.0,0.008097394,-7.93E-19,0.0,-0.0041768623264976995,0.0,49080.5172,1105.617871,0.00218863,1910.972477,508.6549611,-24.03989021,3.31E-19,21.56065391,0.0,0.0,0.0,1.10818451,725.9280958
3.2,5.57E-14,909.7606715,-812.6788647,2890.320029,0.008344382,5.11E-19,32.18992891,90.0,0.008346853,-8.19E-19,0.0,-0.0041768623264976995,0.0,48760.73188,1105.301871,0.002183165,1905.111111,508.3642423,-23.81223395,3.39E-19,21.27329219,0.0,0.0,0.0,1.103663854,722.7601584
3.3,5.56E-14,907.3779222,-807.3775568,2971.322618,0.008593119,5.26E-19,32.18967917,90.0,0.008595655,-8.44E-19,0.0,-0.0041768623264976995,0.0,48442.65341,1104.987841,0.002177736,1899.293422,508.0754186,-23.58772835,3.46E-19,20.9901049,0.0,0.0,0.0,1.099175282,719.6162022
3.4,5.54E-14,905.0175515,-802.1042839,3051.79648,0.008841206,5.41E-19,32.18943105,90.0,0.008843807,-8.7E-19,0.0,-0.0041768623264976995,0.0,48126.25703,1104.675774,0.002172342,1893.519147,507.7884814,-23.36631808,3.54E-19,20.71101707,0.0,0.0,0.0,1.094718416,716.4959411
3.5,5.53E-14,902.679252,-796.858641,3131.7444,0.009088648,5.57E-19,32.18918457,90.0,0.009091313,-8.95E-19,0.0,-0.0041768623264976995,0.0,47811.51846,1104.365657,0.002166983,1887.78776,507.5034171,-23.14794902,3.61E-19,20.43595538,0.0,0.0,0.0,1.090292892,713.3990944
3.6,5.52E-14,900.3627218,-791.6402305,3211.16912,0.009335453,5.72E-19,32.1889397,90.0,0.009338181,-9.21E-19,0.0,-0.0041768623264976995,0.0,47498.41383,1104.057486,0.002161659,1882.099016,507.2202205,-22.93256824,3.68E-19,20.1648481,0.0,0.0,0.0,1.085898342,710.3253871
3.7,5.5E-14,898.0676638,-786.448661,3290.073345,0.009581625,5.87E-19,32.18869643,90.0,0.009584417,-9.46E-19,0.0,-0.0041768623264976995,0.0,47186.91966,1103.751252,0.002156404,1876.482369,506.9388829,-22.7201762,3.74E-19,19.89767079,0.0,0.0,0.0,1.081534409,707.274549
3.8,5.49E-14,895.7936014,-781.2833872,3368.459733,0.009827171,6.02E-19,32.18845477,90.0,0.009830025,-9.72E-19,0.0,-0.0041768623264976995,0.0,46877.00323,1103.446986,0.002151439,1871.129363,506.6594302,-22.51362739,3.81E-19,19.63688817,0.0,0.0,0.0,1.077200487,704.2461702
3.9,5.47E-14,893.5401375,-776.1439372,3446.330888,0.010072096,6.17E-19,32.18821469,90.0,0.010075012,-9.98E-19,0.0,-0.0041768623264976995,0.0,46568.63623,1103.144636,0.002146506,1865.81609,506.3818143,-22.30983858,3.88E-19,19.37976621,0.0,0.0,0.0,1.072896144,701.2399048
4.0,5.46E-14,891.3069983,-771.0299492,3523.689373,0.010316407,6.32E-19,32.1879762,90.0,0.010319384,-1.02E-18,0.0,-0.0041768623264976995,0.0,46261.79695,1102.844196,0.002141605,1860.542547,506.1060266,-22.10876163,3.94E-19,19.12624016,0.0,0.0,0.0,1.068621055,698.2555054
4.1,5.45E-14,889.0939144,-765.9410678,3600.537719,0.010560107,6.47E-19,32.18773929,90.0,0.010563145,-1.05E-18,0.0,-0.0041768623264976995,0.0,45956.46407,1102.545655,0.002136737,1855.308363,505.8320576,-21.91035081,4.01E-19,18.87624788,0.0,0.0,0.0,1.064374903,695.2927294
4.2,5.43E-14,886.900621,-760.8769439,3676.878416,0.010803204,6.62E-19,32.18750394,90.0,0.010806302,-1.07E-18,0.0,-0.0041768623264976995,0.0,45652.61664,1102.249007,0.002131901,1850.113288,505.5598979,-21.71456137,4.07E-19,18.62972852,0.0,0.0,0.0,1.060157377,692.3513386
4.3,5.42E-14,884.7268578,-755.8372343,3752.713925,0.011045702,6.77E-19,32.18727015,90.0,0.01104886,-1.1E-18,0.0,-0.0041768623264976995,0.0,45350.23406,1101.954243,0.002127097,1844.956958,505.2895398,-21.5213495,4.13E-19,18.3866225,0.0,0.0,0.0,1.055968173,689.4310995
4.4,5.41E-14,882.5723689,-750.8216014,3828.04667,0.011287607,6.91E-19,32.18703791,90.0,0.011290824,-1.13E-18,0.0,-0.0041768623264976995,0.0,45049.29609,1101.661355,0.002122324,1839.839373,505.0209739,-21.3306723,4.19E-19,18.14687148,0.0,0.0,0.0,1.05180699,686.5317833
4.5,5.39E-14,880.4369026,-745.8297139,3902.879041,0.011528924,7.06E-19,32.18680722,90.0,0.011532199,-1.15E-18,0.0,-0.0041768623264976995,0.0,44749.78283,1101.370334,0.002117584,1834.760044,504.7541915,-21.14248776,4.25E-19,17.91041833,0.0,0.0,0.0,1.047673537,683.6531654
4.6,5.38E-14,878.3202113,-740.8612457,3977.213397,0.011769658,7.21E-19,32.18657806,90.0,0.011772991,-1.18E-18,0.0,-0.0041768623264976995,0.0,44451.67474,1101.081175,0.002112875,1829.718858,504.489185,-20.95675476,4.3E-19,17.67720711,0.0,0.0,0.0,1.043567525,680.7950254
4.7,5.37E-14,876.2220516,-735.9158764,4051.052064,0.012009814,7.36E-19,32.18635044,90.0,0.012013205,-1.2E-18,0.0,-0.0041768623264976995,0.0,44154.95258,1100.793869,0.002108197,1824.715573,504.2259457,-20.77343303,4.36E-19,17.44718301,0.0,0.0,0.0,1.039488674,677.9571474
4.8,5.36E-14,874.142184,-730.993291,4124.397336,0.012249397,7.5E-19,32.18612434,90.0,0.012252845,-1.23E-18,0.0,-0.0041768623264976995,0.0,43859.59746,1100.508408,0.002103551,1819.749829,503.9644651,-20.59248172,4.41E-19,17.22029118,0.0,0.0,0.0,1.035436706,675.1393195
4.9,5.34E-14,872.080373,-726.0931798,4197.251475,0.012488413,7.65E-19,32.18589975,90.0,0.012491918,-1.25E-18,0.0,-0.0041768623264976995,0.0,43565.59079,1100.224785,0.002098936,1814.821514,503.7047354,-20.41386361,4.47E-19,16.99648024,0.0,0.0,0.0,1.031411352,672.3413339
5.0,5.33E-14,870.0363869,-721.2152382,4269.616714,0.012726866,7.8E-19,32.18567668,90.0,0.012730426,-1.28E-18,0.0,-0.0041768623264976995,0.0,43272.91429,1099.942993,0.002094352,1809.930392,503.4467481,-20.23754085,4.52E-19,16.77569866,0.0,0.0,0.0,1.027412346,669.5629866
5.1,5.32E-14,868.0099977,-716.3591668,4341.495255,0.012964761,7.94E-19,32.1854551,90.0,0.012968377,-1.3E-18,0.0,-0.0041768623264976995,0.0,42981.55001,1099.663026,0.002089798,1805.076113,503.1904971,-20.063475,4.57E-19,16.55789484,0.0,0.0,0.0,1.023439428,666.8040778
5.2,5.31E-14,866.0009811,-711.5246712,4412.88927,0.013202103,8.09E-19,32.18523502,90.0,0.013205774,-1.33E-18,0.0,-0.0041768623264976995,0.0,42691.48027,1099.384874,0.002085276,1800.258562,502.9359731,-19.89163111,4.62E-19,16.34302045,0.0,0.0,0.0,1.019492343,664.0644112
5.3,5.29E-14,864.0091163,-706.7114616,4483.800903,0.013438896,8.23E-19,32.18501643,90.0,0.013442622,-1.36E-18,0.0,-0.0041768623264976995,0.0,42402.6877,1099.108532,0.002080783,1795.477387,502.6831682,-19.72197359,4.67E-19,16.13102703,0.0,0.0,0.0,1.015570842,661.3437945
5.4,5.28E-14,862.0341863,-701.9192533,4554.232266,0.013675146,8.38E-19,32.18479933,90.0,0.013678926,-1.38E-18,0.0,-0.0041768623264976995,0.0,42115.1552,1098.833994,0.002076322,1790.732488,502.4320766,-19.55446757,4.72E-19,15.92186706,0.0,0.0,0.0,1.011674679,658.642039
5.5,5.27E-14,860.0759773,-697.1477662,4624.185447,0.013910856,8.52E-19,32.18458369,90.0,0.01391469,-1.41E-18,0.0,-0.0041768623264976995,0.0,41828.86597,1098.561251,0.00207189,1786.023629,502.1826886,-19.38907887,4.77E-19,15.71549399,0.0,0.0,0.0,1.007803615,655.9589596
5.6,5.26E-14,858.1342789,-692.3967246,4693.662504,0.014146032,8.67E-19,32.18436953,90.0,0.014149919,-1.43E-18,0.0,-0.0041768623264976995,0.0,41543.80348,1098.290297,0.002067489,1781.350589,501.9349984,-19.22577268,4.82E-19,15.5118611,0.0,0.0,0.0,1.003957415,653.2943747
5.7,5.25E-14,856.208884,-687.6658575,4762.665468,0.014380678,8.81E-19,32.18415683,90.0,0.014384618,-1.46E-18,0.0,-0.0041768623264976995,0.0,41259.95145,1098.021127,0.002063118,1776.713145,501.6889991,-19.06451882,4.86E-19,15.3109258,0.0,0.0,0.0,1.000135847,650.6481061
5.8,5.24E-14,854.2995889,-682.9548982,4831.196343,0.014614798,8.95E-19,32.18394559,90.0,0.01461879,-1.48E-18,0.0,-0.0041768623264976995,0.0,40977.29389,1097.753732,0.002058776,1772.111069,501.444682,-18.90528378,4.91E-19,15.11264315,0.0,0.0,0.0,0.996338686,648.0199793
5.9,5.22E-14,852.4061929,-678.2635843,4899.257106,0.014848397,9.1E-19,32.1837358,90.0,0.014852441,-1.51E-18,0.0,-0.0041768623264976995,0.0,40695.81506,1097.488107,0.002054465,1767.54414,501.2020404,-18.74803602,4.95E-19,14.91697013,0.0,0.0,0.0,0.992565711,645.4098227
6.0,5.21E-14,850.528466,-673.591632,4966.849709,0.015081479,9.24E-19,32.18352745,90.0,0.015085575,-1.53E-18,0.0,-0.0041768623264976995,0.0,40415.49792,1097.224301,0.002050291,1763.10564,500.9611188,-18.59358113,5.0E-19,14.72452701,0.0,0.0,0.0,0.988816616,642.8174438
6.1,5.2E-14,848.6661093,-668.938705,5033.97607,0.015314048,9.38E-19,32.18332054,90.0,0.015318195,-1.56E-18,0.0,-0.0041768623264976995,0.0,40136.3223,1096.962278,0.002046199,1758.745678,500.7218829,-18.44164388,5.04E-19,14.53506999,0.0,0.0,0.0,0.985091095,640.2425988
6.2,5.19E-14,846.8189276,-664.3045516,5100.638079,0.015546109,9.52E-19,32.18311507,90.0,0.015550307,-1.59E-18,0.0,-0.0041768623264976995,0.0,39858.27309,1096.702005,0.002042134,1754.419343,500.4843019,-18.29157035,5.08E-19,14.34806222,0.0,0.0,0.0,0.98138896,637.6851238
6.3,5.18E-14,844.9867358,-659.6889294,5166.837601,0.015777666,9.67E-19,32.18291102,90.0,0.015781914,-1.61E-18,0.0,-0.0041768623264976995,0.0,39581.33577,1096.443477,0.002038098,1750.126299,500.2483688,-18.1433321,5.12E-19,14.16346476,0.0,0.0,0.0,0.97771001,635.144863
6.4,5.17E-14,843.1693513,-655.0916001,5232.576477,0.016008722,9.81E-19,32.1827084,90.0,0.01601302,-1.64E-18,0.0,-0.0041768623264976995,0.0,39305.49601,1096.186687,0.002034089,1745.866333,500.0140776,-17.99690118,5.16E-19,13.98123943,0.0,0.0,0.0,0.97405405,632.6216634
6.5,5.16E-14,841.3665945,-650.5123289,5297.856526,0.016239283,9.95E-19,32.18250718,90.0,0.016243629,-1.66E-18,0.0,-0.0041768623264976995,0.0,39030.73973,1095.931631,0.002030109,1741.639358,499.7814223,-17.85225147,5.2E-19,13.80134974,0.0,0.0,0.0,0.970420886,630.1153754
6.6,5.15E-14,839.5782883,-645.9508848,5362.67954,0.016469351,1.01E-18,32.18230738,90.0,0.016473746,-1.69E-18,0.0,-0.0041768623264976995,0.0,38757.05309,1095.678301,0.002026157,1737.445037,499.5503953,-17.70935608,5.24E-19,13.6237589,0.0,0.0,0.0,0.966810332,627.625852
6.7,5.13E-14,837.8042584,-641.4070404,5427.047292,0.01669893,1.02E-18,32.18210899,90.0,0.016703375,-1.71E-18,0.0,-0.0041768623264976995,0.0,38484.42242,1095.426692,0.002022232,1733.283281,499.3209905,-17.56818741,5.28E-19,13.44842988,0.0,0.0,0.0,0.963222203,625.1529488
6.8,5.12E-14,836.0443329,-636.8805718,5490.96153,0.016928025,1.04E-18,32.18191199,90.0,0.016932518,-1.74E-18,0.0,-0.0041768623264976995,0.0,38212.83431,1095.176799,0.002018335,1729.153887,499.0932027,-17.42872205,5.32E-19,13.27532915,0.0,0.0,0.0,0.959656318,622.6965246
6.9,5.11E-14,834.2983427,-632.3712586,5554.423981,0.01715664,1.05E-18,32.18171639,90.0,0.017161181,-1.76E-18,0.0,-0.0041768623264976995,0.0,37942.27552,1094.928616,0.002014466,1725.056763,498.8670243,-17.29093461,5.35E-19,13.10442195,0.0,0.0,0.0,0.956112501,620.2564407
7.0,5.1E-14,832.5661209,-627.8788839,5617.43635,0.017384778,1.06E-18,32.18152217,90.0,0.017389366,-1.79E-18,0.0,-0.0041768623264976995,0.0,37672.73303,1094.682138,0.002010624,1720.991709,498.6424508,-17.15479894,5.39E-19,12.93567322,0.0,0.0,0.0,0.952590576,617.832561
7.1,5.09E-14,830.8475033,-623.403234,5680.000318,0.017612443,1.08E-18,32.18132934,90.0,0.017617079,-1.82E-18,0.0,-0.0041768623264976995,0.0,37404.19404,1094.437358,0.002006809,1716.958392,498.4194747,-17.02029183,5.43E-19,12.76905038,0.0,0.0,0.0,0.949090377,615.424752
7.2,5.08E-14,829.1423278,-618.9440985,5742.11755,0.017839639,1.09E-18,32.18113789,90.0,0.017844321,-1.84E-18,0.0,-0.0041768623264976995,0.0,37136.64591,1094.194272,0.002003022,1712.956854,498.1980912,-16.88738926,5.46E-19,12.60452056,0.0,0.0,0.0,0.945611736,613.0328831
7.3,5.07E-14,827.450435,-614.5012702,5803.789684,0.018066369,1.11E-18,32.18094781,90.0,0.018071098,-1.87E-18,0.0,-0.0041768623264976995,0.0,36870.07621,1093.952875,0.001999261,1708.986769,497.9782938,-16.75607006,5.5E-19,12.44205324,0.0,0.0,0.0,0.942154489,610.6568258
7.4,5.06E-14,825.7716674,-610.0745453,5865.018343,0.018292637,1.12E-18,32.1807591,90.0,0.018297412,-1.89E-18,0.0,-0.0041768623264976995,0.0,36604.47272,1093.71316,0.001995528,1705.048057,497.760077,-16.62630873,5.53E-19,12.28161492,0.0,0.0,0.0,0.938718479,608.2964543
7.5,5.05E-14,824.1058701,-605.6637228,5925.805126,0.018518447,1.13E-18,32.18057175,90.0,0.018523267,-1.92E-18,0.0,-0.0041768623264976995,0.0,36339.82337,1093.475124,0.001991822,1701.140516,497.5434352,-16.49808374,5.56E-19,12.12317536,0.0,0.0,0.0,0.935303547,605.9516454
7.6,5.04E-14,822.4528903,-601.2686049,5986.151614,0.018743802,1.15E-18,32.18038576,90.0,0.018748667,-1.94E-18,0.0,-0.0041768623264976995,0.0,36076.11629,1093.23876,0.001988142,1697.264064,497.328362,-16.37137399,5.59E-19,11.96670484,0.0,0.0,0.0,0.931909542,603.6222779
7.7,5.03E-14,820.8125772,-596.8889967,6046.059367,0.018968705,1.16E-18,32.18020112,90.0,0.018973616,-1.97E-18,0.0,-0.0041768623264976995,0.0,35813.3398,1093.004065,0.00198449,1693.418507,497.114853,-16.24615642,5.63E-19,11.81217247,0.0,0.0,0.0,0.928536314,601.3082333
7.8,5.02E-14,819.1847825,-592.5247065,6105.529926,0.019193161,1.18E-18,32.18001783,90.0,0.019198116,-1.99E-18,0.0,-0.0041768623264976995,0.0,35551.48239,1092.771032,0.001980864,1689.603522,496.9029018,-16.12241186,5.66E-19,11.65955044,0.0,0.0,0.0,0.925183716,599.0093953
7.9,5.01E-14,817.5693597,-588.175545,6164.564815,0.019417172,1.19E-18,32.17983588,90.0,0.019422172,-2.02E-18,0.0,-0.0041768623264976995,0.0,35290.5327,1092.539657,0.001977264,1685.819275,496.6925033,-16.00011921,5.69E-19,11.50880975,0.0,0.0,0.0,0.921851605,596.7256499
8.0,5.0E-14,815.9661644,-583.8413263,6223.165536,0.019640742,1.2E-18,32.17965528,90.0,0.019645785,-2.05E-18,0.0,-0.0041768623264976995,0.0,35030.47958,1092.309936,0.001973691,1682.06533,496.4836528,-15.87925657,5.72E-19,11.35992111,0.0,0.0,0.0,0.918539839,594.4568853
8.1,4.99E-14,814.3750543,-579.5218668,6281.333574,0.019863874,1.22E-18,32.17947601,90.0,0.019868961,-2.07E-18,0.0,-0.0041768623264976995,0.0,34771.31201,1092.081863,0.001970144,1678.341609,496.2763438,-15.75980589,5.75E-19,11.21285817,0.0,0.0,0.0,0.915248283,592.2029919
8.2,4.98E-14,812.795889,-575.216986,6339.070398,0.020086572,1.23E-18,32.17929807,90.0,0.020091702,-2.1E-18,0.0,-0.0041768623264976995,0.0,34513.01916,1091.855433,0.001966624,1674.648039,496.0705716,-15.64174716,5.78E-19,11.06759343,0.0,0.0,0.0,0.9119768,589.9638623
8.3,4.97E-14,811.2285301,-570.9265058,6396.377454,0.020308838,1.24E-18,32.17912145,90.0,0.020314011,-2.12E-18,0.0,-0.0041768623264976995,0.0,34255.59035,1091.630643,0.00196313,1670.984427,495.8663315,-15.52505961,5.8E-19,10.92409909,0.0,0.0,0.0,0.90872526,587.7393913
8.4,4.96E-14,809.672841,-566.6502509,6453.256175,0.020530676,1.26E-18,32.17894615,90.0,0.020535892,-2.15E-18,0.0,-0.0041768623264976995,0.0,33999.01505,1091.407487,0.001959662,1667.350581,495.6636178,-15.4097262,5.83E-19,10.7823502,0.0,0.0,0.0,0.905493534,585.5294757
8.5,4.95E-14,808.1286873,-562.3880486,6509.707975,0.02075209,1.27E-18,32.17877218,90.0,0.020757348,-2.17E-18,0.0,-0.0041768623264976995,0.0,33743.28292,1091.18596,0.00195622,1663.746425,495.4624251,-15.29572686,5.86E-19,10.64231988,0.0,0.0,0.0,0.902281497,583.3340143
8.6,4.94E-14,806.5959359,-558.1397287,6565.73425,0.020973082,1.28E-18,32.17859951,90.0,0.020978382,-2.2E-18,0.0,-0.0041768623264976995,0.0,33488.38372,1090.96606,0.001952813,1660.179724,495.2627497,-15.18304518,5.89E-19,10.50398404,0.0,0.0,0.0,0.899089023,581.1529082
8.7,4.93E-14,805.0743993,-553.9050843,6621.336379,0.021193655,1.3E-18,32.17842815,90.0,0.021198997,-2.23E-18,0.0,-0.0041768623264976995,0.0,33234.30506,1090.74778,0.001949551,1656.74334,495.0645857,-15.07262376,5.91E-19,10.36797843,0.0,0.0,0.0,0.895915931,578.9860194
8.8,4.93E-14,803.5639071,-549.6839226,6676.515719,0.021413813,1.31E-18,32.1782581,90.0,0.021419196,-2.25E-18,0.0,-0.0041768623264976995,0.0,32981.03536,1090.531116,0.001946314,1653.335269,494.8679283,-14.96349,5.94E-19,10.23361398,0.0,0.0,0.0,0.892762057,576.8332234
8.9,4.92E-14,802.0643343,-545.4760831,6731.27361,0.021633558,1.33E-18,32.17808934,90.0,0.021638982,-2.28E-18,0.0,-0.0041768623264976995,0.0,32728.56499,1090.316065,0.001943101,1649.955327,494.6727731,-14.85559803,5.96E-19,10.10084705,0.0,0.0,0.0,0.889627288,574.694429
9.0,4.91E-14,800.5755571,-541.2814075,6785.611376,0.021852893,1.34E-18,32.17792188,90.0,0.021858359,-2.3E-18,0.0,-0.0041768623264976995,0.0,32476.88445,1090.102622,0.001939913,1646.603447,494.4791153,-14.748932,5.99E-19,9.969654951,0.0,0.0,0.0,0.886511515,572.5695467
9.1,4.9E-14,799.0974536,-537.09974,6839.530327,0.022071822,1.35E-18,32.17775571,90.0,0.022077328,-2.33E-18,0.0,-0.0041768623264976995,0.0,32225.9844,1089.890782,0.00193675,1643.279565,494.2869498,-14.64347524,6.01E-19,9.840014634,0.0,0.0,0.0,0.88341463,570.4584887
9.2,4.89E-14,797.6299034,-532.9309268,6893.031755,0.022290348,1.37E-18,32.17759083,90.0,0.022295894,-2.35E-18,0.0,-0.0041768623264976995,0.0,31975.85561,1089.680543,0.001933611,1639.983496,494.0962726,-14.53921244,6.04E-19,9.711904156,0.0,0.0,0.0,0.880336528,568.3611693
9.3,4.88E-14,796.1727877,-528.7748163,6946.116938,0.022508472,1.38E-18,32.17742723,90.0,0.022514058,-2.38E-18,0.0,-0.0041768623264976995,0.0,31726.48898,1089.471899,0.001930497,1636.715059,493.907079,-14.43612856,6.06E-19,9.585301922,0.0,0.0,0.0,0.877277107,566.2775043
9.4,4.87E-14,794.7259892,-524.6312594,6998.787139,0.022726198,1.39E-18,32.17726492,90.0,0.022731824,-2.4E-18,0.0,-0.0041768623264976995,0.0,31477.87556,1089.264846,0.001927407,1633.474189,493.7193643,-14.33420775,6.09E-19,9.460185991,0.0,0.0,0.0,0.874236266,564.2074113
9.5,4.86E-14,793.2893921,-520.5001088,7051.043605,0.02294353,1.41E-18,32.17710387,90.0,0.022949195,-2.43E-18,0.0,-0.0041768623264976995,0.0,31230.00653,1089.059381,0.001924341,1630.260703,493.5331238,-14.23343444,6.11E-19,9.33653479,0.0,0.0,0.0,0.871213908,562.1508097
9.6,4.85E-14,791.8628822,-516.3812195,7102.887571,0.023160469,1.42E-18,32.1769441,90.0,0.023166173,-2.46E-18,0.0,-0.0041768623264976995,0.0,30982.87317,1088.8555,0.001921299,1627.074545,493.3483539,-14.1337944,6.13E-19,9.214327787,0.0,0.0,0.0,0.868209937,560.1076205
9.7,4.85E-14,790.4463467,-512.2744483,7154.320255,0.023377018,1.43E-18,32.1767856,90.0,0.023382761,-2.48E-18,0.0,-0.0041768623264976995,0.0,30736.4669,1088.653198,0.001918282,1623.915531,493.1650496,-14.03527256,6.15E-19,9.093544102,0.0,0.0,0.0,0.86522426,558.0777665
9.8,4.84E-14,789.0396743,-508.1796544,7205.342862,0.023593181,1.45E-18,32.17662836,90.0,0.023598962,-2.51E-18,0.0,-0.0041768623264976995,0.0,30490.77926,1088.452472,0.001915289,1620.783601,492.9832067,-13.93785619,6.18E-19,8.97416453,0.0,0.0,0.0,0.862256785,556.0611719
9.9,4.83E-14,787.6427551,-504.0966987,7255.956583,0.023808959,1.46E-18,32.17647239,90.0,0.023814779,-2.53E-18,0.0,-0.0041768623264976995,0.0,30245.80192,1088.253318,0.001912319,1617.678698,492.8028211,-13.84152868,6.2E-19,8.856167523,0.0,0.0,0.0,0.859307424,554.0577627
10.0,4.82E-14,786.2554804,-500.0254442,7306.162594,0.024024355,1.47E-18,32.17631766,90.0,0.024030213,-2.56E-18,0.0,-0.0041768623264976995,0.0,30001.52665,1088.055733,0.001909374,1614.600523,492.6238888,-13.74627879,6.22E-19,8.739535169,0.0,0.0,0.0,0.85637609,552.0674664
10.1,4.81E-14,784.8777432,-495.9657558,7355.962059,0.024239373,1.49E-18,32.1761642,90.0,0.024245269,-2.58E-18,0.0,-0.0041768623264976995,0.0,29757.94535,1087.859712,0.001906452,1611.549138,492.4464051,-13.65209143,6.24E-19,8.624247228,0.0,0.0,0.0,0.853462698,550.0902122
10.2,4.8E-14,783.5094377,-491.9175004,7405.356128,0.024454015,1.5E-18,32.17601198,90.0,0.024459948,-2.61E-18,0.0,-0.0041768623264976995,0.0,29515.05002,1087.665251,0.001903554,1608.524246,492.2703661,-13.55895275,6.26E-19,8.510284448,0.0,0.0,0.0,0.850567166,548.1259306
10.3,4.8E-14,782.1504593,-487.8805465,7454.345938,0.024668282,1.51E-18,32.17586101,90.0,0.024674253,-2.63E-18,0.0,-0.0041768623264976995,0.0,29272.83279,1087.472348,0.00190068,1605.525913,492.0957683,-13.46685217,6.28E-19,8.397629768,0.0,0.0,0.0,0.847689414,546.1745537
10.4,4.79E-14,780.8007049,-483.8547648,7502.932611,0.024882179,1.52E-18,32.17571128,90.0,0.024888186,-2.66E-18,0.0,-0.0041768623264976995,0.0,29031.28589,1087.280999,0.001897829,1602.553962,491.9226072,-13.37577426,6.3E-19,8.286263254,0.0,0.0,0.0,0.844829363,544.2360153
10.5,4.78E-14,779.4600724,-479.8400275,7551.11726,0.025095707,1.54E-18,32.17556279,90.0,0.025101751,-2.69E-18,0.0,-0.0041768623264976995,0.0,28790.40165,1087.091199,0.001895003,1599.608336,491.7508787,-13.28570786,6.32E-19,8.176167779,0.0,0.0,0.0,0.841986936,542.3102503
10.6,4.77E-14,778.1284614,-475.8362087,7598.900983,0.025308868,1.55E-18,32.17541554,90.0,0.025314949,-2.71E-18,0.0,-0.0041768623264976995,0.0,28550.17252,1086.902946,0.001892199,1596.688744,491.580579,-13.19663901,6.34E-19,8.067324644,0.0,0.0,0.0,0.83916206,540.3971954
10.7,4.76E-14,776.8057723,-471.8431845,7646.284864,0.025521666,1.56E-18,32.17526952,90.0,0.025527783,-2.74E-18,0.0,-0.0041768623264976995,0.0,28310.59107,1086.716236,0.001889419,1593.795251,491.4117046,-13.10855792,6.36E-19,7.959717857,0.0,0.0,0.0,0.836354661,538.4967884
10.8,4.75E-14,775.491907,-467.8608322,7693.269977,0.025734103,1.58E-18,32.17512472,90.0,0.025740256,-2.76E-18,0.0,-0.0041768623264976995,0.0,28071.64993,1086.531066,0.001886663,1590.927685,491.2442515,-13.02145006,6.38E-19,7.853328676,0.0,0.0,0.0,0.833564669,536.6089686
10.9,4.75E-14,774.1867684,-463.8890314,7739.857384,0.02594618,1.59E-18,32.17498116,90.0,0.025952369,-2.79E-18,0.0,-0.0041768623264976995,0.0,27833.34188,1086.347432,0.001883929,1588.085992,491.0782154,-12.93530604,6.4E-19,7.748141612,0.0,0.0,0.0,0.830792016,534.7336769
11.0,4.74E-14,772.8902606,-459.9276628,7786.048133,0.026157901,1.6E-18,32.17483881,90.0,0.026164126,-2.81E-18,0.0,-0.0041768623264976995,0.0,27595.65977,1086.16533,0.00188122,1585.270001,490.913593,-12.85011174,6.41E-19,7.644138486,0.0,0.0,0.0,0.828036634,532.8708553
11.1,4.73E-14,771.6022889,-455.9766092,7831.843262,0.026369268,1.62E-18,32.17469769,90.0,0.026375528,-2.84E-18,0.0,-0.0041768623264976995,0.0,27358.59655,1085.984759,0.001878533,1582.479663,490.7503813,-12.76585811,6.43E-19,7.541304289,0.0,0.0,0.0,0.825298458,531.0204471
11.2,4.72E-14,770.3227599,-452.0357548,7877.243796,0.026580284,1.63E-18,32.17455778,90.0,0.026586579,-2.86E-18,0.0,-0.0041768623264976995,0.0,27122.14529,1085.805713,0.001875869,1579.714803,490.588575,-12.68253243,6.45E-19,7.439621948,0.0,0.0,0.0,0.822577425,529.1823971
11.3,4.72E-14,769.051581,-448.1049855,7922.250751,0.026790949,1.64E-18,32.17441909,90.0,0.026797279,-2.89E-18,0.0,-0.0041768623264976995,0.0,26886.29913,1085.628191,0.001873229,1576.975376,490.428172,-12.60012407,6.47E-19,7.339075786,0.0,0.0,0.0,0.819873474,527.3566513
11.4,4.71E-14,767.7886608,-444.1841886,7966.865128,0.027001268,1.65E-18,32.1742816,90.0,0.027007632,-2.92E-18,0.0,-0.0041768623264976995,0.0,26651.05132,1085.452188,0.001870611,1574.261328,490.2691676,-12.51862259,6.48E-19,7.239650353,0.0,0.0,0.0,0.817186545,525.543157
11.5,4.7E-14,766.5339092,-440.2732532,8011.087919,0.027211241,1.67E-18,32.17414532,90.0,0.02721764,-2.94E-18,0.0,-0.0041768623264976995,0.0,26416.39519,1085.277702,0.001868017,1571.572495,490.1115593,-12.43801582,6.5E-19,7.14132934,0.0,0.0,0.0,0.814516578,523.7418627
11.6,4.69E-14,765.2872369,-436.3720698,8054.920105,0.027420872,1.68E-18,32.17401025,90.0,0.027427305,-2.97E-18,0.0,-0.0041768623264976995,0.0,26182.32419,1085.10473,0.001865445,1568.908826,489.9553432,-12.35829555,6.52E-19,7.04409885,0.0,0.0,0.0,0.811863519,521.9527182
11.7,4.68E-14,764.0485556,-432.4805304,8098.362656,0.027630162,1.69E-18,32.17387637,90.0,0.027636629,-2.99E-18,0.0,-0.0041768623264976995,0.0,25948.83182,1084.933268,0.001862897,1566.270154,489.8005153,-12.27944997,6.53E-19,6.947943032,0.0,0.0,0.0,0.809227313,520.1756743
11.8,4.68E-14,762.8177783,-428.5985284,8141.41653,0.027839114,1.71E-18,32.1737437,90.0,0.027845614,-3.02E-18,0.0,-0.0041768623264976995,0.0,25715.9117,1084.763313,0.001860371,1563.656431,489.6470728,-12.20146933,6.55E-19,6.852847345,0.0,0.0,0.0,0.806607905,518.4106834
11.9,4.67E-14,761.5948187,-424.7259588,8184.082677,0.028047729,1.72E-18,32.17361222,90.0,0.028054263,-3.04E-18,0.0,-0.0041768623264976995,0.0,25483.55753,1084.594862,0.001857867,1561.067611,489.4950117,-12.124344,6.56E-19,6.75879745,0.0,0.0,0.0,0.804005246,516.6576987
12.0,4.66E-14,760.3795819,-420.8627125,8226.362035,0.028256011,1.73E-18,32.17348193,90.0,0.028262578,-3.07E-18,0.0,-0.0041768623264976995,0.0,25251.76275,1084.427942,0.001855441,1558.549312,489.3443563,-12.048355,6.58E-19,6.665939913,0.0,0.0,0.0,0.801419251,514.916668
12.1,4.66E-14,759.1719378,-417.0086622,8268.255528,0.02846396,1.74E-18,32.17335283,90.0,0.028470561,-3.09E-18,0.0,-0.0041768623264976995,0.0,25020.51973,1084.262542,0.001853078,1556.08905,489.1950953,-11.97351563,6.59E-19,6.574269553,0.0,0.0,0.0,0.798849832,513.1875159
12.2,4.65E-14,757.9717993,-413.1637053,8309.764072,0.02867158,1.76E-18,32.17322492,90.0,0.028678213,-3.12E-18,0.0,-0.0041768623264976995,0.0,24789.82232,1084.098637,0.001850736,1553.652553,489.0472058,-11.89948766,6.61E-19,6.483589355,0.0,0.0,0.0,0.796296953,511.4701967
12.3,4.64E-14,756.7790853,-409.3277437,8350.88857,0.028878871,1.77E-18,32.17309818,90.0,0.028885537,-3.15E-18,0.0,-0.0041768623264976995,0.0,24559.66462,1083.936224,0.001848415,1551.239777,488.9006846,-11.82626414,6.63E-19,6.393887077,0.0,0.0,0.0,0.79376057,509.7646692
12.4,4.63E-14,755.5937158,-405.5006804,8391.629919,0.029085837,1.78E-18,32.17297264,90.0,0.029092536,-3.17E-18,0.0,-0.0041768623264976995,0.0,24330.04082,1083.7753,0.001846117,1548.850681,488.7555286,-11.75383464,6.64E-19,6.305148673,0.0,0.0,0.0,0.791240642,508.0708934
12.5,4.63E-14,754.4156116,-401.6824198,8431.989001,0.029292479,1.79E-18,32.17284826,90.0,0.02929921,-3.2E-18,0.0,-0.0041768623264976995,0.0,24100.94519,1083.615863,0.00184384,1546.485103,488.6117346,-11.68219158,6.66E-19,6.217361755,0.0,0.0,0.0,0.788737126,506.3888302
12.6,4.62E-14,753.2446946,-397.8728678,8471.966694,0.029498799,1.81E-18,32.17272507,90.0,0.029505562,-3.22E-18,0.0,-0.0041768623264976995,0.0,23872.37207,1083.457909,0.001841584,1544.142881,488.4692994,-11.61132572,6.67E-19,6.130513145,0.0,0.0,0.0,0.786249983,504.7184416
12.7,4.61E-14,752.0808871,-394.0719314,8511.563864,0.029704799,1.82E-18,32.17260304,90.0,0.029711594,-3.25E-18,0.0,-0.0041768623264976995,0.0,23644.31588,1083.301435,0.00183935,1541.824213,488.3282197,-11.54122797,6.68E-19,6.044589855,0.0,0.0,0.0,0.783779176,503.0596908
12.8,4.6E-14,750.9241126,-390.2795187,8550.781366,0.029910482,1.83E-18,32.17248219,90.0,0.029917308,-3.27E-18,0.0,-0.0041768623264976995,0.0,23416.77112,1083.14644,0.001837137,1539.528702,488.1884929,-11.47189025,6.7E-19,5.959579552,0.0,0.0,0.0,0.781324667,501.4125416
12.9,4.6E-14,749.7742955,-386.4955393,8589.62005,0.030115848,1.85E-18,32.1723625,90.0,0.030122706,-3.3E-18,0.0,-0.0041768623264976995,0.0,23189.73236,1082.99292,0.001834946,1537.256424,488.0501156,-11.40330462,6.71E-19,5.875470066,0.0,0.0,0.0,0.778886421,499.7769591
13.0,4.59E-14,748.6313607,-382.719904,8628.080753,0.0303209,1.86E-18,32.17224398,90.0,0.03032779,-3.32E-18,0.0,-0.0041768623264976995,0.0,22963.19424,1082.840873,0.001832776,1535.007343,487.9130852,-11.33546326,6.73E-19,5.792249388,0.0,0.0,0.0,0.776464404,498.1529092
13.1,4.58E-14,747.495234,-378.9525245,8666.164307,0.03052564,1.87E-18,32.17212662,90.0,0.030532561,-3.35E-18,0.0,-0.0041768623264976995,0.0,22737.15147,1082.690296,0.001830627,1532.781299,487.7773989,-11.2683576,6.74E-19,5.709905224,0.0,0.0,0.0,0.774058581,496.5403588
13.2,4.58E-14,746.3658423,-375.1933141,8703.871532,0.030730069,1.88E-18,32.17201042,90.0,0.030737021,-3.38E-18,0.0,-0.0041768623264976995,0.0,22511.59885,1082.541185,0.001828499,1530.578252,487.6430528,-11.20198008,6.75E-19,5.628425896,0.0,0.0,0.0,0.771668922,494.9392757
13.3,4.57E-14,745.2431129,-371.442187,8741.203241,0.03093419,1.9E-18,32.17189537,90.0,0.030941173,-3.4E-18,0.0,-0.0041768623264976995,0.0,22286.53122,1082.39354,0.001826393,1528.398164,487.5100449,-11.13632324,6.77E-19,5.547799877,0.0,0.0,0.0,0.769295397,493.3496287
13.4,4.56E-14,744.1269739,-367.6990587,8778.160237,0.031138005,1.91E-18,32.17178148,90.0,0.031145018,-3.43E-18,0.0,-0.0041768623264976995,0.0,22061.94352,1082.247357,0.001824308,1526.240762,487.378372,-11.07137888,6.78E-19,5.468015364,0.0,0.0,0.0,0.766937975,491.7713874
13.5,4.56E-14,743.0173545,-363.9638456,8814.743318,0.031341514,1.92E-18,32.17166875,90.0,0.031348557,-3.45E-18,0.0,-0.0041768623264976995,0.0,21837.83074,1082.102633,0.001822244,1524.106243,487.2480313,-11.00713895,6.79E-19,5.389060723,0.0,0.0,0.0,0.76459663,490.2045222
13.6,4.55E-14,741.9141843,-360.2364656,8850.953269,0.03154472,1.93E-18,32.17155716,90.0,0.031551793,-3.48E-18,0.0,-0.0041768623264976995,0.0,21614.18794,1081.959367,0.001820201,1521.994334,487.11902,-10.94359806,6.81E-19,5.310925727,0.0,0.0,0.0,0.762271333,488.6490046
13.7,4.54E-14,740.8173938,-356.5168374,8886.79087,0.031747625,1.95E-18,32.17144672,90.0,0.031754728,-3.5E-18,0.0,-0.0041768623264976995,0.0,21391.01024,1081.817555,0.001818179,1519.905116,486.9913353,-10.88074665,6.82E-19,5.233598204,0.0,0.0,0.0,0.759962059,487.1048067
13.8,4.54E-14,739.7269141,-352.8048809,8922.256893,0.03195023,1.96E-18,32.17133742,90.0,0.031957363,-3.53E-18,0.0,-0.0041768623264976995,0.0,21168.29285,1081.677195,0.001816177,1517.838318,486.8649745,-10.81857955,6.83E-19,5.1570682,0.0,0.0,0.0,0.757668783,485.5719016
13.9,4.53E-14,738.642677,-349.1005171,8957.352101,0.032152537,1.97E-18,32.17122927,90.0,0.0321597,-3.55E-18,0.0,-0.0041768623264976995,0.0,20946.03103,1081.538285,0.001814197,1515.79414,486.739935,-10.75708915,6.85E-19,5.08132466,0.0,0.0,0.0,0.755391482,484.0502632
14.0,4.52E-14,737.5646152,-345.403668,8992.077249,0.032354547,1.98E-18,32.17112225,90.0,0.03236174,-3.58E-18,0.0,-0.0041768623264976995,0.0,20724.22008,1081.400821,0.001812238,1513.772189,486.6162135,-10.6962671,6.86E-19,5.006356293,0.0,0.0,0.0,0.753130133,482.539866
14.1,4.52E-14,736.492662,-341.7142568,9026.433084,0.032556264,2.0E-18,32.17101637,90.0,0.032563486,-3.61E-18,0.0,-0.0041768623264976995,0.0,20502.85541,1081.264803,0.0018103,1511.772672,486.4938087,-10.63610853,6.87E-19,4.932153524,0.0,0.0,0.0,0.750884714,481.0406857
14.2,4.51E-14,735.4267512,-338.0322076,9060.420347,0.032757687,2.01E-18,32.17091163,90.0,0.032764938,-3.63E-18,0.0,-0.0041768623264976995,0.0,20281.93246,1081.130227,0.001808382,1509.795313,486.3727162,-10.57660613,6.88E-19,4.858705724,0.0,0.0,0.0,0.748655206,479.5526983
14.3,4.5E-14,734.3668174,-334.3574455,9094.039769,0.032958819,2.02E-18,32.17080803,90.0,0.0329661,-3.66E-18,0.0,-0.0041768623264976995,0.0,20061.44673,1080.997091,0.001806485,1507.8402,486.2529351,-10.51775273,6.89E-19,4.786002407,0.0,0.0,0.0,0.746441589,478.0758809
14.4,4.5E-14,733.312796,-330.6898967,9127.292077,0.033159662,2.03E-18,32.17070555,90.0,0.033166971,-3.68E-18,0.0,-0.0041768623264976995,0.0,19841.3938,1080.865393,0.001804609,1505.907178,486.1344613,-10.4595429,6.91E-19,4.714033974,0.0,0.0,0.0,0.744243843,476.6102111
14.5,4.49E-14,732.2646228,-327.0294884,9160.177988,0.033360216,2.04E-18,32.1706042,90.0,0.033367554,-3.71E-18,0.0,-0.0041768623264976995,0.0,19621.76931,1080.735129,0.001802753,1503.996216,486.017293,-10.40196883,6.92E-19,4.642789828,0.0,0.0,0.0,0.742061953,475.1556675
14.6,4.48E-14,731.2222344,-323.3761488,9192.698212,0.033560485,2.06E-18,32.17050398,90.0,0.033567851,-3.73E-18,0.0,-0.0041768623264976995,0.0,19402.56893,1080.606299,0.001800919,1502.10728,485.9014276,-10.3450261,6.93E-19,4.572260974,0.0,0.0,0.0,0.739895901,473.7122292
14.7,4.48E-14,730.1855679,-319.7298069,9224.853452,0.033760468,2.07E-18,32.17040488,90.0,0.033767863,-3.76E-18,0.0,-0.0041768623264976995,0.0,19183.78842,1080.478901,0.001799104,1500.240221,485.7868629,-10.28870629,6.94E-19,4.502436716,0.0,0.0,0.0,0.737745671,472.279876
14.8,4.47E-14,729.1545611,-316.090393,9256.644405,0.033960168,2.08E-18,32.1703069,90.0,0.033967591,-3.78E-18,0.0,-0.0041768623264976995,0.0,18965.42358,1080.35293,0.001797311,1498.395004,485.6735956,-10.23300515,6.95E-19,4.433308284,0.0,0.0,0.0,0.73561125,470.8585884
14.9,4.47E-14,728.1291524,-312.4578379,9288.07176,0.034159586,2.09E-18,32.17021005,90.0,0.034167038,-3.81E-18,0.0,-0.0041768623264976995,0.0,18747.47027,1080.228386,0.001795537,1496.571602,485.5616243,-10.17791528,6.97E-19,4.364865598,0.0,0.0,0.0,0.733492622,469.4483477
15.0,4.46E-14,727.1092808,-308.8320737,9319.1362,0.034358725,2.11E-18,32.17011431,90.0,0.034366204,-3.84E-18,0.0,-0.0041768623264976995,0.0,18529.92442,1080.105265,0.001793785,1494.76998,485.4509456,-10.12343178,6.98E-19,4.297099747,0.0,0.0,0.0,0.731389775,468.0491357
15.1,4.45E-14,726.0948859,-305.2130334,9349.8384,0.034557584,2.12E-18,32.17001969,90.0,0.034565091,-3.86E-18,0.0,-0.0041768623264976995,0.0,18312.782,1079.983567,0.001792052,1492.989873,485.3415579,-10.06954903,6.99E-19,4.230001574,0.0,0.0,0.0,0.729302696,466.6609349
15.2,4.45E-14,725.0859078,-301.6006507,9380.17903,0.034756167,2.13E-18,32.16992618,90.0,0.034763701,-3.89E-18,0.0,-0.0041768623264976995,0.0,18096.03904,1079.863288,0.00179034,1491.231486,485.233458,-10.01625993,7.0E-19,4.163561369,0.0,0.0,0.0,0.727231376,465.2837284
15.3,4.44E-14,724.0822872,-297.9948603,9410.158751,0.034954473,2.14E-18,32.16983378,90.0,0.034962036,-3.91E-18,0.0,-0.0041768623264976995,0.0,17879.69162,1079.744427,0.001788649,1489.494553,485.1266442,-9.963559816,7.01E-19,4.097770537,0.0,0.0,0.0,0.725175802,463.9174999
15.4,4.43E-14,723.0839654,-294.395598,9439.778221,0.035152506,2.15E-18,32.16974249,90.0,0.035160095,-3.94E-18,0.0,-0.0041768623264976995,0.0,17663.73588,1079.626982,0.001786978,1487.779164,485.0211141,-9.911443339,7.02E-19,4.032620245,0.0,0.0,0.0,0.723135965,462.5622337
15.5,4.43E-14,722.0908843,-290.8028001,9469.038088,0.035350265,2.17E-18,32.16965231,90.0,0.035357882,-3.96E-18,0.0,-0.0041768623264976995,0.0,17448.16801,1079.51095,0.001785327,1486.085288,484.916865,-9.859903645,7.03E-19,3.968101133,0.0,0.0,0.0,0.721111856,461.2179148
15.6,4.42E-14,721.1029862,-287.2164042,9497.938995,0.035547754,2.18E-18,32.16956324,90.0,0.035555398,-3.99E-18,0.0,-0.0041768623264976995,0.0,17232.98425,1079.396329,0.001783696,1484.41266,484.8138948,-9.808937107,7.05E-19,3.904205215,0.0,0.0,0.0,0.719103467,459.8845285
15.7,4.42E-14,720.1202141,-283.6363484,9526.481581,0.035744972,2.19E-18,32.16947527,90.0,0.035752643,-4.01E-18,0.0,-0.0041768623264976995,0.0,17018.1809,1079.283117,0.001782086,1482.761253,484.7122013,-9.758537819,7.06E-19,3.840923647,0.0,0.0,0.0,0.71711079,458.5620609
15.8,4.41E-14,719.1425114,-280.0625718,9554.666475,0.035941922,2.2E-18,32.1693884,90.0,0.03594962,-4.04E-18,0.0,-0.0041768623264976995,0.0,16803.75431,1079.171312,0.001780495,1481.131274,484.6117824,-9.708699961,7.07E-19,3.778247698,0.0,0.0,0.0,0.715133818,457.2504986
15.9,4.4E-14,718.1698221,-276.4950143,9582.494304,0.036138605,2.21E-18,32.16930263,90.0,0.036146329,-4.07E-18,0.0,-0.0041768623264976995,0.0,16589.70086,1079.060913,0.001778925,1479.522343,484.5126355,-9.65941857,7.08E-19,3.716169046,0.0,0.0,0.0,0.713172544,455.9498286
16.0,4.4E-14,717.2020906,-272.9336168,9609.965685,0.036335022,2.23E-18,32.16921796,90.0,0.036342773,-4.09E-18,0.0,-0.0041768623264976995,0.0,16376.01701,1078.951916,0.001777375,1477.934548,484.4147585,-9.610688755,7.09E-19,3.654679458,0.0,0.0,0.0,0.711226965,454.6600384
16.1,4.39E-14,716.239262,-269.3783209,9637.081231,0.036531174,2.24E-18,32.16913438,90.0,0.036538951,-4.12E-18,0.0,-0.0041768623264976995,0.0,16162.69925,1078.84432,0.001775845,1476.367981,484.3181492,-9.562505695,7.1E-19,3.59377079,0.0,0.0,0.0,0.709297073,453.3811161
16.2,4.39E-14,715.2812818,-265.8290689,9663.841551,0.036727064,2.25E-18,32.1690519,90.0,0.036734867,-4.14E-18,0.0,-0.0041768623264976995,0.0,15949.74413,1078.738124,0.001774335,1474.822264,484.2228059,-9.514864638,7.11E-19,3.533434986,0.0,0.0,0.0,0.707382865,452.1130504
16.3,4.38E-14,714.3280958,-262.285804,9690.247246,0.036922691,2.26E-18,32.16897051,90.0,0.036930521,-4.17E-18,0.0,-0.0041768623264976995,0.0,15737.14824,1078.633324,0.001772846,1473.297605,484.128726,-9.467759388,7.12E-19,3.473663521,0.0,0.0,0.0,0.705484337,450.85583
16.4,4.38E-14,713.3796506,-258.7484703,9716.298911,0.037118058,2.27E-18,32.16889021,90.0,0.037125914,-4.19E-18,0.0,-0.0041768623264976995,0.0,15524.90822,1078.52992,0.001771376,1471.793861,484.0359079,-9.421186854,7.13E-19,3.41444908,0.0,0.0,0.0,0.703601486,449.6094447
16.5,4.37E-14,712.4358932,-255.2170126,9741.997137,0.037313166,2.29E-18,32.168811,90.0,0.037321048,-4.22E-18,0.0,-0.0041768623264976995,0.0,15313.02076,1078.427909,0.001769926,1470.310885,483.944348,-9.375141736,7.15E-19,3.355783593,0.0,0.0,0.0,0.701734309,448.3738841
16.6,4.36E-14,711.4967708,-251.6913765,9767.342508,0.037508016,2.3E-18,32.16873287,90.0,0.037515924,-4.24E-18,0.0,-0.0041768623264976995,0.0,15101.48259,1078.327288,0.001768496,1468.848891,483.8540455,-9.329618809,7.16E-19,3.297659086,0.0,0.0,0.0,0.699882803,447.1491387
16.7,4.36E-14,710.5622315,-248.1715082,9792.335605,0.03770261,2.31E-18,32.16865583,90.0,0.037710543,-4.27E-18,0.0,-0.0041768623264976995,0.0,14890.29049,1078.228058,0.001767086,1467.407502,483.7649987,-9.284613669,7.17E-19,3.240067942,0.0,0.0,0.0,0.698046968,445.9351991
16.8,4.35E-14,709.6322234,-244.6573549,9816.977001,0.037896948,2.32E-18,32.16857988,90.0,0.037904906,-4.3E-18,0.0,-0.0041768623264976995,0.0,14679.4413,1078.130214,0.001765695,1465.986807,483.6772042,-9.240121975,7.18E-19,3.183002623,0.0,0.0,0.0,0.696226801,444.7320565
16.9,4.35E-14,708.7066955,-241.1488645,9841.267266,0.038091032,2.33E-18,32.168505,90.0,0.038099016,-4.32E-18,0.0,-0.0041768623264976995,0.0,14468.93187,1078.033756,0.001764325,1464.586904,483.5906612,-9.196140185,7.19E-19,3.126455919,0.0,0.0,0.0,0.694422302,443.5397023
17.0,4.34E-14,707.7855847,-237.6459815,9865.206962,0.038284863,2.35E-18,32.16843121,90.0,0.038292872,-4.35E-18,0.0,-0.0041768623264976995,0.0,14258.75889,1077.938711,0.001763024,1463.248764,483.5053927,-9.152892545,7.2E-19,3.070497076,0.0,0.0,0.0,0.692633441,442.3581209
17.1,4.34E-14,706.8688259,-234.1486504,9888.796648,0.038478442,2.36E-18,32.16835849,90.0,0.038486476,-4.37E-18,0.0,-0.0041768623264976995,0.0,14048.91903,1077.845047,0.001761744,1461.932882,483.4213713,-9.11018128,7.21E-19,3.015051599,0.0,0.0,0.0,0.690860221,441.1872952
17.2,4.33E-14,705.95637,-230.6568218,9912.036876,0.038671771,2.37E-18,32.16828685,90.0,0.03867983,-4.4E-18,0.0,-0.0041768623264976995,0.0,13839.40931,1077.752764,0.001760484,1460.636765,483.3385953,-9.067958831,7.22E-19,2.960097575,0.0,0.0,0.0,0.689102643,440.0272182
17.3,4.32E-14,705.0481682,-227.170447,9934.928195,0.038864851,2.38E-18,32.16821628,90.0,0.038872934,-4.42E-18,0.0,-0.0041768623264976995,0.0,13630.22682,1077.661857,0.001759242,1459.360505,483.2570613,-9.026221265,7.23E-19,2.905627971,0.0,0.0,0.0,0.68736071,438.8778833
17.4,4.32E-14,704.1441721,-223.6894778,9957.471147,0.039057682,2.39E-18,32.16814678,90.0,0.03906579,-4.45E-18,0.0,-0.0041768623264976995,0.0,13421.36867,1077.572327,0.00175802,1458.103966,483.1767684,-8.984965426,7.24E-19,2.851636053,0.0,0.0,0.0,0.685634423,437.7392842
17.5,4.31E-14,703.2443336,-220.213867,9979.66627,0.039250266,2.41E-18,32.16807836,90.0,0.039258399,-4.47E-18,0.0,-0.0041768623264976995,0.0,13212.83202,1077.484172,0.001756816,1456.867245,483.0977149,-8.944186757,7.26E-19,2.798114685,0.0,0.0,0.0,0.683923783,436.6114146
17.6,4.31E-14,702.348605,-216.7435679,10001.5141,0.039442604,2.42E-18,32.168011,90.0,0.039450762,-4.5E-18,0.0,-0.0041768623264976995,0.0,13004.61407,1077.397387,0.001755631,1455.650081,483.0198974,-8.903881486,7.27E-19,2.745057034,0.0,0.0,0.0,0.682228795,435.4942688
17.7,4.3E-14,701.4569392,-213.2785345,10023.01516,0.039634698,2.43E-18,32.16794472,90.0,0.03964288,-4.53E-18,0.0,-0.0041768623264976995,0.0,12796.71207,1077.311975,0.001754465,1454.452577,482.9433158,-8.864045889,7.28E-19,2.69245633,0.0,0.0,0.0,0.680549459,434.3878412
17.8,4.3E-14,700.5692892,-209.8187215,10044.16998,0.039826548,2.44E-18,32.16787949,90.0,0.039834754,-4.55E-18,0.0,-0.0041768623264976995,0.0,12589.12329,1077.22793,0.001753318,1453.274706,482.8679668,-8.824676293,7.29E-19,2.64030587,0.0,0.0,0.0,0.67888578,433.2921264
17.9,4.29E-14,699.6856087,-206.3640842,10064.97908,0.040018155,2.45E-18,32.16781534,90.0,0.040026386,-4.58E-18,0.0,-0.0041768623264976995,0.0,12381.84505,1077.145254,0.001752189,1452.116338,482.7938503,-8.785768366,7.3E-19,2.5885988,0.0,0.0,0.0,0.677237759,432.2071194
18.0,4.29E-14,698.8058514,-202.9145788,10085.44297,0.040209521,2.46E-18,32.16775224,90.0,0.040217776,-4.6E-18,0.0,-0.0041768623264976995,0.0,12174.87473,1077.063941,0.001751079,1450.977445,482.720962,-8.747318541,7.31E-19,2.537328548,0.0,0.0,0.0,0.675605402,431.1328152
18.1,4.28E-14,697.9299718,-199.4701619,10105.56216,0.040400646,2.48E-18,32.16769021,90.0,0.040408925,-4.63E-18,0.0,-0.0041768623264976995,0.0,11968.20972,1076.983993,0.001749988,1449.858012,482.6493019,-8.709322596,7.32E-19,2.486488402,0.0,0.0,0.0,0.67398871,430.0692091
18.2,4.28E-14,697.0579244,-196.0307909,10125.33717,0.040591532,2.49E-18,32.16762924,90.0,0.040599835,-4.65E-18,0.0,-0.0041768623264976995,0.0,11761.84745,1076.905408,0.001748916,1448.758022,482.5788684,-8.67177847,7.34E-19,2.436072316,0.0,0.0,0.0,0.672387687,429.0162967
18.3,4.27E-14,696.1896641,-192.5964236,10144.76849,0.04078218,2.5E-18,32.16756933,90.0,0.040790507,-4.68E-18,0.0,-0.0041768623264976995,0.0,11555.78542,1076.828181,0.001747862,1447.67745,482.509658,-8.634682031,7.35E-19,2.38607369,0.0,0.0,0.0,0.670802338,427.9740736
18.4,4.27E-14,695.3251464,-189.1670189,10163.85662,0.04097259,2.51E-18,32.16751047,90.0,0.040980941,-4.7E-18,0.0,-0.0041768623264976995,0.0,11350.02113,1076.752314,0.001746826,1446.616048,482.4416706,-8.598028503,7.36E-19,2.336485804,0.0,0.0,0.0,0.669232666,426.9425355
18.5,4.26E-14,694.464327,-185.7425358,10182.60206,0.041162765,2.52E-18,32.16745266,90.0,0.041171138,-4.73E-18,0.0,-0.0041768623264976995,0.0,11144.55215,1076.677804,0.00174581,1445.57403,482.3749038,-8.561815955,7.37E-19,2.287302772,0.0,0.0,0.0,0.667678675,425.9216786
18.6,4.25E-14,693.6071618,-182.3229343,10201.00529,0.041352704,2.53E-18,32.16739592,90.0,0.041361101,-4.76E-18,0.0,-0.0041768623264976995,0.0,10939.37606,1076.604648,0.001744812,1444.551262,482.3093558,-8.526040402,7.38E-19,2.238518181,0.0,0.0,0.0,0.666140369,424.9114988
18.7,4.25E-14,692.7536073,-178.9081749,10219.06681,0.041542408,2.55E-18,32.16734022,90.0,0.041550829,-4.78E-18,0.0,-0.0041768623264976995,0.0,10734.4905,1076.532847,0.001743832,1443.547724,482.2450248,-8.490698601,7.39E-19,2.190125868,0.0,0.0,0.0,0.664617752,423.9119924
18.8,4.24E-14,691.9036202,-175.4982188,10236.78709,0.04173188,2.56E-18,32.16728557,90.0,0.041740324,-4.81E-18,0.0,-0.0041768623264976995,0.0,10529.89313,1076.462397,0.001742871,1442.5634,482.1819092,-8.455786664,7.41E-19,2.142119547,0.0,0.0,0.0,0.663110829,422.9231556
18.9,4.24E-14,691.0571574,-172.0930275,10254.16661,0.041921119,2.57E-18,32.16723197,90.0,0.041929586,-4.83E-18,0.0,-0.0041768623264976995,0.0,10325.58165,1076.393297,0.001741929,1441.598155,482.1200072,-8.421302123,7.42E-19,2.094493341,0.0,0.0,0.0,0.661619603,421.9449849
19.0,4.23E-14,690.2141765,-168.6925636,10271.20585,0.042110126,2.58E-18,32.16717942,90.0,0.042118617,-4.86E-18,0.0,-0.0041768623264976995,0.0,10121.55381,1076.325546,0.001741004,1440.651973,482.0593172,-8.387241176,7.43E-19,2.047241074,0.0,0.0,0.0,0.660144079,420.9774767
19.1,4.23E-14,689.374635,-165.2967898,10287.90528,0.042298904,2.59E-18,32.16712792,90.0,0.042307417,-4.88E-18,0.0,-0.0041768623264976995,0.0,9917.807387,1076.259142,0.001740099,1439.724837,481.9998374,-8.35360143,7.44E-19,2.00035696,0.0,0.0,0.0,0.658684261,420.0206276
19.2,4.22E-14,688.5384911,-161.9056697,10304.26537,0.042487452,2.6E-18,32.16707746,90.0,0.042495988,-4.91E-18,0.0,-0.0041768623264976995,0.0,9714.340184,1076.194083,0.001739211,1438.816733,481.941567,-8.32037849,7.45E-19,1.953834772,0.0,0.0,0.0,0.657240151,419.074434
19.3,4.22E-14,687.705703,-158.5191675,10320.28657,0.042675771,2.62E-18,32.16702805,90.0,0.04268433,-4.93E-18,0.0,-0.0041768623264976995,0.0,9511.150051,1076.130369,0.001738343,1437.927642,481.8845033,-8.28757004,7.47E-19,1.907668824,0.0,0.0,0.0,0.655811755,418.1388927
19.4,4.21E-14,686.8762293,-155.1372478,10335.96935,0.042863863,2.63E-18,32.16697967,90.0,0.042872445,-4.96E-18,0.0,-0.0041768623264976995,0.0,9308.23487,1076.067996,0.001737492,1437.057548,481.8286447,-8.255172449,7.48E-19,1.861853162,0.0,0.0,0.0,0.654399077,417.2140002
19.5,4.21E-14,686.050029,-151.759876,10351.31417,0.043051728,2.64E-18,32.16693234,90.0,0.043060333,-4.99E-18,0.0,-0.0041768623264976995,0.0,9105.592557,1076.006964,0.00173666,1436.206202,481.7739894,-8.223183472,7.49E-19,1.816382186,0.0,0.0,0.0,0.65300212,416.2997532
19.6,4.2E-14,685.2270614,-148.3870177,10366.32148,0.043239368,2.65E-18,32.16688605,90.0,0.043247994,-5.01E-18,0.0,-0.0041768623264976995,0.0,8903.221065,1075.947271,0.001735846,1435.373826,481.7205375,-8.191599555,7.5E-19,1.771250042,0.0,0.0,0.0,0.651620887,415.3961483
19.7,4.2E-14,684.407286,-145.0186396,10380.99173,0.043426782,2.66E-18,32.16684079,90.0,0.043435431,-5.04E-18,0.0,-0.0041768623264976995,0.0,8701.118376,1075.888916,0.00173505,1434.560402,481.6682855,-8.160417852,7.52E-19,1.726451073,0.0,0.0,0.0,0.650255382,414.5031819
19.8,4.19E-14,683.5906625,-141.6547085,10395.32536,0.043613972,2.67E-18,32.16679657,90.0,0.043622644,-5.06E-18,0.0,-0.0041768623264976995,0.0,8499.282512,1075.831896,0.001734273,1433.765563,481.6172317,-8.129635552,7.53E-19,1.681979666,0.0,0.0,0.0,0.648905608,413.6208508
19.9,4.19E-14,682.7771513,-138.2951921,10409.32281,0.04380094,2.68E-18,32.16675338,90.0,0.043809633,-5.09E-18,0.0,-0.0041768623264976995,0.0,8297.711523,1075.776211,0.001733514,1432.98965,481.5673761,-8.099249879,7.54E-19,1.637830255,0.0,0.0,0.0,0.647571568,412.7491514
20.0,4.18E-14,681.9667126,-134.9400583,10422.98454,0.043987684,2.7E-18,32.16671123,90.0,0.043996401,-5.11E-18,0.0,-0.0041768623264976995,0.0,8096.403497,1075.72186,0.001732773,1432.232414,481.5187169,-8.069257431,7.55E-19,1.593997182,0.0,0.0,0.0,0.646253264,411.8880801
20.1,4.18E-14,681.1593072,-131.5892759,10436.31097,0.044174208,2.71E-18,32.16667011,90.0,0.044182946,-5.14E-18,0.0,-0.0041768623264976995,0.0,7895.356552,1075.668838,0.00173205,1431.493954,481.4712508,-8.039656158,7.57E-19,1.550475102,0.0,0.0,0.0,0.6449507,411.0376333
20.2,4.17E-14,680.354896,-128.242814,10449.30254,0.04436051,2.72E-18,32.16663002,90.0,0.044369271,-5.16E-18,0.0,-0.0041768623264976995,0.0,7694.56884,1075.617147,0.001731345,1430.774027,481.4249778,-8.010442728,7.58E-19,1.507258448,0.0,0.0,0.0,0.643663878,410.1978072
20.3,4.17E-14,679.5534404,-124.9006424,10461.95968,0.044546593,2.73E-18,32.16659096,90.0,0.044555375,-5.19E-18,0.0,-0.0041768623264976995,0.0,7494.038544,1075.566784,0.001730659,1430.072852,481.3798961,-7.981614496,7.59E-19,1.464341828,0.0,0.0,0.0,0.642392799,409.3685981
20.4,4.16E-14,678.7549017,-121.5627314,10474.28281,0.044732457,2.74E-18,32.16655293,90.0,0.044741261,-5.22E-18,0.0,-0.0041768623264976995,0.0,7293.763883,1075.517748,0.001729991,1429.3903,481.336004,-7.953168853,7.61E-19,1.421719891,0.0,0.0,0.0,0.641137464,408.5500019
20.5,4.16E-14,677.959242,-118.2290517,10486.27237,0.044918103,2.75E-18,32.16651593,90.0,0.044926928,-5.24E-18,0.0,-0.0041768623264976995,0.0,7093.743104,1075.470037,0.00172934,1428.726239,481.2932998,-7.925102566,7.62E-19,1.379387212,0.0,0.0,0.0,0.639897876,407.7420145
20.6,4.15E-14,677.1664231,-114.8995748,10497.92876,0.045103531,2.76E-18,32.16647995,90.0,0.045112378,-5.27E-18,0.0,-0.0041768623264976995,0.0,6893.974487,1075.42365,0.001728708,1428.080777,481.2517826,-7.897413735,7.63E-19,1.337338637,0.0,0.0,0.0,0.638674035,406.9446317
20.7,4.15E-14,676.3764075,-111.5742724,10509.25242,0.045288742,2.78E-18,32.166445,90.0,0.045297611,-5.29E-18,0.0,-0.0041768623264976995,0.0,6694.456344,1075.378585,0.001728094,1427.453781,481.2114499,-7.870099838,7.65E-19,1.295568929,0.0,0.0,0.0,0.637465942,406.1578492
20.8,4.14E-14,675.5891578,-108.253117,10520.24376,0.045473737,2.79E-18,32.16641107,90.0,0.045482628,-5.32E-18,0.0,-0.0041768623264976995,0.0,6495.187019,1075.334841,0.001727498,1426.845244,481.1723017,-7.84315709,7.66E-19,1.254072686,0.0,0.0,0.0,0.636273597,405.3816623
20.9,4.14E-14,674.8046367,-104.9360814,10530.90318,0.045658518,2.8E-18,32.16637816,90.0,0.04566743,-5.34E-18,0.0,-0.0041768623264976995,0.0,6296.164886,1075.292416,0.00172692,1426.255267,481.1343353,-7.816584317,7.67E-19,1.212844963,0.0,0.0,0.0,0.635096999,404.6160663
21.0,4.13E-14,674.0228074,-101.6231392,10541.23111,0.045843084,2.81E-18,32.16634627,90.0,0.045852017,-5.37E-18,0.0,-0.0041768623264976995,0.0,6097.38835,1075.251308,0.00172636,1425.683605,481.0975492,-7.790378438,7.69E-19,1.171880541,0.0,0.0,0.0,0.633936149,403.8610563
21.1,4.13E-14,673.2436333,-98.31426409,10551.22795,0.046027436,2.82E-18,32.1663154,90.0,0.046036391,-5.4E-18,0.0,-0.0041768623264976995,0.0,5898.855846,1075.211518,0.001725818,1425.130367,481.0619432,-7.764536405,7.7E-19,1.131174247,0.0,0.0,0.0,0.632791043,403.116627
21.2,4.13E-14,672.467078,-95.00943067,10560.8941,0.046211575,2.83E-18,32.16628555,90.0,0.046220551,-5.42E-18,0.0,-0.0041768623264976995,0.0,5700.56584,1075.173041,0.001725293,1424.595538,481.0275139,-7.739056475,7.72E-19,1.090721136,0.0,0.0,0.0,0.631661683,402.3827732
21.3,4.12E-14,671.6931053,-91.70861381,10570.22997,0.046395502,2.84E-18,32.16625671,90.0,0.0464045,-5.45E-18,0.0,-0.0041768623264976995,0.0,5502.516829,1075.135879,0.001724787,1424.078995,480.9942622,-7.713936289,7.73E-19,1.050516198,0.0,0.0,0.0,0.630548063,401.6594892
21.4,4.12E-14,670.9216794,-88.41178897,10579.23595,0.046579217,2.86E-18,32.16622889,90.0,0.046588236,-5.47E-18,0.0,-0.0041768623264976995,0.0,5304.707338,1075.100028,0.001724299,1423.580724,480.9621847,-7.689172247,7.75E-19,1.010554292,0.0,0.0,0.0,0.629450184,400.9467692
21.5,4.11E-14,670.1527646,-85.11893207,10587.91246,0.046762722,2.87E-18,32.16620208,90.0,0.046771762,-5.5E-18,0.0,-0.0041768623264976995,0.0,5107.135924,1075.065488,0.001723828,1423.100834,480.9312814,-7.66476331,7.76E-19,0.970830655,0.0,0.0,0.0,0.62836804,400.2446069
21.6,4.11E-14,669.3863254,-81.83001953,10596.25987,0.046946016,2.88E-18,32.16617629,90.0,0.046955077,-5.52E-18,0.0,-0.0041768623264976995,0.0,4909.801172,1075.032257,0.001723375,1422.639079,480.9015496,-7.640706562,7.78E-19,0.931340303,0.0,0.0,0.0,0.62730163,399.5529961
21.7,4.1E-14,668.6223267,-78.54502826,10604.27859,0.047129101,2.89E-18,32.16615151,90.0,0.047138183,-5.55E-18,0.0,-0.0041768623264976995,0.0,4712.701695,1075.000333,0.00172294,1422.195685,480.8729886,-7.616999744,7.79E-19,0.892078369,0.0,0.0,0.0,0.626250947,398.8719301
21.8,4.1E-14,667.8607336,-75.26393565,10611.96901,0.047311978,2.9E-18,32.16612774,90.0,0.04732108,-5.57E-18,0.0,-0.0041768623264976995,0.0,4515.836139,1074.969715,0.001722523,1421.770407,480.8455966,-7.593639993,7.81E-19,0.853039948,0.0,0.0,0.0,0.625215988,398.2014019
21.9,4.09E-14,667.1015113,-71.98671959,10619.33151,0.047494645,2.91E-18,32.16610498,90.0,0.047503769,-5.6E-18,0.0,-0.0041768623264976995,0.0,4319.203175,1074.940403,0.001722124,1421.36324,480.8193736,-7.570625724,7.82E-19,0.814220316,0.0,0.0,0.0,0.624196747,397.5414042
