time,eiPosition_ft_X,eiPosition_ft_Y,eiPosition_ft_Z,gePosition_ft_X,gePosition_ft_Y,gePosition_ft_Z,eiVelocity_ft_s_X,eiVelocity_ft_s_Y,eiVelocity_ft_s_Z,feVelocity_ft_s_X,feVelocity_ft_s_Y,feVelocity_ft_s_Z,altitudeMsl_ft,longitude_deg,latitude_deg,localGravity_ft_s2,eulerAngle_deg_Yaw,eulerAngle_deg_Pitch,eulerAngle_deg_Roll,bodyAngularRateWrtEi_deg_s_Roll,bodyAngularRateWrtEi_deg_s_Pitch,bodyAngularRateWrtEi_deg_s_Yaw,altitudeRateWrtMsl_ft_min,speedOfSound_ft_s,airDensity_slug_ft3,ambientPressure_lbf_ft2,ambientTemperature_dgR,aero_bodyForce_lbf_X,aero_bodyForce_lbf_Y,aero_bodyForce_lbf_Z,aero_bodyMoment_ftlbf_L,aero_bodyMoment_ftlbf_M,aero_bodyMoment_ftlbf_N,mach,dynamicPressure_lbf_ft2,trueAirspeed_nmi_h
0.0,2.092564632546E7,0.0,0.0,2.092564632546E7,0.0,0.0,999.9999999999995,2525.922194545817,-1.5703296405765615E-13,-2.1254411528891377E-13,999.9999999999991,-999.9999999999991,0.0,0.0,0.0,32.19881021407498,89.99999999999999,1.5902773407317584E-14,1.590277340731758E-14,2.319297050098701E-19,-0.004178074132234399,1.1596485250493503E-18,59999.99999999994,1116.449481741113,0.0023768988323037404,2116.22,518.67,-33.00087834614463,3.1352450271031697E-16,33.00087834614462,0.0,0.0,0.0,1.2667062733260588,2376.8988323037397,837.8884824929069
0.10000000000000007,2.092574599860226E7,252.42617708134463,-1.5677039255212238E-14,2.0925745999886617E7,99.83323079338842,-1.5677039255212238E-14,993.4871670267516,2522.6239705643593,-1.565132042570114E-13,-1.5651487937598953E-13,996.6825230602018,-993.5175972351877,99.67466475814581,2.7334857164013364E-4,3.2060289536861656E-18,32.19850297519755,89.99999999999996,2.7334857169994853E-4,1.590260354755313E-14,2.319297050098701E-19,-0.004178074132234399,1.1596485250493503E-18,59611.05583411126,1116.0668544779442,0.002369974149493896,2108.6087003992407,518.3145458959002,-32.63507542340621,2.0927162338078577E-15,32.53113363141822,0.0,0.0,0.0,1.260933227055137,2346.8115244710775,833.7839336065092
0.20000000000000015,2.092584502444391E7,504.52599485893853,-3.130282914520247E-14,2.092584502957657E7,199.33865803525495,-3.130282914520247E-14,987.0373529585806,2519.378352299945,-1.5600352931706989E-13,-1.5600687321253426E-13,993.4178695667642,-987.0980953498402,198.70506601408124,5.457970171686453E-4,6.401577168880517E-18,32.19819772656609,89.99999999999994,5.457970172660606E-4,1.5902385156735242E-14,2.319297050098701E-19,-0.004178074132234399,1.1596485250493503E-18,59225.88572099041,1115.6865740591415,0.0023631095855880784,2101.068636711197,517.9613926922884,-32.276416065827966,2.0409379819013456E-15,32.07047386507793,0.0,0.0,0.0,1.25523012593712,2317.3145463164656,829.7299824512877
0.3000000000000002,2.0925943407597046E7,756.3030311034173,-4.6878014043118956E-14,2.092594341913488E7,298.5198735238906,-4.6878014043118956E-14,980.6332659246867,2516.168241335969,-1.5550119400558945E-13,-1.5550620042690657E-13,990.1889386448202,-980.7242043462883,297.0958041548729,8.17355208793015E-4,9.586776422951005E-18,32.19789445391601,89.99999999999999,8.173552088136199E-4,1.5902482220457796E-14,2.319297050098701E-19,-0.004178074132234399,1.1596485250493503E-18,58843.452260777296,1115.3086251402988,0.002356304500321317,2093.598982763105,517.6105239184113,-31.923677791854733,1.990018097031199E-15,31.617632748188694,0.0,0.0,0.0,1.2495753073236804,2288.318163452399,825.712232045423
0.4000000000000003,2.0926041152595498E7,1007.760807192132,-6.240315639430087E-14,2.09260411730884E7,397.3804125321515,-6.240315639430087E-14,974.2741320169632,2512.993052777769,-1.5500255830855799E-13,-1.5500918008210304E-13,986.9951429956765,-974.3951521489691,394.85140147805214,0.0010880328633685252,1.2761741738639671E-17,32.19759314322463,89.99999999999997,0.001088032863366526,9.541081669155033E-15,2.319297050098701E-19,-0.004178074132234399,1.1596485250493503E-18,58463.70912893815,1114.9329926427497,0.002349558264495795,2086.1989270561053,517.2619233830277,-31.576730875756517,-5.026504833985643E-15,31.172437947770025,0.0,0.0,0.0,1.2439680273082576,2259.8113942894292,821.730124002831
0.5000000000000003,2.0926138263896607E7,1258.9027866547194,-7.787870527709953E-14,2.09261382958876E7,495.9237523558199,-7.787870527709953E-14,967.9591943354184,2509.852214506057,-1.5450930985480953E-13,-1.5451755896461248E-13,983.8359081488928,-968.1101836506568,491.9763039909303,0.001357839538437152,1.5926564954601338E-17,32.19729378070585,89.99999999999993,0.0013578395385717764,9.540499293158024E-15,2.319297050098701E-19,-0.004178074132234399,1.1596485250493503E-18,58086.61101903941,1114.5596617473914,0.002342870259725552,2078.8676724221305,516.9155751679687,-31.23544917725434,-4.989109732906749E-15,30.734721883152424,0.0,0.0,0.0,1.2384075590555634,2231.7835605320683,817.7831126578765
0.6000000000000004,2.0926234745882865E7,1509.732376432936,-9.330519501613865E-14,2.0926234791908193E7,594.1533135761673,-9.330519501613865E-14,961.6877125204912,2506.7451668248445,-1.5402136099032598E-13,-1.5403122642505665E-13,980.710672108763,-961.8685602458589,588.4748830161989,0.0016267846356977323,1.9081355342758236E-17,32.19699635280501,89.99999999999999,0.00162678463574023,9.540790482802445E-15,2.319297050098701E-19,-0.004178074132234399,1.1596485250493503E-18,57712.113614751535,1114.188617889229,0.002336239878198383,2071.604435701572,516.5714636223903,-30.899710022787332,-4.95228600121728E-15,30.304321568463518,0.0,0.0,0.0,1.2328931923403097,2204.2242771335455,813.8706647194942
0.7000000000000005,2.0926330602863476E7,1760.2529281058742,-1.0868315126866864E-13,2.092633066545271E7,692.0724612878049,-1.0868315126866864E-13,955.4589623008246,2503.6713621209783,-1.53538625992233E-13,-1.5355009685110316E-13,977.618885012436,-955.6695593796177,684.3514367677271,0.001894877404380713,2.2226220402513607E-17,32.19670084619406,89.99999999999999,0.0018948774043917914,9.54049929569633E-15,2.319297050098701E-19,-0.004178074132234399,1.1596485250493503E-18,57340.17356277706,1113.819846752017,0.002329666522443447,2064.408447429033,516.2295733571324,-30.569394091351743,-4.916021530823696E-15,29.881078461180508,0.0,0.0,0.0,1.2274242331012164,2177.1234426374544,809.9922589367554
0.8000000000000006,2.0926425839076076E7,2010.4677390816857,-1.2401309121199679E-13,2.0926425920752205E7,789.6845062929789,-1.2401309121199679E-13,949.2722350559084,2500.6302645348746,-1.530610209761011E-13,-1.5307408646659768E-13,974.5600087993133,-949.5124741111938,779.6101920641959,0.002162126944530645,2.5361265899082068E-17,32.19640724776624,89.99999999999997,0.002162126944621949,9.540305171619752E-15,2.319297050098701E-19,-0.004178074132234399,1.1596485250493503E-18,56970.74844667163,1113.4533342623492,0.002323149605093022,2057.2789515144514,515.8898892385864,-30.24438530456389,-4.880304544183467E-15,29.46483831634271,0.0,0.0,0.0,1.2220000030104758,2150.4712298789627,806.1473857754789
0.9000000000000007,2.0926520458688118E7,2260.380053756927,-1.39295523724828E-13,2.0926520561967637E7,886.9927062634417,-1.39295523724828E-13,943.1268373930235,2497.621349642003,-1.525884638461534E-13,-1.5260311328182672E-13,971.5335168912311,-943.3966126919843,874.2553056962788,0.0024285422101995757,2.8486595900574646E-17,32.19611554463187,89.99999999999994,0.0024285422102824014,9.539528670788422E-15,2.319297050098701E-19,-0.004178074132234399,1.1596485250493503E-18,56603.79676151906,1113.0890665850625,0.0023166885486714975,2050.215204955774,515.5523963837999,-29.924570721194332,-4.845123583591999E-15,29.055451046595724,0.0,0.0,0.0,1.2166198390560066,2124.2580770605127,802.3355471054366
1.0000000000000007,2.0926614465798568E7,2509.9930646445746,-1.5453094956370831E-13,2.0926614593191575E7,984.0002668708818,-1.5453094956370831E-13,937.0220907379398,2494.644104144713,-1.521208742470874E-13,-1.5213709704539056E-13,968.5388938830008,-937.3212981571667,968.2908661440015,0.002694132012553969,3.1602312814082326E-17,32.19582572411297,90.0,0.002694132012571486,9.540305175373834E-15,2.319297050098701E-19,-0.004178074132234399,1.1596485250493503E-18,56239.27788943,1112.7270301172737,0.0023102827853637375,2043.2164775307253,515.2170801543319,-29.609840435363157,-4.8104675008208775E-15,28.6527705872138,0.0,0.0,0.0,1.2112830931389034,2098.4746791419493,798.556255897744
1.0999999999999897,2.0926707864439163E7,2759.3099134717136,-1.6971986153472827E-13,2.0926708018449444E7,1080.710342887016,-1.6971986153472827E-13,930.9573309388446,2491.6980255740295,-1.516581735174539E-13,-1.5167595919763446E-13,965.5756352429933,-931.2858679305406,1061.720894806087,0.0029589050228982835,3.470851742079021E-17,32.19553777373953,90.00000000000001,0.00295890502294001,9.541081680157564E-15,2.319297050098701E-19,-0.004178074132234399,1.1596485250493503E-18,55877.15207583243,1112.367211484278,0.002303931756820073,2036.2820515302446,514.8839261518505,-29.300087478975264,-4.776325447211356E-15,28.256654766602182,0.0,0.0,0.0,1.2059891316820646,2073.111979583861,794.80903593208
1.1999999999999786,2.0926800658575967E7,3008.333692247902,-1.848627446606397E-13,2.0926800841701087E7,1177.126039254274,-1.848627446606397E-13,924.931907883006,2488.7826220009983,-1.5120028464453054E-13,-1.512196228255775E-13,962.643247023296,-925.2896734420925,1154.5493475720286,0.00322286977561767,3.7805308910153634E-17,32.19525168124454,89.99999999999993,0.00322286977572545,9.538946300354083E-15,2.319297050098701E-19,-0.004178074132234399,1.1596485250493503E-18,55517.38040652555,1112.0095975341103,0.0022976349139410047,2029.4112214713039,514.5529202125073,-28.99520772748898,-4.742686864086382E-15,27.866965181341484,0.0,0.0,0.0,1.2007373352529525,2048.161162377551,791.0934215133279
1.2999999999999676,2.092689285211071E7,3257.067444305125,-1.9996007634353257E-13,2.09268930668421E7,1273.250412128014,-1.9996007634353257E-13,918.9451851256949,2485.897411757277,-1.5074713222063861E-13,-1.5076801261927876E-13,959.741245579169,-919.3320797577844,1246.780116148293,0.0034860346710424324,4.089278491316647E-17,32.19496743455998,89.99999999999999,0.0034860346710896403,9.539722805528388E-15,2.319297050098701E-19,-0.004178074132234399,1.1596485250493503E-18,55159.92478546707,1111.6541753330343,0.0022913917166817403,2022.6032938329115,514.2240484021902,-28.695099809387624,-4.709541473550466E-15,27.4835670760743,0.0,0.0,0.0,1.195527098197586,2023.6136443856572,787.4089571973225
1.3999999999999566,2.0926984448882174E7,3505.5141653102514,-2.1501232652321313E-13,2.0926984697705213E7,1369.0864698911835,-2.1501232652321313E-13,912.9965395309113,2483.0419231645983,-1.502986424008452E-13,-1.503210548295817E-13,956.8691572973654,-913.4124652210869,1338.417029440403,0.003748407978236742,4.39710415347501E-17,32.19468502181242,90.0,0.003748407978252607,9.540111059591045E-15,2.319297050098701E-19,-0.004178074132234399,1.1596485250493503E-18,54804.747913265215,1111.300932160803,0.0022852016338558703,2015.857586792639,513.897297011577,-28.39966501893618,-4.676879269618634E-15,27.1063292277771,0.0,0.0,0.0,1.1903578282865233,1999.4610679617685,783.7551975253241
1.4999999999999456,2.0927075452667486E7,3753.676804250878,-2.300199578314197E-13,2.0927075738061577E7,1464.6371741423118,-2.300199578314197E-13,907.0853609234748,2480.215694272761,-1.498547428620019E-13,-1.4987867722720516E-13,954.0265183330697,-907.530221105898,1429.463854841888,0.004009997837714039,4.7040173385291345E-17,32.19440443131919,89.99999999999997,0.004009997837762816,9.538946308625511E-15,2.319297050098701E-19,-0.004178074132234399,1.1596485250493503E-18,54451.81326635388,1110.9498555062587,0.002279064142948232,2009.1734299745863,513.5726525515221,-28.108807232212495,-4.644690509681597E-15,26.735123834356695,0.0,0.0,0.0,1.1852289463718262,1975.6952938463708,780.1317067669336
1.5999999999999346,2.092716586718332E7,4001.558264395381,-2.4498342574200665E-13,2.092716619162198E7,1559.9054406576722,-2.4498342574200665E-13,901.2110517520497,2477.418272605877,-1.494153627630688E-13,-1.4944080906311255E-13,951.2128743551079,-901.684751280352,1519.9242994487286,0.004270812264081459,5.010027361135575E-17,32.194125651584415,89.99999999999994,0.0042708122641924706,9.537781557848446E-15,2.319297050098701E-19,-0.004178074132234399,1.1596485250493503E-18,54101.08507682112,1110.6009330632073,0.0022729787299355197,2002.550164207156,513.250101748708,-27.822432826258996,-4.6129657062904854E-15,26.369826407370212,0.0,0.0,0.0,1.1801398860546513,1952.3083943262222,776.5380586711152
1.6999999999999236,2.0927255696087293E7,4249.1614042279825,-2.599031787172225E-13,2.0927256062038235E7,1654.8941403283761,-2.599031787172225E-13,895.373026762723,2474.64921491652,-1.4898043270667804E-13,-1.490073810301196E-13,948.4277802990721,-895.8754718811499,1609.8020114339888,0.0045308591486152945,5.315143392560222E-17,32.19384867129493,90.00000000000001,0.004530859148649389,9.540499320309132E-15,2.319297050098701E-19,-0.004178074132234399,1.1596485250493503E-18,53752.52831286899,1110.2541527256597,0.0022669448890988266,1995.9871412733785,512.9296315407279,-27.54045060103114,-4.5816956192157384E-15,26.010315668515386,0.0,0.0,0.0,1.1750900933640045,1929.2926466326608,772.9738362250223
1.7999999999999126,2.0927344942979023E7,4496.489038359637,-2.747796583502067E-13,2.0927345352904223E7,1749.6061000732698,-2.747796583502067E-13,889.5707126827454,2471.9080869475574,-1.485498847018925E-13,-1.4857832522569018E-13,945.6708001281684,-890.1018109980199,1699.1005811020732,0.004790146261770019,5.619374463592416E-17,32.19357347931692,90.00000000000001,0.00479014626178204,9.539722821210519E-15,2.319297050098701E-19,-0.004178074132234399,1.1596485250493503E-18,53406.108659881196,1109.9095025842914,0.002260962122860314,1989.4837236887884,512.6112290723097,-27.262771704422182,-4.550871247834246E-15,25.656473450107036,0.0,0.0,0.0,1.1700790264443615,1906.6405265966036,769.4386314203707
1.8999999999999015,2.092743361140146E7,4743.543938415436,-2.896132995038176E-13,2.0927434067757234E7,1844.044103728275,-2.896132995038176E-13,883.8035479140522,2469.194463201293,-1.4812365212811366E-13,-1.4815357511589303E-13,942.9415066014237,-884.363208367972,1787.8235422298312,0.005048681255622485,5.922729467384065E-17,32.19330006469176,90.0,0.005048681255692778,9.53972282490645E-15,2.319297050098701E-19,-0.004178074132234399,1.1596485250493503E-18,53061.79250207832,1109.566970921786,0.0022550299416031526,1983.0392844623534,512.2948816905187,-26.989309559741734,-4.520483823749297E-15,25.308184598909563,0.0,0.0,0.0,1.1651061552542146,1884.3447025150108,765.9320450270537
1.9999999999998905,2.0927521704841904E7,4990.328833899341,-3.044045304459089E-13,2.092752221007899E7,1938.210892913032,-3.044045304459089E-13,878.070982236234,2466.507926715748,-1.4770166970010018E-13,-1.4773306550045862E-13,940.2394810490504,-878.6591150789509,1875.974373076111,0.005306471666253794,6.22521716221609E-17,32.19302841663296,89.99999999999996,0.005306471666351457,9.53855807486847E-15,2.319297050098701E-19,-0.004178074132234399,1.1596485250493503E-18,52719.54690473706,1109.2265462094388,0.0022491478635161288,1976.6532068854347,511.9805769411416,-26.719979796047948,-4.4905248037167664E-15,24.96533688365634,0.0,0.0,0.0,1.1601709612727247,1862.3980292550527,762.4536863737671
2.0999999999998797,2.0927609226733226E7,5236.8464130368275,-3.1915377298116037E-13,2.092760978329686E7,2032.1091678753867,-3.1915377298116037E-13,872.3724765185978,2463.8480688477784,-1.472838734340546E-13,-1.4731673247890416E-13,937.5643131546587,-872.9889932825611,1963.5564976148307,0.005563524916070219,6.526846174194447E-17,32.19275852452223,90.00000000000001,0.005563524916088073,9.540887586762159E-15,2.319297050098701E-19,-0.004178074132234399,1.1596485250493503E-18,52379.339596953665,1108.8882171028897,0.002243315414425672,1970.3248843082456,511.6683025642754,-26.454700180772537,-4.460985862791224E-15,24.627820905688644,0.0,0.0,0.0,1.1552729372163468,1840.7935425552532,759.0031731353635
2.1999999999998687,2.0927696180454914E7,5483.099323596213,-3.338614425795704E-13,2.0927696790784884E7,2125.741588314534,-3.338614425795704E-13,866.7075024410086,2461.2144890627674,-1.4687020061474236E-13,-1.4690451341768852E-13,934.9156007440854,-867.3523159155521,2050.5732865296304,0.005819848316065495,6.827624999877843E-17,32.19249037790654,90.00000000000001,0.005819848316074479,9.540111088390445E-15,2.319297050098701E-19,-0.004178074132234399,1.1596485250493503E-18,52041.13895493313,1108.5519724387595,0.002237532127646062,1964.0537199372056,511.3580464907658,-26.19339055490989,-4.431858887743873E-15,24.295530012929436,0.0,0.0,0.0,1.1504115867632596,1819.524453541061,755.5801311267071
2.2999999999998577,2.092778256933414E7,5729.090173689253,-3.485279485017086E-13,2.0927783235864885E7,2219.11077418338,-3.485279485017086E-13,861.075542223192,2458.6067947307047,-1.464605897636048E-13,-1.4649634691836652E-13,932.2929495806469,-861.7485664297633,2137.0280583538115,0.006075449068025957,7.127562008839222E-17,32.192223966494424,89.99999999999997,0.006075449068119331,9.537781584971914E-15,2.319297050098701E-19,-0.004178074132234399,1.1596485250493503E-18,51704.913985785795,1108.217801230715,0.002231797543822227,1957.8391266253363,511.0497968381284,-25.9359727703695,-4.4031359706916795E-15,23.968360216778496,0.0,0.0,0.0,1.145586424286855,1798.584143425429,752.1841941028157
2.3999999999998467,2.092786839664684E7,5974.821532551667,-3.6315368262153687E-13,2.09278691218075E7,2312.2193064707844,-3.6315368262153687E-13,855.4760883622002,2456.0246009283906,-1.460522412962456E-13,-1.4608943347557355E-13,929.6959731665202,-856.1772385301903,2222.924080476165,0.006330334266680395,7.426665215087141E-17,32.19195928015302,90.0,0.006330334266767023,9.538558092177899E-15,2.319297050098701E-19,-0.004178074132234399,1.1596485250493503E-18,51370.63431181142,1107.885692666038,0.002226111210783584,1951.6805266757287,510.7435419069481,-25.682370629618,-4.374733738596803E-15,23.646210112010717,0.0,0.0,0.0,1.1407969745968196,1777.966158401835,748.8150035650289
2.4999999999998357,2.0927953665618733E7,6220.295931304179,-3.777387887973214E-13,2.0927954451833215E7,2405.0697279642854,-3.777387887973214E-13,849.9086433777621,2453.4675302475985,-1.4565058233445186E-13,-1.4568920029844219E-13,927.1242925501138,-850.6378359209255,2308.264570195228,0.006584510901796236,7.724937560591447E-17,32.19169630890465,90.00000000000001,0.006584510901791377,9.540111102172761E-15,2.319297050098701E-19,-0.004178074132234399,1.1596485250493503E-18,51038.27015525553,1107.5556361019976,0.0022204726833968047,1945.5773516448728,510.43927017710695,-25.43250982738375,-4.346796741721975E-15,23.328980799429658,0.0,0.0,0.0,1.1360427726883147,1757.6642047125583,745.4722085730409
2.5999999999998247,2.092803837942621E7,6465.5158636946435,-3.922839261751376E-13,2.0928039229113262E7,2497.664543993882,-3.922839261751376E-13,844.3727195652284,2450.9352126088947,-1.4525280788136687E-13,-1.4529284245467174E-13,924.5775361391311,-845.1298720586781,2393.052695605904,0.006837985860223719,8.022392525202303E-17,32.19143504292424,90.00000000000003,0.006837985860239862,9.540111107116395E-15,2.319297050098701E-19,-0.004178074132234399,1.1596485250493503E-18,50707.79232352068,1107.2276210628559,0.0022148815234316627,1939.5290421611683,510.1369703046089,-25.186317894499783,-4.319241238377943E-15,23.01657581131492,0.0,0.0,0.0,1.1313233634980469,1737.6721438962716,742.1554655625355
2.6999999999998137,2.092812254119742E7,6710.4837868218965,-4.067894779638492E-13,2.09281234567707E7,2590.006223157475,-4.067894779638492E-13,838.867838755855,2448.4272850810266,-1.4485886117227356E-13,-1.449003032537826E-13,922.055339519205,-839.6528699136136,2477.2915766723454,0.007090765927889566,8.319037945722901E-17,32.191175472535846,89.99999999999999,0.007090765927975617,9.53778160439126E-15,2.319297050098701E-19,-0.004178074132234399,1.1596485250493503E-18,50379.17219481681,1106.9016372361455,0.002209337299416575,1933.5350477332474,509.83663111774183,-24.943724143539917,-4.2920600848609685E-15,22.708901039310724,0.0,0.0,0.0,1.1266383016684338,1717.9839881897315,738.8644381682726
2.7999999999998026,2.092820615401311E7,6955.202121841705,-4.2125591898292816E-13,2.092820713788124E7,2682.097198028393,-4.2125591898292816E-13,833.3935320841764,2445.943391705604,-1.444700024284502E-13,-1.4451284298600175E-13,919.5573452778743,-834.2063617372733,2560.9842860661447,0.007342857791741501,8.614883532436861E-17,32.19091758821016,90.0,0.00734285779181923,9.53855811229116E-15,2.319297050098701E-19,-0.004178074132234399,1.1596485250493503E-18,50052.381704236395,1106.5776744698412,0.002203839586511514,1927.594826578055,509.5382416140762,-24.704659616488605,-4.265281662641999E-15,22.40586466494588,0.0,0.0,0.0,1.1219871513179147,1698.5938960990438,735.5987970524203
2.8999999999997916,2.0928289220907625E7,7199.673254655535,-4.356835654280648E-13,2.092829027547427E7,2773.9398658456876,-4.356835654280648E-13,827.9493397622115,2443.4831833269463,-1.4408354153350528E-13,-1.4412777160866634E-13,917.0832028337111,-828.7898888372944,2644.133850172162,0.007594268041645328,8.909935751696161E-17,32.190661380561295,90.00000000000001,0.007594268041649272,9.539334620361544E-15,2.319297050098701E-19,-0.004178074132234399,1.1596485250493503E-18,49727.39333023766,1106.2557227688749,0.002198387966371762,1921.7078454399348,509.2417909568663,-24.469057034068605,-4.238828137330866E-15,22.10737709241016,0.0,0.0,0.0,1.1173694858187475,1679.4961681133805,732.3582197379441
2.9999999999997806,2.092837174486982E7,7443.899536582519,-4.50072749412657E-13,2.092837287253373E7,2865.536589187585,-4.50072749412657E-13,822.5348108602844,2441.0463174268857,-1.4370074436316586E-13,-1.4374635506898148E-13,914.6325682704503,-823.4030013587446,2726.743249990046,0.007845003172235743,9.204201395377456E-17,32.19040684034409,90.00000000000003,0.007845003172256325,9.54011112860111E-15,2.319297050098701E-19,-0.004178074132234399,1.1596485250493503E-18,49404.180081524675,1105.9357722920404,0.002192982027020335,1915.87357942,508.94726847182403,-24.236850746861606,-4.2127285701025515E-15,21.813350883682755,0.0,0.0,0.0,1.1127848875810042,1660.6852425694112,729.142390446897
3.0999999999997696,2.0928453728843838E7,7687.88328501514,-4.644238346696133E-13,2.0928454931998927E7,2956.889696628654,-4.644238346696133E-13,817.1495030942223,2438.63245796437,-1.4332155829325393E-13,-1.4336854081144632E-13,912.2051041759356,-818.0452580718104,2808.8154219165444,0.00809506958472243,9.49768790199141E-17,32.19015395845164,90.0,0.00809506958480238,9.537781626546463E-15,2.319297050098701E-19,-0.004178074132234399,1.1596485250493503E-18,49082.715484308625,1105.6178133493536,0.0021876213627299826,1910.091511816699,508.65466364431774,-24.007976688162046,-4.1869764921109E-15,21.523700695928397,0.0,0.0,0.0,1.1082329478424746,1642.1556916612083,725.9509999434331
3.1999999999997586,2.0928535175730016E7,7931.626784059129,-4.787371797190797E-13,2.0928536456765413E7,3048.001483381119,-4.787371797190797E-13,811.792982618714,2436.241275219698,-1.429459316886772E-13,-1.4299427726835582E-13,909.800479485716,-812.7162261656439,2890.353258654475,0.008344473588652524,9.790402603445213E-17,32.18990272591246,89.99999999999997,0.008344473588758304,9.537005129886604E-15,2.319297050098701E-19,-0.004178074132234399,1.1596485250493503E-18,48762.97356993864,1105.301836398909,0.0021823055738985496,1904.3611339600604,508.36396611611974,-23.78237232832016,-4.161565591705794E-15,21.238343220913432,0.0,0.0,0.0,1.1037132664652238,1623.9022175778528,722.7837453813811
3.2999999999997476,2.0928616088385742E7,8175.132285157994,-4.930132571359323E-13,2.0928617449685853E7,3138.874211920785,-4.930132571359323E-13,806.4648238266321,2433.8724456432265,-1.4257629503521256E-13,-1.4262599498701352E-13,907.4183693311277,-807.415481048147,2971.359610039741,0.008593221403630778,1.0082355164119432E-16,32.18965313388795,90.0,0.00859322140364944,9.538558141239602E-15,2.319297050098701E-19,-0.004178074132234399,1.1596485250493503E-18,48444.92886288882,1104.9878320440475,0.002177034266931381,1898.6819450543585,508.0751656824465,-23.559976630666927,-4.136554121441595E-15,20.95719712650032,0.0,0.0,0.0,1.0992254517377695,1605.9196487741433,719.6403301562236
3.3999999999997366,2.0928696469626244E7,8418.402007702638,-5.072524247605541E-13,2.0928697913570803E7,3229.5101125979854,-5.072524247605541E-13,801.1646091541085,2431.5256517084217,-1.422076298835683E-13,-1.422586755827415E-13,905.0584548917286,-802.1426061514893,3051.8372838646173,0.008841319160998591,1.0373552902019785E-16,32.189405173669854,90.00000000000004,0.008841319161011274,9.540887655374734E-15,2.319297050098701E-19,-0.004178074132234399,1.1596485250493503E-18,48128.55636908936,1104.675791030526,0.002171807054125582,1893.0534520235776,507.78825228901246,-23.340730008905435,-4.111806649261081E-15,20.68018300009046,0.0,0.0,0.0,1.0947691201830057,1588.202936365512,716.5204637613435
3.4999999999997256,2.0928776322225366E7,8661.438139626482,-5.214548967890055E-13,2.09287778511895E7,3319.9113842341167,-5.214548967890055E-13,795.8919288911787,2429.2005817690792,-1.4184237505266482E-13,-1.418947579431568E-13,902.720423251944,-796.8971927432038,3131.7890466339886,0.009088772905473424,1.0664000197557392E-16,32.189158836677876,90.00000000000003,0.009088772905529474,9.540111159204674E-15,2.319297050098701E-19,-0.004178074132234399,1.1596485250493503E-18,47813.831564592234,1104.3657042439393,0.002166623553560188,1887.4751693640144,507.50321602932286,-23.124574285956502,-4.0873823273006696E-15,20.407223293981204,0.0,0.0,0.0,1.0903438963714291,1570.7471506454376,713.4238616483877
3.5999999999997145,2.0928855648916394E7,8904.24283798658,-5.356210118504863E-13,2.092885726527068E7,3410.080194704027,-5.356210118504863E-13,790.6463809977956,2426.896929920592,-1.414804826329838E-13,-1.4153419422123476E-13,900.4039672617591,-791.6788397426265,3211.21762438491,0.009335588596749288,1.0953703975860153E-16,32.18891411445719,89.99999999999997,0.009335588596888489,9.534675647485678E-15,2.319297050098701E-19,-0.004178074132234399,1.1596485250493503E-18,47500.73038455759,1104.0575627068902,0.0021614833889837385,1881.946618994837,507.22004714174136,-22.911452654113116,-4.06327542924284E-15,20.138242272482643,0.0,0.0,0.0,1.0859494127399685,1553.5474777145091,710.3502450916042
3.6999999999997035,2.0928934452392794E7,9146.81822953095,-5.497511038272858E-13,2.0928936158503305E7,3500.0186815045827,-5.497511038272858E-13,785.4275709250616,2424.614395865133,-1.4112190559235756E-13,-1.4117693744614555E-13,898.1087854013518,-786.487153542547,3290.1257034428418,0.009581772111059282,1.1242671064979396E-16,32.18867099867603,90.0,0.009581772111092563,9.535452156867472E-15,2.319297050098701E-19,-0.004178074132234399,1.1596485250493503E-18,47189.229212552826,1103.751357576391,0.002156386189707453,1876.4673301154087,506.9387360067836,-22.701309636543083,-4.03948036502867E-15,19.87316596080793,0.0,0.0,0.0,1.081585309415785,1536.5992162230118,707.2993410560408
3.7999999999996925,2.0929012735308927E7,9389.16641125269,-5.638455583095792E-13,2.092901453353729E7,3589.728952310053,-5.638455583095792E-13,780.235111441476,2422.3526847806015,-1.40767771382537E-13,-1.4082411512773584E-13,895.8345816494812,-781.3217478358441,3368.5159311033785,0.009827329242701908,1.153090935041726E-16,32.188429481123656,90.00000000000003,0.009827329242710526,9.539334676885346E-15,2.319297050098701E-19,-0.004178074132234399,1.1596485250493503E-18,46879.30487015065,1103.4470801415516,0.0021513315905046368,1871.0368390700194,506.65927314467643,-22.494091050094003,-4.0160211420390326E-15,19.611922095672742,0.0,0.0,0.0,1.0772512340447742,1519.8977742230352,704.2708820694386
3.8999999999996815,2.0929090500280757E7,9631.289450931155,-5.779047590060745E-13,2.0929092392984215E7,3679.2130855145256,-5.779047590060745E-13,775.06862246406,2420.111507193255,-1.4041684512653147E-13,-1.4047449244595863E-13,893.5810653556106,-776.1822434470155,3446.3909163735807,0.010072265705531719,1.1818426679198984E-16,32.188189553708014,90.00000000000003,0.010072265705565138,9.540111186586873E-15,2.319297050098701E-19,-0.004178074132234399,1.1596485250493503E-18,46570.93460682093,1103.1447218210249,0.0021463192315076237,1865.6546892106508,506.38164921270555,-22.289743969264766,-3.992862181464265E-15,19.354440077464645,0.0,0.0,0.0,1.0729468416252015,1503.438666120143,701.2646060977548
3.9999999999996705,2.0929167749886665E7,9873.189387660595,-5.919289716863744E-13,2.0929169739418115E7,3768.4731307616917,-5.919289716863744E-13,769.9277308941796,2417.89057885385,-1.4006793471133502E-13,-1.4012687734790233E-13,891.34795111553,-771.0682681683797,3523.7532307617366,0.010316587134415208,1.210522848643912E-16,32.18795120845326,90.00000000000001,0.010316587134510221,9.539334691204746E-15,2.319297050098701E-19,-0.004178074132234399,1.1596485250493503E-18,46264.09609010279,1102.8442741602564,0.0021413487581029692,1860.3204307585465,506.1058550023898,-22.08821669130548,-3.969969860152277E-15,19.10065092392875,0.0,0.0,0.0,1.0686717943461783,1487.217509721264,698.2802564241391
4.099999999999704,2.0929244486667998E7,10114.868232366485,-6.059184504699607E-13,2.092924657537605E7,3857.511109462393,-6.059184504699607E-13,764.8120704579298,2415.6896206172237,-1.39722159970697E-13,-1.3978238972655907E-13,889.1349586504512,-765.9794566008352,3600.605408821255,0.010560299086653178,1.239131996900171E-16,32.18771443749814,90.0,0.01056029908674488,9.537005190734246E-15,2.319297050098701E-19,-0.004178074132234399,1.1596485250493503E-18,45958.76739605011,1102.5457288296825,0.002136419820843789,1855.0336206848413,505.83188143753273,-21.88945870260138,-3.9473683085005336E-15,18.85048722548448,0.0,0.0,0.0,1.0644257614297783,1471.2300233885403,695.3175815312941
4.199999999999737,2.0929320713129804E7,10356.327968310112,-6.198735067707397E-13,2.0929322903358832E7,3946.329015300325,-6.198735067707397E-13,759.7212815509241,2413.5083583251826,-1.3937947796222726E-13,-1.394409866954389E-13,886.9418126894061,-760.9154499990036,3676.949948910624,0.010803407043370438,1.2676707495448982E-16,32.18747923309359,90.00000000000004,0.010803407043397205,9.540111208764751E-15,2.319297050098701E-19,-0.004178074132234399,1.1596485250493503E-18,45654.92699994022,1102.2490776220802,0.0021315320753494565,1849.7938225782486,505.55971957150456,-21.693420645987494,-3.925052563334201E-15,18.6038831018474,0.0,0.0,0.0,1.0602084189783572,1455.472023274585,692.3763349870826
4.299999999999771,2.0929396431741573E7,10597.570551581544,-6.337944477466577E-13,2.0929398725831755E7,4034.928814726101,-6.337944477466577E-13,754.6550110873525,2411.346522692588,-1.3903984650614429E-13,-1.3910262612963873E-13,884.7682428548483,-755.8758961206345,3752.7893138974905,0.011045916410873553,1.296139734730676E-16,32.187245587600586,90.00000000000006,0.011045916410894585,9.543217226952767E-15,2.319297050098701E-19,-0.004178074132234399,1.1596485250493503E-18,45352.55376723807,1101.9543124501288,0.002126685182210183,1844.6006065186175,505.2893605847226,-21.500054289138813,-3.9030177768217185E-15,18.360774160065255,0.0,0.0,0.0,1.0560194498258986,1439.9394206482884,689.4562753332779
4.399999999999804,2.0929471644937746E7,10838.597911581348,-6.476815763750887E-13,2.092947404522513E7,4123.3124474400975,-6.476815763750887E-13,749.612912353168,2409.2038491965677,-1.3870322416794412E-13,-1.3876726664853547E-13,882.6139835514309,-750.8604490801431,3828.125931698829,0.011287832521977787,1.3245395720606176E-16,32.187013493488415,90.00000000000004,0.01128783252202052,9.540111224314566E-15,2.319297050098701E-19,-0.004178074132234399,1.1596485250493503E-18,45051.62694480859,1101.6614253445985,0.0021218788069032883,1839.4535489636207,505.02079578271685,-21.309312494068394,-3.88125921338476E-15,18.12109745397541,0.0,0.0,0.0,1.05185854339291,1424.628219312585,686.5571659773924
4.4999999999998375,2.0929546355118424E7,11079.411951491411,-6.615351915265149E-13,2.0929548863934953E7,4211.48182686433,-6.615351915265149E-13,744.5946448632715,2407.080077968706,-1.383695702415384E-13,-1.3843486759894294E-13,880.4787738577418,-745.8687692061226,3902.962195958942,0.01152916063730387,1.352870872739048E-16,32.18678294333263,90.0,0.011529160637411684,9.536228719198085E-15,2.319297050098701E-19,-0.004178074132234399,1.1596485250493503E-18,44752.12615236735,1101.3704084519998,0.0021171126197018194,1834.352232627814,504.75401659370436,-21.12114918749531,-3.859772246688735E-15,17.884791444863513,0.0,0.0,0.0,1.0477253955457768,1409.5345130976114,683.6787750874283
4.599999999999871,2.092962056464994E7,11320.014548735111,-6.753555880365464E-13,2.0929623184323523E7,4299.4388406036705,-6.753555880365464E-13,739.599874222567,2404.974953690154,-1.3803884473284814E-13,-1.3810538903872698E-13,878.3623574209846,-740.9005229027247,3977.3004666492343,0.01176990594654547,1.3811342397187876E-16,32.18655392981317,90.00000000000001,0.011769905946609219,9.536228727345082E-15,2.319297050098701E-19,-0.004178074132234399,1.1596485250493503E-18,44454.03137416348,1101.0812540325269,0.0021123862955893095,1829.296246368855,504.48901456644273,-20.93551933219222,-3.8385523567364765E-15,17.65179596340063,0.0,0.0,0.0,1.0436197084597059,1394.6544834359847,680.820875489501
4.699999999999904,2.092969427586554E7,11560.407555427199,-6.891430567763182E-13,2.092969700872008E7,4387.185350896733,-6.891430567763182E-13,734.6282719907722,2402.8882254895593,-1.3771100834383748E-13,-1.3777879172085556E-13,876.2644823544762,-735.9553825147779,4051.1430707275867,0.012010073569708247,1.4093302678451154E-16,32.18632644571234,90.00000000000004,0.012010073569720585,9.54088775138931E-15,2.319297050098701E-19,-0.004178074132234399,1.1596485250493503E-18,44157.32295088667,1100.7939544577657,0.002107699514171891,1824.2851850714349,504.225781367871,-20.752378899189605,-3.817595127045335E-15,17.422052172737978,0.0,0.0,0.0,1.039541190485612,1379.984397011379,677.9832445682198
4.799999999999938,2.0929767491065852E7,11800.592798813463,-7.028978847213136E-13,2.0929770339421302E7,4474.723195056584,-7.028978847213136E-13,729.6795155508537,2400.819646843715,-1.373860224569737E-13,-1.37455037077879E-13,874.1849011378928,-731.0330261965288,4124.492302607745,0.01224966855832102,1.4374595439965196E-16,32.18610048391329,90.00000000000006,0.012249668558328652,9.54244076508687E-15,2.319297050098701E-19,-0.004178074132234399,1.1596485250493503E-18,43861.98157179173,1100.5085022091323,0.0021030519596035436,1819.318649545802,503.96430878142826,-20.571684840961442,-3.796896241933343E-15,17.195502532849442,0.0,0.0,0.0,1.0354895560199298,1365.5206034881505,675.1656641697533
4.899999999999971,2.0929840212519597E7,12040.572081700762,-7.166203550186564E-13,2.0929843178692E7,4562.054185901701,-7.166203550186564E-13,724.7532879809897,2398.7689754808694,-1.3706384912010114E-13,-1.3713408720682413E-13,872.1233705201802,-726.1331377839089,4197.3504248820245,0.012488695896620005,1.4655226472223103E-16,32.18587603739787,90.00000000000004,0.012488695896656963,9.540111265802345E-15,2.319297050098701E-19,-0.004178074132234399,1.1596485250493503E-18,43567.98826703453,1100.224889875321,0.0020984433204963306,1814.3962464107574,503.7045887044697,-20.393395065283492,-3.776451483860216E-15,16.97209076584615,0.0,0.0,0.0,1.0314645253788657,1351.2595333008649,672.367920507492
5.000000000000004,2.092991244246403E7,12280.347182877404,-7.303107470529095E-13,2.0929915528765563E7,4649.180112177352,-7.303107470529095E-13,719.8492779299347,2396.735973286569,-1.3674445103171473E-13,-1.3681590485448408E-13,870.0796514250094,-721.2554066701844,4269.719668738544,0.012727160502706869,1.4935201488771826E-16,32.18565309924523,90.0,0.01272716050281041,9.537781766658822E-15,2.319297050098701E-19,-0.004178074132234399,1.1596485250493503E-18,43275.32440021106,1099.943110150934,0.002093873289851023,1809.517587998953,503.4466131467711,-20.21746841008306,-3.7562567308843105E-15,16.75176182251697,0.0,0.0,0.0,1.0274658246749078,1337.197695524418,669.5898040702125
5.100000000000038,2.092998418310555E7,12519.919857524312,-7.439693365104177E-13,2.0929987391844567E7,4736.102738967701,-7.439693365104177E-13,714.9671794956917,2394.720406212008,-1.3642779152662227E-13,-1.365004534031E-13,868.0535088587502,-716.3995276849148,4341.602234598249,0.012965067229681177,1.521452612752799E-16,32.18543166262996,90.0,0.012965067229758286,9.5370052729105E-15,2.319297050098701E-19,-0.004178074132234399,1.1596485250493503E-18,42983.97166109489,1099.663155834251,0.002089341564974807,1804.6822922488789,503.1903742282507,-20.04386461892554,-3.736307954172612E-15,16.534461849782964,0.0,0.0,0.0,1.02349318569744,1323.3316758006367,666.8311095326846
5.200000000000071,2.09300554366203E7,12759.291837617066,-7.575963954422392E-13,2.0930058770101376E7,4822.823808098719,-7.575963954422392E-13,710.1066921073881,2392.7220441847726,-1.3611383456198187E-13,-1.3618769685641255E-13,866.0447118208285,-711.565200976094,4413.000292684883,0.013202420866747598,1.5493205952064895E-16,32.18521172082024,90.00000000000004,0.013202420866746627,9.539334789817503E-15,2.319297050098701E-19,-0.004178074132234399,1.1596485250493503E-18,42693.91205856564,1099.3850198252521,0.0020848478474042387,1799.8899826029467,502.9358641769295,-19.872544317289037,-3.716601215593732E-15,16.32013815918018,0.0,0.0,0.0,1.0195463457962792,1309.6581343309451,664.0916356686265
5.300000000000105,2.09301262051545E7,12998.464832319192,-7.711921923256976E-13,2.0930129665678483E7,4909.345038532465,-7.711921923256976E-13,705.2675204102535,2390.7406610219145,-1.3580254470370465E-13,-1.358775998260824E-13,864.0530332164656,-706.7521318954015,4483.915983390063,0.013439226140299496,1.577124645287127E-16,32.18499326717673,90.00000000000006,0.013439226140292864,9.543217312129522E-15,2.319297050098701E-19,-0.004178074132234399,1.1596485250493503E-18,42405.127913724085,1099.1086951244354,0.002080391842842027,1795.1402879207951,502.6830753276233,-19.70346898968237,-3.6971326654068E-15,16.108739196401128,0.0,0.0,0.0,1.015625047767575,1296.1738039381937,661.3711852659577
5.400000000000138,2.0930196490825202E7,13237.44052836686,-7.847569921245923E-13,2.093020008068923E7,4995.66812675257,-7.847569921245923E-13,700.4493741536069,2388.7760343452824,-1.3549388711320972E-13,-1.3557012751846305E-13,862.078249771636,-701.960030886448,4554.351417977363,0.013675487714978153,1.6048653048582596E-16,32.18477629515041,90.00000000000006,0.013675487715000116,9.54709983459047E-15,2.319297050098701E-19,-0.004178074132234399,1.1596485250493503E-18,42117.601853186876,1098.8341748303064,0.002075973261073412,1790.4328423712839,502.4320001194251,-19.536600957251427,-3.677898539982077E-15,15.900214511591233,0.0,0.0,0.0,1.0117290397438996,1282.8754881738,658.669565044245
5.500000000000171,2.093026629572065E7,13476.220590445222,-7.982910563481E-13,2.093027001721821E7,5081.7947471415,-7.982910563481E-13,695.6519680817642,2386.8279454990557,-1.3518782753452313E-13,-1.352652457217145E-13,860.1201419502778,-697.1886133759388,4624.308678999543,0.013911210194709542,1.632543108718569E-16,32.18456079828129,90.00000000000003,0.013911210194791235,9.539334817739582E-15,2.319297050098701E-19,-0.004178074132234399,1.1596485250493503E-18,41831.31680255633,1098.5614521379812,0.002071591815901504,1785.767285345161,502.18263109421093,-19.371903356230774,-3.658895159621891E-15,15.694514730680346,0.0,0.0,0.0,1.0078580750862245,1269.7600594932449,655.9865855743158
5.600000000000205,2.093033562190081E7,13714.806661556602,-8.117946431084062E-13,2.093033947732177E7,5167.72655234957,-8.117946431084062E-13,690.875021827776,2384.8961794693887,-1.348843322817075E-13,-1.3496292079324916E-13,858.1784938735968,-692.4375996676582,4693.789820779115,0.014146398123718405,1.6601585847197284E-16,32.18434677019684,90.00000000000001,0.014146398123843338,9.535452314169921E-15,2.319297050098701E-19,-0.004178074132234399,1.1596485250493503E-18,41546.25598005949,1098.290520337537,0.0020672472250795005,1781.1432613648312,501.93496089492027,-19.209340117001965,-3.640118926439486E-15,15.491591527542113,0.0,0.0,0.0,1.0040119122789148,1256.8244574837809,653.3220611999349
5.700000000000238,2.0930404471397836E7,13953.200363380773,-8.252680071770923E-13,2.0930408463028487E7,5253.465173656063,-8.252680071770923E-13,686.1182598099066,2382.980524806127,-1.3458336822661524E-13,-1.3466311964749991E-13,856.2530932414621,-687.7067148391878,4762.796869900078,0.014381055987520592,1.6877122538817168E-16,32.1841342046106,90.00000000000004,0.014381055987557888,9.538558334421058E-15,2.319297050098701E-19,-0.004178074132234399,1.1596485250493503E-18,41262.40289035127,1098.021372812314,0.002062939210243052,1776.560419994701,501.68898226379616,-19.048875943770113,-3.6215663222998254E-15,15.291397596978877,0.0,0.0,0.0,1.0001903148274942,1244.0656871446822,650.6758099615014
5.800000000000272,2.093047284621656E7,14191.40329662749,-8.387114000403163E-13,2.0930476976339664E7,5339.012221322573,-8.387114000403163E-13,681.3814111307763,2381.080773546504,-1.3428490278695254E-13,-1.3436580974399648E-13,854.3437312557758,-682.9956886412775,4831.331825707108,0.014615188213894053,1.715204630505667E-16,32.18392309532052,90.00000000000004,0.014615188213871802,9.540111349550171E-15,2.319297050098701E-19,-0.004178074132234399,1.1596485250493503E-18,40979.74131847665,1097.754003037183,0.002058667496843011,1772.0184157523524,501.44468804059954,-18.89047629483907,-3.6032339068203865E-15,15.093886628505746,0.0,0.0,0.0,0.9963930511590555,1231.4808172183566,648.0476535216908
5.900000000000305,2.093054074833494E7,14429.417041381495,-8.521250699528138E-13,2.0930545019229755E7,5424.369284938805,-8.521250699528138E-13,676.6642094790924,2379.196721140806,-1.33988903914648E-13,-1.3407095907575156E-13,852.450202545846,-678.3042553998149,4899.396660711616,0.014848799173829122,1.742636222284298E-16,32.183713436207775,90.00000000000006,0.014848799173804111,9.541664364819331E-15,2.319297050098701E-19,-0.004178074132234399,1.1596485250493503E-18,40698.255323988895,1097.4884045771735,0.0020544318140848024,1767.5169080271576,501.2020711611552,-18.734107363523847,-3.585118315441234E-15,14.899013280953673,0.0,0.0,0.0,0.9926198945249304,1219.066978574435,645.4374170930083
6.000000000000338,2.0930608179704584E7,14667.243157440174,-8.655092619907496E-13,2.0930612593646895E7,5509.537933760986,-8.655092619907496E-13,671.9663930338791,2377.3281663798853,-1.3369534008451458E-13,-1.3377853615793626E-13,850.5723050955877,-673.632153920272,4966.993321131915,0.015081893182458407,1.770007530410003E-16,32.183505221235016,90.00000000000004,0.01508189318247157,9.538558364419647E-15,2.319297050098701E-19,-0.004178074132234399,1.1596485250493503E-18,40417.92923521632,1097.2245710855689,0.002050231894860229,1763.0555609912433,500.9611246554199,-18.579736059547294,-3.567216257537016E-15,14.706733157758627,0.0,0.0,0.0,0.988870622906279,1206.821362636472,642.8449293671588
6.100000000000372,2.093067514225112E7,14904.88318464409,-8.788642181034536E-13,2.0930679701513298E7,5594.519717043193,-8.788642181034536E-13,667.287704371147,2375.474911324532,-1.3340418028319818E-13,-1.3348851001684169E-13,848.7098401726033,-668.9791273945905,5034.123727302998,0.01531447449996731,1.797319049680647E-16,32.1832984444452,90.00000000000001,0.015314474500053223,9.535452364148386E-15,2.319297050098701E-19,-0.004178074132234399,1.1596485250493503E-18,40138.74764367543,1096.9624963025121,0.002046067475688183,1758.6340435203138,500.721841646016,-18.42732999105671,-3.549524514598365E-15,14.517002783034929,0.0,0.0,0.0,0.9851450189216466,1194.7412198597226,640.2700224462129
6.200000000000405,2.093074163787462E7,15142.338643200503,-8.921901771640617E-13,2.0930746344725642E7,5679.316164361633,-8.921901771640617E-13,662.6278903729169,2373.6367612365793,-1.3311539399840105E-13,-1.332008501791172E-13,846.8626122590151,-664.3449233104245,5100.789774034172,0.015546547332485183,1.8245712686031334E-16,32.18309309996039,90.00000000000003,0.01554654733257044,9.53855838509545E-15,2.319297050098701E-19,-0.004178074132234399,1.1596485250493503E-18,39860.695398625474,1096.7021740538062,0.0020419382966593252,1754.2520291190451,500.4842153469502,-18.276857447192594,-3.5320399384716255E-15,14.32977957836865,0.0,0.0,0.0,0.9814428697366512,1182.8238582552133,637.7125317754883
6.300000000000439,2.0930807668450046E7,15379.611034000098,-9.054873750190932E-13,2.0930812525155537E7,5763.928785932084,-9.054873750190932E-13,657.9867021385387,2371.813524511762,-1.3282895120837575E-13,-1.3291552666127518E-13,845.0304289840287,-659.729293362655,5166.993331100792,0.015778115832957594,1.8517646694947917E-16,32.18288918198027,90.00000000000003,0.015778115832981526,9.53855839563381E-15,2.319297050098701E-19,-0.004178074132234399,1.1596485250493503E-18,39583.757601759295,1096.443598249187,0.0020378441013731755,1749.9091958387844,500.24823906185503,-18.128287381089834,-3.5147594496354556E-15,14.145021840226354,0.0,0.0,0.0,0.977763966976414,1171.0666419519678,635.1722960781113
6.400000000000472,2.0930873235827733E7,15616.701838927092,-9.187560445369936E-13,2.093087824464999E7,5848.35907292071,-9.187560445369936E-13,653.3638948982365,2370.005012614222,-1.325448223716796E-13,-1.3263250995945889E-13,843.2131010581709,-655.1319933671402,5232.736243691295,0.016009184102000435,1.8788997285826472E-16,32.18268668478078,90.00000000000006,0.016009184101988257,9.544770427409438E-15,2.319297050098701E-19,-0.004178074132234399,1.1596485250493503E-18,39307.919602028414,1096.1867628807693,0.0020337846368786933,1745.6052261993204,500.0139061823897,-17.981589393394795,-3.497680035531759E-15,13.962688718037645,0.0,0.0,0.0,0.9741081066400128,1159.4669898025197,632.6491572911973
6.500000000000505,2.09309383418337E7,15853.612521162875,-9.319964156556591E-13,2.0930943505031742E7,5932.608497748435,-9.319964156556591E-13,648.7592279288103,2368.2110400126485,-1.3226297841718223E-13,-1.3235177103946347E-13,841.4104422091694,-650.5527831766152,5298.020332761109,0.016239756188736354,1.9059769161006141E-16,32.18248560271298,90.00000000000006,0.01623975618872602,9.541664427663231E-15,2.319297050098701E-19,-0.004178074132234399,1.1596485250493503E-18,39033.16699059691,1095.9316620218478,0.0020297596536213427,1741.3398071178722,499.7812101869727,-17.836733716308558,-3.4807987489545967E-15,13.782740192948959,0.0,0.0,0.0,0.9704750890167527,1148.022374031999,630.1429605036165
6.600000000000539,2.093100298827011E7,16090.344525483322,-9.452087154289832E-13,2.0931008308099706E7,6016.678514388927,-9.452087154289832E-13,644.1724644714392,2366.43142411798,-1.319833907343196E-13,-1.3207328132700248E-13,839.6222691193947,-645.9914265986838,5362.847395453602,0.016469836091613572,1.932996696384685E-16,32.18228593020179,90.00000000000003,0.016469836091624016,9.53700542276119E-15,2.319297050098701E-19,-0.004178074132234399,1.1596485250493503E-18,38759.485595921025,1095.6782898254369,0.0020257689053866717,1737.1126298347158,499.55014463927614,-17.69369119805035,-3.4641127064780253E-15,13.605137057157547,0.0,0.0,0.0,0.966864718604718,1136.7303189236395,627.653553895278
6.700000000000572,2.093106717691563E7,16326.899278549987,-9.583931680724362E-13,2.093107265562933E7,6100.570558660498,-9.583931680724362E-13,639.6033716515195,2364.665985222645,-1.3170603116358705E-13,-1.3179701269821143E-13,837.848401364849,-641.4476913158455,5427.219205472618,0.01669942775920804,1.9599595279661399E-16,32.18208766174477,90.0,0.01669942775926778,9.533899423260032E-15,2.319297050098701E-19,-0.004178074132234399,1.1596485250493503E-18,38486.861478950734,1095.4266405229919,0.0020218121492475423,1732.9233898430105,499.3207031868921,-17.55243328779099,-3.4476190869339027E-15,13.429840893855937,0.0,0.0,0.0,0.9632768040311688,1125.5883995436077,625.1807886779052
6.800000000000606,2.093113090952581E7,16563.278189195247,-9.715499950076997E-13,2.0931136549372975E7,6184.286048511993,-9.715499950076997E-13,635.0517204004814,2362.9145464412727,-1.3143087198726314E-13,-1.3152293747038496E-13,836.0886613556327,-636.9213488074914,5491.137513458729,0.016928535091009042,1.9868658636628298E-16,32.18189079191101,90.00000000000001,0.01692853509109237,9.537005445014266E-15,2.319297050098701E-19,-0.004178074132234399,1.1596485250493503E-18,38215.28092844949,1095.176708423114,0.0020178891455117703,1728.771786819377,499.09287955998644,-17.412932021011887,-3.431315129932421E-15,13.256814057744432,0.0,0.0,0.0,0.9597111579748795,1114.5942405020037,622.7245190372405
6.900000000000639,2.0931194187833562E7,16799.482648701654,-9.84679414906398E-13,2.0931199991060406E7,6267.826384302451,-9.84679414906398E-13,630.5172853795337,2361.1769336528573,-1.3115788592036118E-13,-1.3125102839293807E-13,834.3428742778557,-632.4121742738254,5554.604047477245,0.0171571619381876,2.0137161506686078E-16,32.18169531533961,90.00000000000003,0.017157161938221407,9.538558461619177E-15,2.319297050098701E-19,-0.004178074132234399,1.1596485250493503E-18,37944.73045642952,1094.9284879098136,0.0020139996576635662,1724.65752454823,498.86666756955395,-17.2751600052198,-3.4151981344128992E-15,13.086019656050906,0.0,0.0,0.0,0.9561675970907448,1103.7455147452824,620.2846020766492
7.000000000000672,2.093125701354936E7,17035.51403107554,-9.977816437329228E-13,2.093126298239898E7,6351.192949075735,-9.977816437329228E-13,625.9998449052702,2359.452975444324,-1.308870461017978E-13,-1.3098125863858568E-13,832.6108680369839,-627.9199465616434,5617.62051320076,0.01738531210435127,2.0405108306409083E-16,32.18150122673913,90.00000000000006,0.01738531210436106,9.543217488929697E-15,2.319297050098701E-19,-0.004178074132234399,1.1596485250493503E-18,37675.196793698604,1094.6819734419648,0.0020101434523243185,1720.5803108668858,498.6420611067627,-17.13909040622519,-3.3992654572670404E-15,12.917421530207593,0.0,0.0,0.0,0.9526459419351808,1093.0399423930935,617.8608977620879
7.100000000000706,2.093131938836174E7,17271.373693314963,-1.0108568961009237E-12,2.093132552507413E7,6434.38710882894,-1.0108568961009237E-12,621.4991808770947,2357.742503055443,-1.3061837346651756E-13,-1.3067185440289807E-13,830.8924732025159,-623.4444480919291,5680.188594412059,0.017612989346281596,2.0672503424748326E-16,32.18130852088596,90.00000000000006,0.017612989346280177,6.362662668770822E-15,2.319297050098701E-19,-0.004178074132234399,1.1596485250493503E-18,37406.66688551575,1094.4371595515024,0.00200632029919432,1716.5398575908016,498.4190541411564,-17.00469693463703,-3.146531835533635E-15,12.750984237914288,0.0,0.0,0.0,0.9491460168943775,1082.4752895970864,615.4532688683737
7.200000000000739,2.0931381313937575E7,17507.062975672423,-1.0239053890681034E-12,2.0931387620749686E7,6517.41021277577,-1.0239053890681034E-12,617.0150787064069,2356.0453503250824,-1.3035183271645147E-13,-1.3040596104755633E-13,829.1875229540155,-618.9854647892029,5742.30995329842,0.017840197374657897,2.093935130063688E-16,32.181117192623496,90.00000000000006,0.017840197374677194,6.3626626765770744E-15,2.319297050098701E-19,-0.004178074132234399,1.1596485250493503E-18,37139.12788735217,1094.1940408424332,0.002002529971007892,1712.5358804532748,498.19764071960054,-16.871953832844376,-3.129206056920053E-15,12.586673035785308,0.0,0.0,0.0,0.9456676501135666,1072.0493674386782,613.0615809267363
7.3000000000007725,2.0931442791922495E7,17742.583201912024,-1.0369273315865433E-12,2.0931449271068245E7,6600.263593604247,-1.0369273315865433E-12,612.547327247509,2354.3613536387215,-1.3008736024924927E-13,-1.3014213326718734E-13,827.495853028405,-614.5427860125905,5803.986230846494,0.018066939854765384,2.1205656207244004E-16,32.180927236860846,90.00000000000003,0.018066939854831033,6.358003668588785E-15,2.319297050098701E-19,-0.004178074132234399,1.1596485250493503E-18,36872.567160755425,1093.9526119894483,0.001998772243482912,1708.5680990395178,497.9778149648702,-16.74083586230744,-3.1120830336102942E-15,12.424453862440068,0.0,0.0,0.0,0.9422106734282903,1061.7600308542462,610.6857021736045
7.400000000000806,2.093150382394112E7,17977.935679561593,-1.0499229292182606E-12,2.0931510477651425E7,6682.948567729493,-1.0499229292182606E-12,608.0957187301719,2352.6903518772397,-1.2982493080404054E-13,-1.2988034580759117E-13,825.8173016685448,-610.1162044885439,5865.219047073275,0.018293220407189857,2.1471422348410543E-16,32.18073864857215,90.00000000000001,0.018293220407308443,6.354897665966799E-15,2.319297050098701E-19,-0.004178074132234399,1.1596485250493503E-18,36606.97226931263,1093.7128677371747,0.001995046895280906,1704.6362367321576,497.75957107482185,-16.611318291285208,-3.09515985737039E-15,12.264293322124319,0.0,0.0,0.0,0.938774922296751,1051.6051775955355,608.3255035005988
7.500000000000839,2.09315644115975E7,18213.121700159827,-1.0628923850184068E-12,2.0931571242100317E7,6765.466435541401,-1.0628923850184068E-12,603.6600486938288,2351.0321863669096,-1.2956451950305163E-13,-1.2962057379753724E-13,824.1517095730147,-605.7055162451913,5926.0100014954805,0.018519042608498175,2.1736653876710739E-16,32.18055142279518,90.00000000000001,0.01851904260859057,6.356450679309707E-15,2.319297050098701E-19,-0.004178074132234399,1.1596485250493503E-18,36342.33097471148,1093.47480289849,0.0019913537079531436,1700.7400206422324,497.542903320716,-16.483376882780465,-3.0784336801578814E-15,12.106158668693343,0.0,0.0,0.0,0.9353602357345296,1041.5827472111644,605.9808584056917
7.600000000000873,2.09316245564754E7,18448.142539498174,-1.0758358995731914E-12,2.0931631565995738E7,6847.818481647101,-1.0758358995731914E-12,599.2401159233352,2349.3867008305556,-1.2930610184395828E-13,-1.2936279274111674E-13,822.4989198470641,-601.3105205482397,5986.360673375428,0.018744409991904607,2.2001354894227817E-16,32.180365554630434,90.00000000000004,0.018744409991945724,6.361109703336131E-15,2.319297050098701E-19,-0.004178074132234399,1.1596485250493503E-18,36078.63123289438,1093.2384123537088,0.001987692465900912,1696.8791815554162,497.327806046336,-16.356987882928255,-3.061901712737409E-15,11.9500177901185,0.0,0.0,0.0,0.9319664562500569,1031.6907200633332,603.6516429454853
7.700000000000906,2.0931684260138657E7,18682.999457858245,-1.088753671037049E-12,2.093169145089862E7,6930.005975108917,-1.088753671037049E-12,594.8357223862748,2347.7537413398877,-1.290496536924187E-13,-1.2910697851027812E-13,820.8587779547514,-596.9310198384309,6046.272622104734,0.0189693260479246,2.2265529453314025E-16,32.180181039240075,90.00000000000006,0.018969326047933905,6.362662716855016E-15,2.319297050098701E-19,-0.004178074132234399,1.1596485250493503E-18,35815.861190305855,1093.0036910492267,0.0019840629563278975,1693.0534538701786,497.1142736666162,-16.232128009634096,-3.045561223321468E-15,11.795839193367248,0.0,0.0,0.0,0.9285934297820599,1021.927116367228,601.3377356886094
7.8000000000009395,2.093174352413136E7,18917.69370024429,-1.1016458951690787E-12,2.0931750898350168E7,7012.030169677454,-1.1016458951690787E-12,590.4466731717425,2346.133156268929,-1.2879515127478071E-13,-1.2885310733753612E-13,819.2311316721837,-592.5668196704669,6105.747387368232,0.01919379422501546,2.2529181557335873E-16,32.179997871847405,90.00000000000006,0.019193794225012453,6.364215730459325E-15,2.319297050098701E-19,-0.004178074132234399,1.1596485250493503E-18,35554.009180228015,1092.7706339970214,0.001980464969206413,1689.2625755507888,496.90230066705345,-16.108774441629933,-3.0294095362685074E-15,11.643591989773798,0.0,0.0,0.0,0.9252410056376935,1012.2899952635123,599.0390176701777
7.900000000000973,2.093180234997837E7,19152.226496611256,-1.114512765368748E-12,2.0931809909872383E7,7093.892304020102,-1.114512765368748E-12,586.0727764305816,2344.52479624853,-1.285425711709585E-13,-1.2860115580884996E-13,817.6158310418297,-588.217728653385,6164.786489669234,0.01941781793020402,2.27923151614043E-16,32.179816047735166,90.00000000000006,0.019417817930205063,6.36421573884391E-15,2.319297050098701E-19,-0.004178074132234399,1.1596485250493503E-18,35293.063719203106,1092.539236272736,0.0019768982972222376,1685.50628805802,496.6918816018304,-15.986904807648846,-3.013444030782975E-15,11.493245880676954,0.0,0.0,0.0,0.9219090364332544,1002.7774539048643,596.7553723472658
8.000000000001005,2.093186073918543E7,19386.59906208807,-1.1273544727109043E-12,2.093186848696819E7,7175.593601944927,-1.1273544727109043E-12,581.7138433170318,2342.9285141219593,-1.282918903074754E-13,-1.2835110085666688E-13,816.0127283279343,-583.8835583923417,6223.391430448741,0.019641400529702032,2.3054934173090636E-16,32.17963556224527,90.00000000000004,0.019641400529729895,6.361109736695376E-15,2.319297050098701E-19,-0.004178074132234399,1.1596485250493503E-18,35033.013503540504,1092.309493015349,0.00197336273574452,1681.7843363065108,496.4830110933865,-15.866497176092217,-2.9976621396879167E-15,11.344771143590759,0.0,0.0,0.0,0.9185973780349305,993.3876265798704,594.4866855554213
8.10000000000095,2.0931918693239618E7,19620.81259719685,-1.1401712059800952E-12,2.0931926631121866E7,7257.135272620332,-1.1401712059800952E-12,577.3696879317522,2341.344164901498,-1.2804308595066738E-13,-1.2810291975312752E-13,814.421677972925,-579.5641234317678,6281.563692521304,0.01986454534950965,2.3317042453128505E-16,32.179456410777334,90.00000000000003,0.019864545349574454,6.3580037346185555E-15,2.319297050098701E-19,-0.004178074132234399,1.1596485250493503E-18,34773.84740590607,1092.0813994256027,0.0019698580827770054,1678.0964686026844,496.27568383086066,-15.747530044819914,-2.9820613482015623E-15,11.198138618635307,0.0,0.0,0.0,0.9153058895018849,984.118683850863,592.2328454661284
8.200000000000895,2.093197621360952E7,19854.868288067588,-1.1529631517042148E-12,2.093198434379922E7,7338.518510790301,-1.1529631517042148E-12,573.0401272661695,2339.771605726032,-1.2779613570004175E-13,-1.2785659010342607E-13,812.8425365548319,-575.2592411998465,6339.30474024266,0.02008725567600698,2.35786438161019E-16,32.1792785887883,90.00000000000001,0.02008725567611254,6.3548977326128876E-15,2.319297050098701E-19,-0.004178074132234399,1.1596485250493503E-18,34515.55447199079,1091.8549507654777,0.001966384138925921,1674.4424366004366,496.0698945694894,-15.629982331343621,-2.9666391927710922E-15,11.053319695423815,0.0,0.0,0.0,0.9120344330297286,974.9688317230781,589.9937425452239
8.30000000000084,2.093203330174556E7,20088.767306648773,-1.165730539919408E-12,2.0932041626447923E7,7419.744496985511,-1.165730539919408E-12,568.7249811481338,2338.210695819642,-1.2755175465574473E-13,-1.2761282701203178E-13,811.2751627457051,-570.9687319542951,6396.616019863635,0.020309534756534124,2.383974296635919E-16,32.17910209179121,90.00000000000003,0.020309534756585774,6.3580037519303116E-15,2.319297050098701E-19,-0.004178074132234399,1.1596485250493503E-18,34258.123917257704,1091.6301423569357,0.0019629407073570755,1670.8219952456905,495.86563812934173,-15.513833363193317,-2.9514073532183747E-15,10.910286300235624,0.0,0.0,0.0,0.9087828738958649,965.9363108305296,587.769269512244
8.400000000000784,2.0932089959080324E7,20322.51081091389,-1.1784735349218706E-12,2.093209848049785E7,7500.8143977302825,-1.1784735349218706E-12,564.4240721888374,2336.6612964511132,-1.2730844531227352E-13,-1.2737013297940622E-13,809.7194172709432,-566.6924187294038,6453.498959835619,0.02053138579995981,2.410034326383558E-16,32.17892691535432,90.00000000000006,0.020531385799964642,6.364215781965474E-15,2.319297050098701E-19,-0.004178074132234399,1.1596485250493503E-18,34001.54512376423,1091.40696958085,0.0019595275937563353,1667.234902724728,495.6629093942265,-15.399062868562101,-2.9363351743338523E-15,10.769010883546546,0.0,0.0,0.0,0.9055510804058419,957.0193956450407,585.5593213006483
