time,gePosition_ft_X,gePosition_ft_Y,gePosition_ft_Z,feVelocity_ft_s_X,feVelocity_ft_s_Y,feVelocity_ft_s_Z,altitudeMsl_ft,longitude_deg,latitude_deg,localGravity_ft_s2,eulerAngle_deg_Yaw,eulerAngle_deg_Pitch,eulerAngle_deg_Roll,bodyAngularRateWrtEi_deg_s_Roll,bodyAngularRateWrtEi_deg_s_Pitch,bodyAngularRateWrtEi_deg_s_Yaw,altitudeRateWrtMsl_ft_min,speedOfSound_ft_s,airDensity_slug_ft3,ambientPressure_lbf_ft2,ambientTemperature_dgR,aero_bodyForce_lbf_X,aero_bodyForce_lbf_Y,aero_bodyForce_lbf_Z,aero_bodyMoment_ftlbf_L,aero_bodyMoment_ftlbf_M,aero_bodyMoment_ftlbf_N,mach,dynamicPressure_lbf_ft2,trueAirspeed_nmi_h
0.0,2.09256463253E7,0.0,0.0,0.0,999.999998322,-999.999998322,0.0,0.0,0.0,32.1988106712,89.99999999959013,-0.0,0.0,0.0,-0.004178073999995741,0.0,59999.99989932,1116.45,0.0023769,2116.21662367,518.67,-33.0008944477,0.0,33.0008944477,0.0,0.0,0.0,1.26670568319,2376.89999202,837.898624434
0.1,2.09257460024E7,99.8348202208,0.0,0.0,996.69773585,-993.532520876,99.6773109399,2.73352923542E-4,0.0,32.198513639,89.99999999959013,2.733529451713244E-4,-1.1890196181756086E-18,0.0,-0.004178073999995741,0.0,59611.95125256,1116.06525013,0.00237021874864,2108.95138575,518.314595524,-32.6394360249,0.0,32.535472451,0.0,0.0,0.0,1.2609541335,2347.12481462,833.806653078
0.2,2.09258450335E7,199.341686173,0.0,0.0,993.431457845,-987.111100405,198.709098469,5.45805308226E-4,0.0,32.1982083199,89.99999999959013,5.458053514837475E-4,-2.329507823442684E-18,0.0,-0.004178073999995741,0.0,59226.6660243,1115.68299194,0.00236358076595,2101.73319847,517.961492694,-32.283726749,0.0,32.0777217473,0.0,0.0,0.0,1.25525101173,2317.83884354,829.751169014
0.3,2.09259434242E7,298.524164555,0.0,0.0,990.200638496,-980.735037214,297.101018272,8.17366957551E-4,0.0,32.1979049779,89.99999999959013,8.173670224388041E-4,-3.591324561339191E-18,0.0,-0.004178073999995741,0.0,58844.10223284,1115.30320362,0.00235698567284,2094.5616496,517.610671345,-31.9336489108,0.0,31.627483909,0.0,0.0,0.0,1.24959566985,2289.032029,825.731669691
0.4,2.09260411791E7,397.385765654,0.0,0.0,987.004718481,-974.40358856,394.857568812,0.00108804751997,0.0,32.197603599,89.99999999959013,0.0010880476064887735,-4.8531412994877994E-18,0.0,-0.004178073999995741,0.0,58464.2153136,1114.92586779,0.00235043316776,2087.43641126,517.262115438,-31.5890857414,0.0,31.1846020676,0.0,0.0,0.0,1.24398740468,2260.69441411,821.747620721
0.5,2.09261383026E7,495.929944513,0.0,0.0,983.843150049,-968.116027171,491.983175039,0.00135785649213,0.0,32.1973041695,89.99999999959013,0.0013578566002767566,-5.7267067339728015E-18,0.0,-0.004178073999995741,0.0,58086.961630260004,1114.55096738,0.00234392295413,2080.35716092,516.915809193,-31.2499235259,0.0,30.7489234392,0.0,0.0,0.0,1.23842552828,2232.81630181,817.798499282
0.6,2.09262347991E7,594.160102071,0.0,0.0,980.715396712,-961.87164084,588.482189946,0.00162680322196,0.0,32.1970066759,89.99999999959013,0.0016268033517295023,-6.988523472831878E-18,0.0,-0.004178073999995741,0.0,57712.298450400005,1114.17848559,0.00233745474017,2073.3235813,516.571737092,-30.9160515078,0.0,30.3202991962,0.0,0.0,0.0,1.23290936764,2205.38824675,813.883793819
0.7,2.09263306728E7,692.079586273,0.0,0.0,977.620932956,-955.669732036,684.358896036,0.00189489691175,0.0,32.196711105,89.99999999959013,0.0018948970631565358,-8.153277386154636E-18,0.0,-0.004178073999995741,0.0,57340.18392216,1113.80840588,0.00233102823883,2066.33536027,516.229883864,-30.5873617968,0.0,29.898584344,0.0,0.0,0.0,1.22743826421,2178.40104747,810.003003755
0.8,2.09264259279E7,789.691693152,0.0,0.0,974.559243955,-949.509617533,779.617506776,0.00216214662114,0.0,32.1964174435,89.99999999959013,0.0021621467941722425,-9.318031299993058E-18,0.0,-0.004178073999995741,0.0,56970.57705198,1113.44071198,0.00232464316768,2059.39219071,515.890234487,-30.2637492798,0.0,29.4836376027,0.0,0.0,0.0,1.2220115736,2151.84573881,806.155639213
0.9,2.09265205687E7,886.999667876,0.0,0.0,971.529825302,-943.390628035,874.26216802,0.00242856126997,0.0,32.1961256787,89.99999999959013,0.0024285614646351447,-1.0288659562289018E-17,0.0,-0.004178073999995741,0.0,56603.4376821,1113.07538791,0.00231829924884,2052.49377045,515.552774177,-29.9451115357,0.0,29.0753212916,0.0,0.0,0.0,1.21662866521,2125.71358465,802.34122075
1.0,2.09266145991E7,984.006705783,0.0,0.0,968.532182735,-937.312107831,968.296959363,0.00269414964113,0.0,32.1958357979,89.99999999959013,0.0026941498574210116,-1.164753912956066E-17,0.0,-0.004178073999995741,0.0,56238.726469860005,1112.7124179,0.00231199620885,2045.63980212,515.217488389,-29.6313487525,0.0,28.6735012198,0.0,0.0,0.0,1.21128892188,2099.99607089,798.559279088
1.1,2.09267080233E7,1080.71595337,0.0,0.0,965.565831887,-931.273414445,1061.7258955,0.00295892038331,0.0,32.1955477887,89.99999999959013,0.0029589206212246298,-1.3006418697634444E-17,0.0,-0.004178073999995741,0.0,55876.404866699995,1112.35178647,0.00230573377861,2038.82999312,514.884362809,-29.3223636481,0.0,28.278046579,0.0,0.0,0.0,1.20599173956,2074.68489868,794.809354869
1.2,2.09268008451E7,1177.13050929,0.0,0.0,962.63029803,-925.273918308,1154.55292752,0.00322288201365,0.0,32.1952616388,89.99999999959013,0.003222882273201133,-1.3588795657590328E-17,0.0,-0.004178073999995741,0.0,55516.435098480004,1111.99347836,0.00229951169328,2032.06405545,514.553383347,-29.0180613931,0.0,27.888829841,0.0,0.0,0.0,1.20073652701,2049.77197787,791.090998402
1.3,2.09268930685E7,1273.25342526,0.0,0.0,959.725115835,-919.31300243,1246.7819442,0.00348604292041,0.0,32.1949773361,89.99999999959013,0.0034860432015844226,-1.4559423922808377E-17,0.0,-0.004178073999995741,0.0,55158.780145799996,1111.63747856,0.00229332969222,2025.34170567,514.22453614,-28.7183495372,0.0,27.5057266587,0.0,0.0,0.0,1.19552270544,2025.24942076,787.40376943
1.4,2.09269846973E7,1369.08770702,0.0,0.0,956.849829139,-913.390062093,1338.41677321,0.00374841136544,0.0,32.1946948688,89.99999999959013,0.0037484116682425577,-1.5530052188771267E-17,0.0,-0.004178073999995741,0.0,54803.40372558,1111.2837723,0.00228718751884,2018.66266479,513.897807539,-28.4231379375,0.0,27.1286157705,0.0,0.0,0.0,1.19034970828,2001.10953597,783.747236894
1.5,2.09270757352E7,1464.63631526,0.0,0.0,954.00399071,-907.504504541,1429.46118239,0.00400999548673,0.0,32.1944142251,89.99999999959013,0.004009995811158663,-1.6694806108110082E-17,0.0,-0.004178073999995741,0.0,54450.270272459995,1110.93234504,0.0022810849206,2012.02665818,513.573184109,-28.1323386896,0.0,26.7573789077,0.0,0.0,0.0,1.18521698081,1977.3448226,780.120978713
1.6,2.09271661861E7,1559.90216642,0.0,0.0,951.187162034,-901.655748691,1519.91888084,0.00427080330078,0.0,32.1941353936,89.99999999959013,0.004270803646843081,-1.8247811333455904E-17,0.0,-0.004178073999995741,0.0,54099.34492146,1110.58318245,0.00227502164888,2005.4334155,513.250652626,-27.8458660613,0.0,26.3919007062,0.0,0.0,0.0,1.18012397992,1953.94796457,776.524581566
1.7,2.09272560534E7,1654.88813362,0.0,0.0,948.398913095,-895.843224844,1609.79352016,0.00453084270501,0.0,32.1938583629,89.99999999959013,0.004530843072699689,-1.86360626449633E-17,0.0,-0.004178073999995741,0.0,53750.59349064,1110.23627044,0.00226899745892,1998.88267059,512.93020007,-27.5636364279,0.0,26.0320686196,0.0,0.0,0.0,1.17507017383,1930.91182517,772.957640678
1.8,2.09273453409E7,1749.5970475,0.0,0.0,945.638822167,-890.066374408,1699.08869553,0.00479012148001,0.0,32.1935831218,89.99999999959013,0.0047901218693291855,-2.0577319178035E-17,0.0,-0.004178073999995741,0.0,53403.98246448,1109.89159513,0.00226301210974,1992.3741614,512.611813622,-27.2855682108,0.0,25.6777728371,0.0,0.0,0.0,1.17005504182,1908.22944175,769.419759619
1.9,2.0927434052E7,1844.03169697,0.0,0.0,942.906475613,-884.324649628,1787.80794681,0.00504864729183,0.0,32.1933096595,89.99999999959013,0.0050486477027750915,-2.1742073102186663E-17,0.0,-0.004178073999995741,0.0,53059.478977679995,1109.54914287,0.00225706536407,1985.90762993,512.29548066,-27.0115818172,0.0,25.3289062026,0.0,0.0,0.0,1.16507807396,1885.89402066,765.910550102
2.0,2.09275221903E7,1938.19483009,0.0,0.0,940.201467688,-878.617513327,1875.95475961,0.00530642769414,0.0,32.1930379651,89.99999999959013,0.005306428126718169,-2.213032441655885E-17,0.0,-0.004178073999995741,0.0,52717.050799619996,1109.20890019,0.00225115698826,1979.48282211,511.981188757,-26.7415995821,0.0,24.9853641379,0.0,0.0,0.0,1.16013877086,1863.89893232,762.429631794
2.1,2.09276097592E7,2032.08915476,0.0,0.0,937.523400349,-872.94443865,1963.53256634,0.00556347013041,0.0,32.1927680278,89.99999999959013,0.005563470584619294,-2.2130324426012654E-17,0.0,-0.004178073999995741,0.0,52376.666319,1108.87085385,0.00224528675225,1973.09948776,511.668925673,-26.475545713,0.0,24.6470445673,0.0,0.0,0.0,1.15523664344,1842.23770643,758.976632125
2.2,2.09276967621E7,2125.71733958,0.0,0.0,934.871883069,-867.304908818,2050.54474726,0.00581978193594,0.0,32.1924998373,89.99999999959013,0.005819782411759181,-2.329507835348747E-17,0.0,-0.004178073999995741,0.0,52038.29452908,1108.5349908,0.00223945442947,1966.75738051,511.358679356,-26.2133462354,0.0,24.3138478461,0.0,0.0,0.0,1.15037121266,1820.90402744,755.551186108
2.3,2.09277832023E7,2219.08201451,0.0,0.0,932.246532655,-861.69841689,2136.99463141,0.00607537033995,0.0,32.1922333832,89.99999999959013,0.006075370837432807,-2.368332967038067E-17,0.0,-0.004178073999995741,0.0,51701.9050134,1108.20129819,0.00223365979676,1960.45625771,511.050437937,-25.9549289409,0.0,23.9856766898,0.0,0.0,0.0,1.14554200934,1799.89173007,752.152936162
2.4,2.09278690831E7,2312.18577161,0.0,0.0,929.646973079,-856.124465528,2222.88549764,0.00633024246753,0.0,32.1919686554,89.99999999959013,0.006330242986622459,-2.601283751931425E-17,0.0,-0.004178073999995741,0.0,51367.467931679996,1107.86976337,0.00222790263437,1954.19588038,510.744189725,-25.7002233366,0.0,23.6624361076,0.0,0.0,0.0,1.14074857387,1779.19479503,748.781531943
2.5,2.09279544077E7,2405.0311658,0.0,0.0,927.072835301,-850.582566773,2308.22057552,0.00658440534161,0.0,32.1917056437,89.99999999959013,0.006584405882358308,-2.6789340145251133E-17,0.0,-0.004178073999995741,0.0,51034.95400638,1107.54037386,0.0022221827258,1947.97601311,510.439923204,-25.4491605965,0.0,23.3440333362,0.0,0.0,0.0,1.13599045606,1758.80734487,745.436630172
2.6,2.09280391793E7,2497.62071546,0.0,0.0,924.523757112,-845.072241825,2393.00304629,0.00683786588484,0.0,32.1914443384,89.99999999959013,0.006837866447173732,-2.8342345385723035E-17,0.0,-0.004178073999995741,0.0,50704.3345095,1107.21311739,0.00221649985783,1941.79642404,510.137627031,-25.2016735144,0.0,23.0303777775,0.0,0.0,0.0,1.13126721488,1738.72363997,742.11789448
2.7,2.09281234011E7,2589.95690318,0.0,0.0,921.999382966,-839.593020829,2477.23604377,0.00709063092144,0.0,32.1911847297,89.99999999959013,0.007090631505397141,-2.950709932150574E-17,0.0,-0.004178073999995741,0.0,50375.581249740004,1106.88798186,0.0022108538204,1935.65688474,509.837290033,-24.9576964578,0.0,22.7213809372,0.0,0.0,0.0,1.12657841825,1718.93807467,738.824995244
2.8,2.09282070761E7,2682.04217638,0.0,0.0,919.499363829,-834.144442671,2560.92265522,0.00734270717901,0.0,32.1909268081,89.99999999959013,0.00734270778464167,-3.0283601952026284E-17,0.0,-0.004178073999995741,0.0,50048.66656026,1106.56495536,0.00220524440657,1929.5571702,509.538901202,-24.7171653248,0.0,22.4169563656,0.0,0.0,0.0,1.12192364289,1699.44517353,735.557609441
2.9,2.09282902074E7,2773.87894797,0.0,0.0,917.023357026,-828.726054772,2644.06592223,0.00759410129031,0.0,32.1906705641,89.99999999959013,0.007594101917524051,-3.183660719857155E-17,0.0,-0.004178073999995741,0.0,49723.56328632,1106.24402614,0.00219967141248,1923.49705872,509.242449693,-24.4800175004,0.0,22.1170196011,0.0,0.0,0.0,1.11730247408,1680.23958765,732.315420494
3.0,2.0928372798E7,2865.46959694,0.0,0.0,914.571026095,-823.337412893,2726.66884154,0.00784481979495,0.0,32.1904159883,89.99999999959013,0.007844820443841855,-3.3389612447408635E-17,0.0,-0.004178073999995741,0.0,49400.244773579994,1105.92518264,0.00219413463724,1917.47633188,508.947924821,-24.2461918161,0.0,21.8214881143,0.0,0.0,0.0,1.11271450547,1661.31609124,729.09811813
3.1,2.09284548508E7,2956.81646902,0.0,0.0,912.142040642,-817.97808095,2808.73436588,0.0080948691411,0.0,32.1901630717,89.99999999959013,0.008094869811604809,-3.4942617698766735E-17,0.0,-0.004178073999995741,0.0,49078.684857,1105.60841346,0.00218863388295,1911.49477445,508.655316058,-24.0156285095,0.0,21.530281255,0.0,0.0,0.0,1.10815933893,1642.66957816,725.905398239
3.2,2.09285363688E7,3047.92187727,0.0,0.0,909.736076203,-812.647630819,2890.26540476,0.00834425568714,0.0,32.1899118053,89.99999999959013,0.008344256379269343,-3.494261772059643E-17,0.0,-0.004178073999995741,0.0,48758.857849140004,1105.29370737,0.00218316895459,1905.55217438,508.36461303,-23.7882691855,0.0,21.2433202003,0.0,0.0,0.0,1.10363658435,1624.29505865,722.736962741
3.3,2.09286173548E7,3138.78810264,0.0,0.0,907.352814107,-807.345642168,2971.26482529,0.00859298570326,0.0,32.18966218,89.99999999959013,0.008592986416999088,-3.7272125592505617E-17,0.0,-0.004178073999995741,0.0,48440.73853008,1104.9810533,0.00217773965997,1899.64832268,508.075805514,-23.5640567796,0.0,20.9605279045,0.0,0.0,0.0,1.09914585945,1606.18765616,719.592519447
3.4,2.09286978116E7,3229.41739454,0.0,0.0,904.991941349,-802.071702269,3051.73545291,0.00884106537302,0.0,32.1894141872,89.99999999959013,0.00884106610838375,-3.7272125617085506E-17,0.0,-0.004178073999995741,0.0,48124.302136139995,1104.67044035,0.0021723458097,1893.78301342,507.788883435,-23.3429355211,0.0,20.681829051,0.0,0.0,0.0,1.09468678965,1588.34260428,716.471781935
3.5,2.09287777421E7,3319.81197144,0.0,0.0,902.653150455,-796.825405839,3131.68007216,0.0090885007949,0.0,32.1891678182,89.99999999959013,0.009088501551928809,-3.960163349489615E-17,0.0,-0.004178073999995741,0.0,47809.524350340005,1104.36185776,0.00216698721715,1887.95604363,507.503836866,-23.1248508982,0.0,20.4071500045,0.0,0.0,0.0,1.09025900786,1570.75524371,713.374469423
3.6,2.09288571489E7,3409.97402138,0.0,0.0,900.336139362,-791.606354867,3211.10142744,0.00933529798378,0.0,32.1889230645,89.99999999959013,0.0093352987624306,-3.960163352234083E-17,0.0,-0.004178073999995741,0.0,47496.38129202,1104.05529495,0.00216166369837,1882.16721329,507.220656021,-22.909749624,0.0,20.1364187667,0.0,0.0,0.0,1.08586215437,1553.42101943,710.300306646
3.7,2.09289360349E7,3499.90570251,0.0,0.0,898.040609288,-786.414156696,3290.00222369,0.00958146287245,0.0,32.1886799177,89.99999999959013,0.00958146367269521,-4.1931141406339427E-17,0.0,-0.004178073999995741,0.0,47184.849401759995,1103.75037357,0.00215641967882,1876.47902939,506.939339633,-22.6980490247,0.0,19.8699758643,0.0,0.0,0.0,1.08149623471,1536.36725165,707.249022159
3.8,2.09290144026E7,3589.60913504,0.0,0.0,895.76603779,-781.248225748,3368.38511965,0.00982700128951,0.0,32.1884383695,89.99999999959013,0.009827002111422288,-4.270764405593947E-17,0.0,-0.004178073999995741,0.0,46874.89354488,1103.44467172,0.00215154737383,1871.30231825,506.659933141,-22.4927337422,0.0,19.6103940146,0.0,0.0,0.0,1.07716297575,1519.79452632,704.220169781
3.9,2.09290922547E7,3679.08638427,0.0,0.0,893.511978497,-776.108047283,3446.25271326,0.010071918913,0.0,32.188198412,89.99999999959013,0.010071919756508988,-4.3484146707430264E-17,0.0,-0.004178073999995741,0.0,46566.48283698,1103.14097962,0.00214670710019,1866.15963968,506.382363513,-22.2901495059,0.0,19.3544386608,0.0,0.0,0.0,1.07285909375,1503.45421404,701.213365151
4.0,2.09291695936E7,3768.33948302,0.0,0.0,891.278159645,-770.993262133,3523.60756174,0.0103162213317,0.0,32.1879600371,89.99999999959013,0.010316222196872128,-4.5037151981133724E-17,0.0,-0.004178073999995741,0.0,46259.59572798,1102.83928727,0.00214189869894,1861.05082479,506.106621636,-22.0902500403,0.0,19.1020469475,0.0,0.0,0.0,1.06858427038,1487.34234742,698.228362722
4.1,2.0929246422E7,3857.37043719,0.0,0.0,889.064314066,-765.903517342,3600.45218675,0.0105599140605,0.0,32.187723237,89.99999999959013,0.010559914947230483,-4.659015725798845E-17,0.0,-0.004178073999995741,0.0,45954.21104052,1102.53958485,0.00213712201335,1855.97570704,505.832698519,-21.8929900722,0.0,18.8531573629,0.0,0.0,0.0,1.0643381936,1471.45504461,695.264921674
4.2,2.09293227424E7,3946.18122624,0.0,0.0,886.870179085,-760.838466035,3676.78907491,0.0108030025415,0.0,32.187488004,89.99999999959013,0.010803003449938262,-4.8143162537994446E-17,0.0,-0.004178073999995741,0.0,45650.3079621,1102.24186266,0.00213237688883,1850.9341222,505.560585299,-21.6983253047,0.0,18.607709704,0.0,0.0,0.0,1.06012055752,1455.78850704,692.322805819
4.3,2.09293985571E7,4034.77380363,0.0,0.0,884.695496426,-755.797767285,3752.62067847,0.0110454921456,0.0,32.1872543306,89.99999999959013,0.01104549307561536,-4.9696167821266296E-17,0.0,-0.004178073999995741,0.0,45347.8660371,1101.94611113,0.00212766317296,1845.92590833,505.290273235,-21.5062123923,0.0,18.3656450425,0.0,0.0,0.0,1.05593106228,1440.33901733,689.401783507
4.4,2.09294738686E7,4123.15009728,0.0,0.0,882.540012119,-750.78108599,3827.94941589,0.0112873881733,0.0,32.1870222091,89.99999999959013,0.011287389124923518,-5.047267048501839E-17,0.0,-0.004178073999995741,0.0,45046.8651594,1101.65232084,0.0021229807154,1840.95090569,505.021753706,-21.3166089163,0.0,18.1269056926,0.0,0.0,0.0,1.05176941394,1425.1029372,686.501627532
4.5,2.09295486793E7,4211.31200993,0.0,0.0,880.403476404,-745.788092751,3902.77767239,0.0115286958559,0.0,32.1867916322,89.99999999959013,0.01152869682925389,-5.047267052730268E-17,0.0,-0.004178073999995741,0.0,44747.28556506,1101.36048248,0.00211832936789,1836.00895675,504.755018209,-21.1294733613,0.0,17.8914351785,0.0,0.0,0.0,1.04763532435,1410.07670544,683.622115045
4.6,2.09296229915E7,4299.26141964,0.0,0.0,878.285643647,-740.818463751,3977.10780054,0.0117694203572,0.0,32.1865625926,89.99999999959013,0.01176942135210212,-5.124917319460711E-17,0.0,-0.004178073999995741,0.0,44449.10782506,1101.07058687,0.0021137089842,1831.09990615,504.490058358,-20.9447650923,0.0,17.6591782044,0.0,0.0,0.0,1.04352851104,1395.25683596,680.763027461
4.7,2.09296968077E7,4387.00018013,0.0,0.0,876.186272246,-735.871880637,4050.94212081,0.0120095667736,0.0,32.1863350831,89.99999999959013,0.012009567790156985,-5.280217848882247E-17,0.0,-0.004178073999995741,0.0,44152.31283822,1100.78262497,0.00210911942007,1826.22360063,504.226865882,-20.7624443325,0.0,17.4300806239,0.0,0.0,0.0,1.03944869713,1380.63991591,677.924150381
4.8,2.09297701299E7,4474.53012119,0.0,0.0,874.105124553,-730.948030413,4124.28292208,0.0122491401363,0.0,32.1861090966,89.99999999959013,0.012249141174503583,-5.2025675910040005E-17,0.0,-0.004178073999995741,0.0,43856.88182478,1100.49658785,0.00210456053324,1821.37988902,503.965432622,-20.5824721416,0.0,17.2040894113,0.0,0.0,0.0,1.03539561116,1366.22260382,675.1052735
4.9,2.09298429606E7,4561.85304912,0.0,0.0,872.041966786,-726.046605321,4197.1324622,0.0124881454116,0.0,32.1858846261,89.99999999959013,0.012488146471425494,-5.2025675956907957E-17,0.0,-0.004178073999995741,0.0,43562.79631926,1100.21246669,0.00210003218335,1816.5686222,503.705750528,-20.404810395,0.0,16.9811526333,0.0,0.0,0.0,1.03136898706,1352.00162784,672.306190533
5.0,2.0929915302E7,4648.97074703,0.0,0.0,869.99656895,-721.167302742,4269.49296853,0.0127265875022,0.0,32.1856616647,89.99999999959013,0.012726588583665273,-5.2802178631488956E-17,0.0,-0.004178073999995741,0.0,43270.038164519996,1099.93025283,0.00209553423195,1811.78965308,503.447811663,-20.2294217633,0.0,16.7612194215,0.0,0.0,0.0,1.02736856399,1337.97378396,669.526699134
5.1,2.09299871561E7,4735.8849753,0.0,0.0,867.968704759,-716.309825081,4341.36663838,0.0129644712483,0.0,32.1854402055,89.99999999959013,0.012964472351398488,-5.280217868064873E-17,0.0,-0.004178073999995741,0.0,42978.58950486,1099.64993767,0.00209106654246,1807.04283653,503.191608192,-20.0562696928,0.0,16.5442399463,0.0,0.0,0.0,1.02339408626,1324.13593437,666.766600815
5.2,2.09300585254E7,4822.59747188,0.0,0.0,865.958151556,-711.473879674,4412.75563958,0.0132018014285,0.0,32.1852202418,89.99999999959013,0.013201802553265037,-5.3578681358953965E-17,0.0,-0.004178073999995741,0.0,42688.43278044,1099.37151278,0.00208662898013,1802.32802939,502.937132388,-19.8853183861,0.0,16.3301653907,0.0,0.0,0.0,1.01944530325,1310.48500582,664.025700875
5.3,2.09301294117E7,4909.10995268,0.0,0.0,863.964690243,-706.659178683,4483.66211092,0.0134385827609,0.0,32.185001767,89.99999999959013,0.01343858390728588,-5.435518403955102E-17,0.0,-0.004178073999995741,0.0,42399.550720980005,1099.09496981,0.00208222141199,1797.64509039,502.684376628,-19.7165327835,0.0,16.1189479252,0.0,0.0,0.0,1.01552196926,1297.01798799,661.303808327
5.4,2.09301998173E7,4995.4241119,0.0,0.0,861.988105202,-701.865438999,4554.08816263,0.0136748199039,0.0,32.1847847745,89.99999999959013,0.013674821071894378,-5.590818935238749E-17,0.0,-0.004178073999995741,0.0,42111.92633994,1098.82030053,0.00207784370689,1792.99388017,502.433333388,-19.5498785453,0.0,15.9105406837,0.0,0.0,0.0,1.01162384349,1283.73193201,658.600735823
5.5,2.09302697443E7,5081.54162242,0.0,0.0,860.02818423,-697.092382148,4624.0358769,0.0139105174573,0.0,32.1845692579,89.99999999959013,0.013910518646852998,-5.590818940773521E-17,0.0,-0.004178073999995741,0.0,41825.54292888,1098.54749681,0.0020734957354,1788.37426122,502.183995248,-19.3853220337,0.0,15.7048977397,0.0,0.0,0.0,1.00775068988,1270.62394891,655.916299586
5.6,2.09303391947E7,5167.46413607,0.0,0.0,858.084718463,-692.339734197,4693.50730827,0.014145679963,0.0,32.1843552109,89.99999999959013,0.014145681174284665,-5.590818946394238E-17,0.0,-0.004178073999995741,0.0,41540.38405182,1098.27655065,0.00206917736979,1783.78609784,501.936354883,-19.222830296,0.0,15.5019740836,0.0,0.0,0.0,1.00390227705,1257.6912082,653.250319342
5.7,2.09304081706E7,5253.19328402,0.0,0.0,856.157502313,-687.607225666,4762.50448411,0.0143803119064,0.0,32.184142627,89.99999999959013,0.014380313139245707,-5.590818952095168E-17,0.0,-0.004178073999995741,0.0,41256.433539959995,1098.00745414,0.00206488848405,1779.22925614,501.690405066,-19.0623710482,0.0,15.3017256,0.0,0.0,0.0,1.00007837824,1244.93093645,650.602618253
5.8,2.09304766738E7,5338.73067707,0.0,0.0,854.246333398,-682.894591436,4831.02940507,0.0146144177166,0.0,32.1839315001,89.99999999959013,0.014614418971100947,-5.746119484461705E-17,0.0,-0.004178073999995741,0.0,40973.675486160006,1097.74019947,0.00206062895383,1774.70360398,501.446138666,-18.9039126585,0.0,15.1041090462,0.0,0.0,0.0,0.996278771164,1232.34041589,647.973022855
5.9,2.09305447065E7,5424.07790598,0.0,0.0,852.351012482,-678.201570666,4899.08404551,0.0148480017679,0.0,32.1837218241,89.99999999959013,0.014848003044039371,-5.901420017292339E-17,0.0,-0.004178073999995741,0.0,40692.094239959995,1097.47477895,0.00205639865638,1770.20901098,501.203548644,-18.7474241321,0.0,14.9090820312,0.0,0.0,0.0,0.992503237981,1219.91698311,645.361362987
6.0,2.09306122706E7,5509.23654177,0.0,0.0,850.471343405,-673.527906708,4966.67035391,0.0150810683802,0.0,32.183513593,89.99999999959013,0.01508106967793358,-6.056720550466747E-17,0.0,-0.004178073999995741,0.0,40411.67440248,1097.21118498,0.0020521974706,1765.74534845,500.962628056,-18.5928750955,0.0,14.7166029951,0.0,0.0,0.0,0.988751565188,1207.65802775,642.767471739
6.1,2.0930679368E7,5594.20813602,0.0,0.0,848.607133029,-668.873347024,5033.79025328,0.0153136218201,0.0,32.1833068006,89.99999999959013,0.01531362313948568,-5.901420029897411E-17,0.0,-0.004178073999995741,0.0,40132.40082144,1096.94941005,0.00204802527695,1761.31248939,500.723370047,-18.4402357824,0.0,14.5266311891,0.0,0.0,0.0,0.985023543547,1195.56099123,640.191185385
6.2,2.09307460005E7,5678.99422122,0.0,0.0,846.758191172,-664.237643108,5100.44564159,0.0155456663017,0.0,32.1831014413,89.99999999959013,0.015545667642742955,-5.901420036314537E-17,0.0,-0.004178073999995741,0.0,39854.258586480006,1096.68944676,0.00204388195745,1756.91030844,500.48576785,-18.2894770184,0.0,14.3391266565,0.0,0.0,0.0,0.981318968005,1183.62336552,637.632343326
6.3,2.09308121702E7,5763.59631096,0.0,0.0,844.924330552,-659.620550405,5166.63839215,0.0157772059872,0.0,32.1828975091,89.99999999959013,0.01577720734984272,-6.056720570291087E-17,0.0,-0.004178073999995741,0.0,39577.2330243,1096.43128782,0.00203976739566,1752.53868188,500.249814788,-18.140570208,0.0,14.1540502134,0.0,0.0,0.0,0.977637637624,1171.842692,635.090788034
6.4,2.09308778787E7,5848.01590033,0.0,0.0,843.105366729,-655.021828237,5232.37035403,0.016008244988,0.0,32.1826949983,89.99999999959013,0.016008246372215523,-6.056720577051989E-17,0.0,-0.004178073999995741,0.0,39301.30969422,1096.174926,0.00203568147663,1748.1974876,500.015504271,-17.9934873202,0.0,13.9713634307,0.0,0.0,0.0,0.973979355501,1160.21656021,632.566364992
6.5,2.0930943128E7,5932.25446613,0.0,0.0,841.301118048,-650.441239728,5297.6433524,0.0162387873651,0.0,32.1824939033,89.99999999959013,0.016238788770928915,-6.367321639504693E-17,0.0,-0.004178073999995741,0.0,39026.474383680004,1095.92035418,0.00203162408691,1743.88660506,499.782829791,-17.8482008758,0.0,13.7910286163,0.0,0.0,0.0,0.970343928699,1148.74260681,630.058922643
6.6,2.09310079198E7,6016.31346715,0.0,0.0,839.511405586,-645.878551731,5362.45918893,0.0164688371302,0.0,32.1822942184,89.99999999959013,0.01646883855766149,-6.367321646838552E-17,0.0,-0.004178073999995741,0.0,38752.71310386,1095.66756535,0.00202759511452,1739.60591526,499.551784927,-17.7046839345,0.0,13.6130087975,0.0,0.0,0.0,0.966731168178,1137.41851444,627.568312337
6.7,2.0931072256E7,6100.19434448,0.0,0.0,837.736053099,-641.333534757,5426.81964217,0.0166983982463,0.0,32.1820959382,89.99999999959013,0.016698399695390432,-6.677922710494466E-17,0.0,-0.004178073999995741,0.0,38480.01208542001,1095.41655256,0.00202359444889,1735.35530074,499.322363338,-17.562910082,0.0,13.4372677044,0.0,0.0,0.0,0.963140888722,1126.24201066,625.094388272
6.8,2.09311361383E7,6183.89852171,0.0,0.0,835.974886966,-636.805962904,5490.7264679,0.0169274746283,0.0,32.1818990571,89.99999999959013,0.016927476099079065,-6.522622189982426E-17,0.0,-0.004178073999995741,0.0,38208.35777424,1095.16730897,0.00201962198089,1731.13464555,499.094558766,-17.4228534184,0.0,13.2637697537,0.0,0.0,0.0,0.959572908878,1115.2108669,622.637007451
6.9,2.09311995684E7,6267.42740528,0.0,0.0,834.227736142,-632.295613794,5554.18139948,0.0171560701441,0.0,32.1817035699,89.99999999959013,0.017156071636478972,-6.833223254784256E-17,0.0,-0.004178073999995741,0.0,37937.73682764,1094.91982782,0.00201567760277,1726.9438352,498.868365033,-17.284488546,0.0,13.092480032,0.0,0.0,0.0,0.956027050882,1104.32289749,620.196029628
7.0,2.0931262548E7,6350.78238462,0.0,0.0,832.494432106,-627.8022685,5617.18614821,0.0173841886147,0.0,32.1815094711,89.99999999959013,0.01738419012876029,-6.833223262977553E-17,0.0,-0.004178073999995741,0.0,37668.13611,1094.67410242,0.00201176120815,1722.78275668,498.643776037,-17.1477905577,0.0,12.9233642811,0.0,0.0,0.0,0.952503140603,1093.57595865,617.771317259
7.1,2.09313250789E7,6433.96483252,0.0,0.0,830.774808815,-623.325711487,5679.74240366,0.0176118338156,0.0,32.1813167556,89.99999999959013,0.017611835351256523,-6.988523800162666E-17,0.0,-0.004178073999995741,0.0,37399.542689220005,1094.4301262,0.00200787269201,1718.6512984,498.420785757,-17.0127350263,0.0,12.7563888825,0.0,0.0,0.0,0.949001007474,1082.96794752,615.362735455
7.2,2.09313871626E7,6516.97610529,0.0,0.0,829.068702651,-618.865730547,5741.85183403,0.0178390094767,0.0,32.1811254182,89.99999999959013,0.0178390110340375,-6.988523808757033E-17,0.0,-0.004178073999995741,0.0,37131.94383282,1094.18789265,0.00200401195066,1714.54935018,498.199388246,-16.8792979932,0.0,12.5915208428,0.0,0.0,0.0,0.945520484434,1072.49680126,612.970151935
7.3,2.09314488009E7,6599.817543,0.0,0.0,827.37595238,-614.422116735,5803.51608644,0.0180657192837,0.0,32.1809354538,89.99999999959013,0.01806572086265425,-7.143824346686991E-17,0.0,-0.004178073999995741,0.0,36865.3270041,1093.94739534,0.00200017888171,1710.47680325,497.979577632,-16.7474559575,0.0,12.4287277792,0.0,0.0,0.0,0.942061407868,1062.16049615,610.593436982
7.4,2.09315099954E7,6682.4904698,0.0,0.0,825.696399105,-609.994664314,5864.7367873,0.0182919668783,0.0,32.1807468573,89.99999999959013,0.018291968478826512,-7.143824355625133E-17,0.0,-0.004178073999995741,0.0,36599.679858840005,1093.70862793,0.00199637338405,1706.43355019,497.761348117,-16.6171858666,0.0,12.2679779057,0.0,0.0,0.0,0.938623617545,1051.95704668,608.232463394
7.5,2.09315707476E7,6764.99619404,0.0,0.0,824.02988622,-605.58317069,5925.51554259,0.0185177558587,0.0,32.1805596237,89.99999999959013,0.018517757480901127,-7.454425423979301E-17,0.0,-0.004178073999995741,0.0,36334.990241399995,1093.47158415,0.00199259535788,1702.41948493,497.544693978,-16.4884651052,0.0,12.1092400196,0.0,0.0,0.0,0.935206956563,1041.88450469,605.887106446
7.6,2.09316310593E7,6847.33600857,0.0,0.0,822.376259366,-601.187436358,5985.85393818,0.0187430897809,0.0,32.1803737481,89.99999999959013,0.018743091424711467,-7.299124903639147E-17,0.0,-0.004178073999995741,0.0,36071.246181480004,1093.23625783,0.00198884470459,1698.43450273,497.329609561,-16.361271486,0.0,11.9524834882,0.0,0.0,0.0,0.931811271294,1031.94095858,603.557243844
7.7,2.09316909318E7,6929.51119095,0.0,0.0,820.735366394,-596.807264845,6045.75354016,0.0189679721585,0.0,32.1801892257,89.99999999959013,0.01896797382392121,-7.9203270333574E-17,0.0,-0.004178073999995741,0.0,35808.4358907,1093.00264285,0.00198512132685,1694.47850017,497.116089284,-16.2355832401,0.0,11.797678236,0.0,0.0,0.0,0.928436411324,1022.12453244,601.242755683
7.8,2.09317503669E7,7011.52300365,0.0,0.0,819.107057315,-592.442462655,6105.2158951,0.0191924064639,0.0,32.1800060516,89.99999999959013,0.019192408150998378,-8.07562757398026E-17,0.0,-0.004178073999995741,0.0,35546.547759299996,1092.77073318,0.00198142512853,1690.55137511,496.904127633,-16.1113790074,0.0,11.6447947319,0.0,0.0,0.0,0.925082229405,1012.43338531,598.943524407
7.9,2.09318093659E7,7093.37269426,0.0,0.0,817.491184268,-588.092839214,6164.24253039,0.0194163961286,0.0,32.1798242212,89.99999999959013,0.019416397837272604,-8.230928115061486E-17,0.0,-0.004178073999995741,0.0,35285.570352840004,1092.54052286,0.00197775601467,1686.65302666,496.693719163,-15.9886378282,0.0,11.4938039773,0.0,0.0,0.0,0.921748581398,1002.86571037,596.659434771
8.0,2.09318679305E7,7175.06149574,0.0,0.0,815.887601473,-583.75820682,6222.8349545,0.0196399445437,0.0,32.1796437297,89.99999999959013,0.019639946274023785,-8.38622865671567E-17,0.0,-0.004178073999995741,0.0,35025.4924092,1092.31200602,0.00197411389151,1682.78335521,496.484858499,-15.8673391337,0.0,11.3446774942,0.0,0.0,0.0,0.918435326223,993.419734217,594.390373798
8.1,2.09319260621E7,7256.59062659,0.0,0.0,814.296165198,-579.438380589,6280.99465724,0.0198630550608,0.0,32.1794645724,89.99999999959013,0.019863056812768544,-8.696829729710797E-17,0.0,-0.004178073999995741,0.0,34766.30283534,1092.08517683,0.00197049866644,1678.94226236,496.277540329,-15.7474627379,0.0,11.1973873132,0.0,0.0,0.0,0.915142325809,984.093716106,592.136230742
8.2,2.09319837622E7,7337.96129104,0.0,0.0,812.716733716,-575.133178406,6338.72311013,0.0200857309924,0.0,32.179286745,89.99999999959013,0.020085732765947776,-8.696829741513726E-17,0.0,-0.004178073999995741,0.0,34507.990704359996,1091.86002957,0.001966910248,1675.12965093,496.071759408,-15.628988829,0.0,11.0519059629,0.0,0.0,0.0,0.911869445041,974.88594726,589.896897052
8.3,2.09320410322E7,7419.17467931,0.0,0.0,811.149167271,-570.842420875,6396.02176656,0.0203079756121,0.0,32.1791102427,89.99999999959013,0.020307977407270448,-8.852130284714896E-17,0.0,-0.004178073999995741,0.0,34250.5452525,1091.63655856,0.00196334854584,1671.34542492,495.867510554,-15.5118979614,0.0,10.9082064583,0.0,0.0,0.0,0.908616551717,965.794750167,587.672266334
8.4,2.09320978737E7,7500.23196773,0.0,0.0,809.593328044,-566.565931274,6452.89206214,0.0205297921557,0.0,32.1789350612,89.99999999959013,0.020529793972572995,-8.852130296918898E-17,0.0,-0.004178073999995741,0.0,33993.95587644,1091.4147582,0.00195981347073,1667.58948953,495.664788651,-15.3961710475,0.0,10.7662622901,0.0,0.0,0.0,0.905383516494,956.818477903,585.462234317
8.5,2.09321542879E7,7581.13431898,0.0,0.0,808.049080109,-562.303535502,6509.33541495,0.0207511838215,0.0,32.1787611961,89.99999999959013,0.020751185659933943,-8.85213030923749E-17,0.0,-0.004178073999995741,0.0,33738.21213012,1091.19462297,0.0019563049345,1663.8617511,495.463588644,-15.2817893502,0.0,10.6260474147,0.0,0.0,0.0,0.902170212847,947.955513472,583.266698812
8.6,2.09322102763E7,7661.88288227,0.0,0.0,806.516289407,-558.05506204,6565.35322575,0.0209721537706,0.0,32.178588643,89.99999999959013,0.020972155630647926,-8.852130321670674E-17,0.0,-0.004178073999995741,0.0,33483.3037224,1090.97596364,0.00195283980276,1660.18538512,495.263910017,-15.1688661568,0.0,10.487627287,0.0,0.0,0.0,0.898976668438,939.212422498,581.085559686
8.7,2.09322658403E7,7742.47878982,0.0,0.0,804.994716789,-553.820268182,6620.94687579,0.0211927051176,0.0,32.1784173977,89.99999999959013,0.02119270699925622,-8.85213033421845E-17,0.0,-0.004178073999995741,0.0,33229.216090919996,1090.75636137,0.00194964064524,1656.86590145,495.065806671,-15.0590969938,0.0,10.3521531764,0.0,0.0,0.0,0.895804623747,930.693504925,578.918641877
8.8,2.09323209812E7,7822.92314763,0.0,0.0,803.484143525,-549.598927625,6676.11772051,0.0214128409052,0.0,32.1782474559,89.99999999959013,0.021412842808508505,-9.007430879253085E-17,0.0,-0.004178073999995741,0.0,32975.9356575,1090.53842924,0.0019464658182,1653.57166338,494.869209956,-14.9505745206,0.0,10.2182869218,0.0,0.0,0.0,0.892651698042,922.28003021,576.765786069
8.9,2.09323757004E7,7903.21704625,0.0,0.0,801.984445008,-545.390880632,6730.86709721,0.0216325641336,0.0,32.1780788134,89.99999999959013,0.021632566058640963,-9.007430892259227E-17,0.0,-0.004178073999995741,0.0,32723.45283792,1090.32216196,0.00194331524471,1650.30259107,494.674115107,-14.8432821993,0.0,10.0860053032,0.0,0.0,0.0,0.889517781107,913.970564581,574.626901513
9.0,2.09324299993E7,7983.36156387,0.0,0.0,800.495498608,-541.195969998,6785.19632737,0.0218518777693,0.0,32.1779114663,89.99999999959013,0.021851879715913403,-9.162731438153298E-17,0.0,-0.004178073999995741,0.0,32471.75819988,1090.10755431,0.0019401888487,1647.05860561,494.480517416,-14.737203799,0.0,9.95528550132,0.0,0.0,0.0,0.886402765575,905.763700304,572.501899541
9.1,2.0932483879E7,8063.35776654,0.0,0.0,799.017183308,-537.014040776,6839.10671686,0.0220707847452,0.0,32.1777454103,89.99999999959013,0.02207078671341137,-9.16273145156051E-17,0.0,-0.004178073999995741,0.0,32220.84244656,1089.89460114,0.00193708655504,1643.83962902,494.288412228,-14.6323233777,0.0,9.82610508097,0.0,0.0,0.0,0.883306546513,897.658054377,570.390693295
9.2,2.09325373409E7,8143.2067083,0.0,0.0,797.54937968,-532.84494024,6892.59955617,0.0222892879612,0.0,32.1775806416,89.99999999959013,0.022289289951103446,-9.47333253171761E-17,0.0,-0.004178073999995741,0.0,31970.6964144,1089.68329735,0.00193400828947,1640.64558426,494.097794946,-14.528625276,0.0,9.69844198272,0.0,0.0,0.0,0.880229021389,889.652268027,568.293197699
9.3,2.09325903863E7,8222.90943135,0.0,0.0,796.091969852,-528.688517852,6945.67612062,0.0225073902849,0.0,32.1774171561,89.99999999959013,0.022507392296414217,-9.318032012294189E-17,0.0,-0.004178073999995741,0.0,31721.311071120002,1089.4736379,0.00193095397858,1637.47639517,493.908661024,-14.4260941111,0.0,9.57227451495,0.0,0.0,0.0,0.877170090029,881.745006208,566.209329431
9.4,2.09326430165E7,8302.46696619,0.0,0.0,794.644837484,-524.544625219,6998.33767059,0.0227250945516,0.0,32.17725495,89.99999999959013,0.022725096584739916,-9.628633093826387E-17,0.0,-0.004178073999995741,0.0,31472.67751314,1089.26561781,0.00192792354986,1634.3319865,493.721005973,-14.3247147716,0.0,9.44758134616,0.0,0.0,0.0,0.874129654588,873.934957115,564.139006895
9.5,2.09326952326E7,8381.8803318,0.0,0.0,793.207867738,-520.413116064,7050.58545171,0.022942403565,0.0,32.1770940194,89.99999999959013,0.02294240561973493,-9.628633108379516E-17,0.0,-0.004178073999995741,0.0,31224.786963839997,1089.05923216,0.00192491693162,1631.21228387,493.534825352,-14.2244724117,0.0,9.32434149732,0.0,0.0,0.0,0.871107619505,866.220831709,562.082150194
9.6,2.0932747036E7,8461.15053576,0.0,0.0,791.780947255,-516.293846184,7102.42069512,0.0231593200973,0.0,32.1769343604,89.99999999959013,0.023159322173655544,-9.939234191515994E-17,0.0,-0.004178073999995741,0.0,30977.63077104,1088.85447609,0.00192193405303,1628.11721376,493.350114774,-14.1253524456,0.0,9.20253433457,0.0,0.0,0.0,0.868103891474,858.601363253,560.038681101
9.7,2.09327984278E7,8540.2785744,0.0,0.0,790.363964125,-512.186673425,7153.84461761,0.0233758468901,0.0,32.1767759693,89.99999999959013,0.023375848988104814,-1.0249835275741095E-16,0.0,-0.004178073999995741,0.0,30731.2004055,1088.65134479,0.00191897484405,1625.04670354,493.166869905,-14.0273405426,0.0,9.08213956195,0.0,0.0,0.0,0.865118379406,851.075306865,558.008523038
9.8,2.09328494092E7,8619.26543295,0.0,0.0,788.956807868,-508.091457639,7204.85842187,0.0235919866544,0.0,32.1766188424,89.99999999959013,0.02359198877408984,-1.0405135826276123E-16,0.0,-0.004178073999995741,0.0,30485.48745834,1088.44983352,0.00191603923547,1622.00068137,492.985086458,-13.9304226214,0.0,8.96313721437,0.0,0.0,0.0,0.862150994397,843.641439069,555.991601044
9.9,2.09328999815E7,8698.11208569,0.0,0.0,787.5593694,-504.008060659,7255.46329667,0.0238077420711,0.0,32.1764629759,89.99999999959013,0.02380774421236555,-1.0560436377441407E-16,0.0,-0.004178073999995741,0.0,30240.48363954,1088.24993757,0.0019131271589,1618.97907628,492.804760197,-13.8345848458,0.0,8.84550765074,0.0,0.0,0.0,0.859201649689,836.298557371,553.987841755
10.0,2.09329501457E7,8776.81949607,0.0,0.0,786.171541019,-499.936346261,7305.66041707,0.0240231157913,0.0,32.1763083662,89.99999999959013,0.02402311795417956,-1.0715736929236943E-16,0.0,-0.004178073999995741,0.0,29996.18077566,1088.0516523,0.00191023854671,1615.98181812,492.625886935,-13.7398136189,0.0,8.72923154727,0.0,0.0,0.0,0.856270260645,829.045479836,551.997173375
10.1,2.09329999032E7,8855.38861686,0.0,0.0,784.793216373,-495.876180139,7355.45094458,0.0242381104368,0.0,32.1761550098,89.99999999959013,0.02423811262138673,-1.0715736946196496E-16,0.0,-0.004178073999995741,0.0,29752.57080834,1087.85497313,0.00190737333205,1613.00883751,492.448462532,-13.6460955791,0.0,8.61428989086,0.0,0.0,0.0,0.85335674471,821.881044679,550.019525653
10.2,2.09330492549E7,8933.82039029,0.0,0.0,783.424290441,-491.827429867,7404.83602741,0.0244527286006,0.0,32.1760029029,89.99999999959013,0.02445273080673568,-1.0871037498908764E-16,0.0,-0.004178073999995741,0.0,29509.645792019997,1087.65989552,0.00190453144887,1610.06006592,492.272482899,-13.5534175947,0.0,8.50066397277,0.0,0.0,0.0,0.850461021379,814.804109859,548.054829861
10.3,2.09330982022E7,9012.11574815,0.0,0.0,782.064659508,-487.789964874,7453.81680059,0.0246669728467,0.0,32.1758520422,89.99999999959013,0.02466697507449902,-1.0871037516326681E-16,0.0,-0.004178073999995741,0.0,29267.39789244,1087.46641499,0.00190171283184,1607.13543556,492.097943989,-13.4617667601,0.0,8.38833538228,0.0,0.0,0.0,0.847583012169,807.813552698,546.103018766
10.4,2.0933146746E7,9090.27561195,0.0,0.0,780.714221145,-483.763656414,7502.3943862,0.0248808457112,0.0,32.1757024242,89.99999999959013,0.024880847960645245,-1.0871037533916483E-16,0.0,-0.004178073999995741,0.0,29025.81938484,1087.2745271,0.00189891741638,1604.23487943,491.924841804,-13.3711303905,0.0,8.27728600066,0.0,0.0,0.0,0.844722640585,800.908269488,544.164026612
10.5,2.09331948874E7,9168.30089303,0.0,0.0,779.372874183,-479.748377536,7550.56989353,0.0250943497021,0.0,32.1755540453,89.99999999959013,0.025094351973125224,-1.0871037551563585E-16,0.0,-0.004178073999995741,0.0,28784.902652160003,1087.08422747,0.00189614513868,1601.3583313,491.753172392,-13.2814960181,0.0,8.16749799513,0.0,0.0,0.0,0.84187983209,794.087175125,542.237789091
10.6,2.09332426277E7,9246.19249272,0.0,0.0,778.040518696,-475.744003055,7598.34441926,0.0253074872999,0.0,32.1754069023,89.99999999959013,0.025307489592559722,-1.1026338106052022E-16,0.0,-0.004178073999995741,0.0,28544.6401833,1086.89551178,0.0018933959356,1598.50572569,491.582931844,-13.1928513875,0.0,8.05895381307,0.0,0.0,0.0,0.839054514074,787.349202742,540.324243326
10.7,2.09332899679E7,9323.9513024,0.0,0.0,776.717055977,-471.750409526,7645.71904764,0.0255202609578,0.0,32.1752609916,89.99999999959013,0.025520263272067543,-1.1026338124214785E-16,0.0,-0.004178073999995741,0.0,28305.02457156,1086.70837573,0.00189066974478,1595.67699785,491.414116298,-13.1051844517,0.0,7.9516361763,0.0,0.0,0.0,0.836246615827,780.693303355,538.423327846
10.8,2.09333369089E7,9401.57820367,0.0,0.0,775.402388518,-467.767475216,7692.69485068,0.0257326731021,0.0,32.1751163101,89.99999999959013,0.02573267543806765,-1.0871037605307026E-16,0.0,-0.004178073999995741,0.0,28066.04851296,1086.52281509,0.00188796650451,1592.87208378,491.246721932,-13.0184833681,0.0,7.84552807551,0.0,0.0,0.0,0.833456068505,774.118445512,536.534982564
10.9,2.0933383452E7,9479.07406847,0.0,0.0,774.096419991,-463.795080078,7739.27288826,0.0259447261327,0.0,32.1749728543,89.99999999959013,0.025944728490279186,-1.1026338160884084E-16,0.0,-0.004178073999995741,0.0,27827.70480468,1086.33882568,0.0018852861538,1590.09092019,491.08074497,-12.9327364943,0.0,7.7406127648,0.0,0.0,0.0,0.830682805105,767.623614956,534.659148757
11.0,2.09334295982E7,9556.43975914,0.0,0.0,772.799055226,-459.833105723,7785.45420838,0.026156422423,0.0,32.1748306212,89.99999999959013,0.026156424802179806,-1.1026338179447917E-16,0.0,-0.004178073999995741,0.0,27589.986343380002,1086.15640336,0.00188262863234,1587.33344451,490.916181678,-12.8479323841,0.0,7.63687375641,0.0,0.0,0.0,0.827926760434,761.207814293,532.795769043
11.1,2.09334753484E7,9633.67612862,0.0,0.0,771.51020019,-455.881435399,7831.23984727,0.0263677643206,0.0,32.1746896073,89.99999999959013,0.02636776672146408,-1.1026338198069044E-16,0.0,-0.004178073999995741,0.0,27352.88612394,1085.97554403,0.00187999388051,1584.59959486,490.753028363,-12.7640597842,0.0,7.53429481546,0.0,0.0,0.0,0.825187871083,754.870062666,530.944787361
11.2,2.09335207038E7,9710.7840205,0.0,0.0,770.229761975,-451.939953959,7876.63082955,0.0265787541475,0.0,32.1745498097,89.99999999959013,0.02657875656998618,-1.149223983162596E-16,0.0,-0.004178073999995741,0.0,27116.397237539997,1085.79624364,0.00187738183935,1581.88931006,490.591281375,-12.68110763,0.0,7.43285995487,0.0,0.0,0.0,0.822466075394,748.609395441,529.106148951
11.3,2.09335656653E7,9787.76426914,0.0,0.0,768.95764877,-448.008547845,7921.62816842,0.0267893942003,0.0,32.174411225,89.99999999959013,0.02678939664433283,-1.1492239851278414E-16,0.0,-0.004178073999995741,0.0,26880.5128707,1085.6184982,0.00187479245054,1579.20252961,490.430937101,-12.5990650422,0.0,7.33255343043,0.0,0.0,0.0,0.81976131344,742.424863894,527.279800333
11.4,2.09336102339E7,9864.6176998,0.0,0.0,767.69376985,-444.087105055,7966.23286581,0.0269996867505,0.0,32.1742738503,89.99999999959013,0.026999689216167102,-1.1802840948681544E-16,0.0,-0.004178073999995741,0.0,26645.226303299998,1085.44230375,0.00187222565644,1576.5391937,490.271991973,-12.5179213229,0.0,7.23335973592,0.0,0.0,0.0,0.817073526993,736.315534913,525.465689286
11.5,2.09336544107E7,9941.34512874,0.0,0.0,766.438035553,-440.175515128,8010.44591251,0.027209634045,0.0,32.1741376824,89.99999999959013,0.027209636532400282,-1.1802840969136136E-16,0.0,-0.004178073999995741,0.0,26410.530907679997,1085.26765636,0.00186968140002,1573.89924316,490.11444246,-12.4376659526,0.0,7.13526359831,0.0,0.0,0.0,0.814402659497,730.280490696,523.663764832
11.6,2.09336981965E7,10017.9473633,0.0,0.0,765.190357266,-436.273669113,8054.26828833,0.0274192383064,0.0,32.1740027182,89.99999999959013,0.027419240815306473,-1.2268742607735084E-16,0.0,-0.004178073999995741,0.0,26176.420146779998,1085.09455218,0.0018671596249,1571.28261948,489.95828507,-12.3582885867,0.0,7.03824997319,0.0,0.0,0.0,0.811748656042,724.318828469,521.873977209
11.7,2.09337415925E7,10094.4252021,0.0,0.0,763.950647403,-432.381459554,8097.7009623,0.0276285017327,0.0,32.1738689549,89.99999999959013,0.02762850426332474,-1.2268742629278298E-16,0.0,-0.004178073999995741,0.0,25942.88757324,1084.92298737,0.00186466027533,1568.68926481,489.80351635,-12.2797790518,0.0,6.94230404016,0.0,0.0,0.0,0.809111463341,718.429660198,520.096277862
11.8,2.09337845994E7,10170.7794349,0.0,0.0,762.718819394,-428.498780461,8140.74489274,0.0278374264985,0.0,32.1737363894,89.99999999959013,0.02783742905071532,-1.2268742650936102E-16,0.0,-0.004178073999995741,0.0,25709.92682766,1084.75295815,0.00186218329614,1566.11912192,489.650132885,-12.2021273429,0.0,6.84741119843,0.0,0.0,0.0,0.806491029698,712.612112317,518.330619416
11.9,2.09338272184E7,10247.010843,0.0,0.0,761.494787664,-424.625527293,8183.40102746,0.0280460147545,0.0,32.1736050187,89.99999999959013,0.028046017328361778,-1.242404321287299E-16,0.0,-0.004178073999995741,0.0,25477.53163758,1084.58446078,0.00185972863281,1563.57213422,489.498131298,-12.1253236197,0.0,6.75355706242,0.0,0.0,0.0,0.803887304988,706.865325452,516.576955657
12.0,2.09338694503E7,10323.1201992,0.0,0.0,760.278467616,-420.761596936,8225.67030389,0.0282542686282,0.0,32.17347484,89.99999999959013,0.028254271223656407,-1.2734644315948403E-16,0.0,-0.004178073999995741,0.0,25245.695816159998,1084.41749154,0.00185729623138,1561.04824574,489.347508248,-12.0493582042,0.0,6.66072745756,0.0,0.0,0.0,0.801300240628,701.188454166,514.835241522
12.1,2.0933911296E7,10399.1082679,0.0,0.0,759.069775619,-416.906887679,8267.55364921,0.028462190224,0.0,32.1733458504,89.99999999959013,0.028462192841073184,-1.3045245420227026E-16,0.0,-0.004178073999995741,0.0,25014.413260740002,1084.25204679,0.00185488603851,1558.54740111,489.198260432,-11.974221577,0.0,6.5689084161,0.0,0.0,0.0,0.798729789553,695.58066669,513.10543307
12.2,2.09339527565E7,10474.9758052,0.0,0.0,757.868628988,-413.061299196,8309.05198049,0.0286697816235,0.0,32.173218047,89.99999999959013,0.028669784262167788,-1.335584652582345E-16,0.0,-0.004178073999995741,0.0,24783.67795176,1084.08812289,0.00185249800141,1556.06954558,489.050384581,-11.8999043745,0.0,6.47808617302,0.0,0.0,0.0,0.796175906191,690.041144682,511.387487471
12.3,2.09339938327E7,10550.7235588,0.0,0.0,756.674945972,-409.224732529,8350.16620486,0.0288770448857,0.0,32.1730914271,89.99999999959013,0.028877047546093233,-1.3666447632623088E-16,0.0,-0.004178073999995741,0.0,24553.48395174,1083.92571627,0.00185013206789,1553.61462499,488.903877463,-11.8263973865,0.0,6.38824716208,0.0,0.0,0.0,0.793638546439,684.56908297,509.681362986
12.4,2.09340345255E7,10626.3522687,0.0,0.0,755.488645735,-405.397090061,8390.89721961,0.0290839820475,0.0,32.1729659878,89.99999999959013,0.029083984729485292,-1.3666447657604047E-16,0.0,-0.004178073999995741,0.0,24323.825403659997,1083.76482337,0.00184778818631,1551.18258574,488.758735881,-11.7536915523,0.0,6.29937801193,0.0,0.0,0.0,0.791117667637,679.163689316,507.987018948
12.5,2.09340748357E7,10701.8626664,0.0,0.0,754.309648344,-401.578275503,8431.24591234,0.0292905951235,0.0,32.1728417263,89.99999999959013,0.02929059782715006,-1.4287649850118475E-16,0.0,-0.004178073999995741,0.0,24094.69653018,1083.6054407,0.0018454663056,1548.77337486,488.614956671,-11.6817779589,0.0,6.21146554223,0.0,0.0,0.0,0.788613228546,673.82418418,506.304415746
12.6,2.09341147643E7,10777.2554759,0.0,0.0,753.137874755,-397.768193872,8471.21316106,0.0294968861068,0.0,32.17271864,89.99999999959013,0.029496888832006633,-1.4598250960756928E-16,0.0,-0.004178073999995741,0.0,23866.09163232,1083.44756478,0.00184316637522,1546.38693991,488.472536705,-11.6106478379,0.0,6.12449675999,0.0,0.0,0.0,0.786125189321,668.549800486,504.633514808
12.7,2.09341543121E7,10852.5314129,0.0,0.0,751.973246794,-393.966751474,8510.79983439,0.0297028569686,0.0,32.1725967262,89.99999999959013,0.029702859715488195,-1.4287649903059776E-16,0.0,-0.004178073999995741,0.0,23638.005088439997,1083.29119218,0.0018408883452,1544.02322902,488.331472889,-11.5402925625,0.0,6.03845885587,0.0,0.0,0.0,0.78365351149,663.339783399,502.974278583
12.8,2.093419348E7,10927.6911858,0.0,0.0,750.815687149,-390.173855885,8550.0067916,0.0299085096591,0.0,32.1724759822,89.99999999959013,0.029908512427656596,-1.4598251015130623E-16,0.0,-0.004178073999995741,0.0,23410.4313531,1083.13631951,0.00183863216609,1541.6821909,488.191762159,-11.4707036455,0.0,5.95333920063,0.0,0.0,0.0,0.781198157929,658.193390103,501.326670523
12.9,2.09342322688E7,11002.735495,0.0,0.0,749.66511935,-386.389415933,8588.83488282,0.0301138461073,0.0,32.1723564054,89.99999999959013,0.030113848897431555,-1.4598251042518005E-16,0.0,-0.004178073999995741,0.0,23183.36495598,1082.98294342,0.00183639778896,1539.36377477,488.053401486,-11.4018727361,0.0,5.86912534161,0.0,0.0,0.0,0.778759092837,653.109889582,499.690655067
13.0,2.09342706793E7,11077.6650335,0.0,0.0,748.521467762,-382.613341682,8627.28494909,0.0303188682213,0.0,32.172237993,89.99999999959013,0.03031887103304901,-1.4908852156708798E-16,0.0,-0.004178073999995741,0.0,22956.80050092,1082.83106057,0.00183418516542,1537.06793042,487.916387874,-11.3337916181,0.0,5.78580499931,0.0,0.0,0.0,0.776336281716,648.088562413,498.066197627
13.1,2.09343087125E7,11152.4804865,0.0,0.0,747.384657566,-378.845544413,8665.35782255,0.0305235778886,0.0,32.1721207427,89.99999999959013,0.030523580721946518,-1.5219453272160097E-16,0.0,-0.004178073999995741,0.0,22730.73266478,1082.68066768,0.00183199424758,1534.79460817,487.780718357,-11.2664522066,0.0,5.70336606403,0.0,0.0,0.0,0.773929691346,643.128700555,496.453264566
13.2,2.0934346369E7,11227.1825321,0.0,0.0,746.254614749,-375.085936607,8703.0543265,0.0307279769763,0.0,32.1720046518,89.99999999959013,0.030727979831336252,-1.5530054388929199E-16,0.0,-0.004178073999995741,0.0,22505.15619642,1082.5317615,0.00182982498807,1532.54375885,487.646390002,-11.1998465463,0.0,5.62179659259,0.0,0.0,0.0,0.77153928976,638.22960715,494.851823187
13.3,2.09343836499E7,11301.771841,0.0,0.0,745.131266088,-371.334431932,8740.37527557,0.0309320673314,0.0,32.1718897177,89.99999999959013,0.030932070208033065,-1.5530054418723006E-16,0.0,-0.004178073999995741,0.0,22280.065915919997,1082.38433882,0.00182767734,1530.31533382,487.513399905,-11.1339668088,0.0,5.54108480512,0.0,0.0,0.0,0.769165046227,633.39059632,493.261841711
13.4,2.09344205557E7,11376.2490764,0.0,0.0,744.014539144,-367.590945222,8777.32147579,0.0311358507808,0.0,32.1717759381,89.99999999959013,0.03113585367908477,-1.5840655537612052E-16,0.0,-0.004178073999995741,0.0,22055.45671332,1082.23839644,0.001825551257,1528.10928496,487.381745194,-11.0688052904,0.0,5.46121908188,0.0,0.0,0.0,0.766806931222,628.610992976,491.683289268
13.5,2.09344570874E7,11450.6148945,0.0,0.0,742.90436224,-363.855392465,8813.89372476,0.0313393291318,0.0,32.1716633103,89.99999999959013,0.03133933205171486,-1.5840655568265294E-16,0.0,-0.004178073999995741,0.0,21831.3235479,1082.09393122,0.00182344669316,1525.92556464,487.251423028,-11.0043544098,0.0,5.38218796024,0.0,0.0,0.0,0.764464916408,623.89013263,490.116135875
13.6,2.09344932458E7,11524.8699444,0.0,0.0,741.800664457,-360.127690785,8850.09281172,0.031542504172,0.0,32.171551832,89.99999999959013,0.03154250711349434,-1.5840655599090423E-16,0.0,-0.004178073999995741,0.0,21607.661447100003,1081.95094004,0.00182136360308,1523.76412573,487.122430593,-10.9406067057,0.0,5.30398013156,0.0,0.0,0.0,0.762138974613,619.227361204,488.560352421
13.7,2.09345290315E7,11599.014868,0.0,0.0,740.703375619,-356.407758429,8885.91951767,0.0317453776696,0.0,32.1714415008,89.99999999959013,0.03174538063280016,-1.6461857811658373E-16,0.0,-0.004178073999995741,0.0,21384.46550574,1081.80941981,0.00181930194179,1521.62492161,486.994765107,-10.877554835,0.0,5.22658443834,0.0,0.0,0.0,0.759829079806,614.622034849,487.015910653
13.8,2.09345644455E7,11673.0503004,0.0,0.0,739.612426281,-352.695514749,8921.37461551,0.031947951374,0.0,32.1713323141,89.99999999959013,0.03194795435881518,-1.677245893541756E-16,0.0,-0.004178073999995741,0.0,21161.73088494,1081.66936748,0.00181726166484,1519.50790611,486.868423816,-10.8151915703,0.0,5.14998987124,0.0,0.0,0.0,0.757535207075,610.073519772,485.482783162
13.9,2.09345994884E7,11746.9768696,0.0,0.0,738.527747718,-348.990880191,8956.45887012,0.0321502270153,0.0,32.1712242698,89.99999999959013,0.03215023002175734,-1.677245896853452E-16,0.0,-0.004178073999995741,0.0,20939.45281146,1081.53078003,0.0018152427282,1517.41303358,486.743403994,-10.7535097983,0.0,5.07418556628,0.0,0.0,0.0,0.755257332607,605.581192055,483.960943362
14.0,2.0934634161E7,11820.795197,0.0,0.0,737.449271911,-345.293776278,8991.17303847,0.0323522063051,0.0,32.1711173654,89.99999999959013,0.03235220933316617,-1.677245900182337E-16,0.0,-0.004178073999995741,0.0,20717.62657668,1081.39365448,0.00181324508831,1515.34025881,486.619702943,-10.6925025169,0.0,4.99916080205,0.0,0.0,0.0,0.752995433663,601.144437487,482.450365477
14.1,2.09346684641E7,11894.5058972,0.0,0.0,736.376931542,-341.604125597,9025.51786976,0.0325538909363,0.0,32.1710115985,89.99999999959013,0.03255389398596005,-1.6772459035226808E-16,0.0,-0.004178073999995741,0.0,20496.24753582,1081.25798785,0.00181126870206,1513.28953708,486.497317994,-10.6321628342,0.0,4.92490499699,0.0,0.0,0.0,0.750749488559,596.762651396,480.95102453
14.2,2.09347023984E7,11968.1095779,0.0,0.0,735.310659978,-337.921851783,9059.49410547,0.0327552825834,0.0,32.170906967,89.99999999959013,0.03275528565472275,-1.677245906885943E-16,0.0,-0.004178073999995741,0.0,20275.31110698,1081.12377722,0.00180931352679,1511.26082409,486.376246505,-10.5724839659,0.0,4.85140770672,0.0,0.0,0.0,0.74851947664,592.435238486,479.462896318
14.3,2.09347359646E7,12041.6068404,0.0,0.0,734.25039126,-334.24687951,9093.10247952,0.0329563829029,0.0,32.1708034685,89.99999999959013,0.03295638599581796,-1.708306019708769E-16,0.0,-0.004178073999995741,0.0,20054.812770599998,1080.9910197,0.00180737952025,1509.25407604,486.25648586,-10.5134592334,0.0,4.77865862144,0.0,0.0,0.0,0.746305378261,588.161612677,477.985957408
14.4,2.09347691635E7,12114.9982794,0.0,0.0,733.196060097,-330.579134473,9126.34371835,0.0331571935332,0.0,32.1707011007,89.99999999959013,0.03315719664779037,-1.7083060231637046E-16,0.0,-0.004178073999995741,0.0,19834.748068380002,1080.85971241,0.00180546664064,1507.26924954,486.138033471,-10.4550820621,0.0,4.70664756333,0.0,0.0,0.0,0.744107174767,583.941196945,476.520185112
14.5,2.09348019958E7,12188.284483,0.0,0.0,732.14760185,-326.918543377,9159.21854099,0.0333577160949,0.0,32.1705998615,89.99999999959013,0.03335771923107922,-1.7083060266358285E-16,0.0,-0.004178073999995741,0.0,19615.11260262,1080.72985251,0.0018035748466,1505.30630167,486.020886776,-10.3973459795,0.0,4.63536448409,0.0,0.0,0.0,0.741924848465,579.77342317,475.065557477
14.6,2.09348344622E7,12261.4660331,0.0,0.0,731.104952528,-323.265033926,9191.72765923,0.033557952191,0.0,32.1704997486,89.99999999959013,0.03355795534882042,-1.7393661397623223E-16,0.0,-0.004178073999995741,0.0,19395.90203556,1080.60143719,0.00180170409715,1503.36518992,485.905043238,-10.3402446134,0.0,4.56479946245,0.0,0.0,0.0,0.73975838261,575.657731986,473.622053271
14.7,2.09348665634E7,12334.5435051,0.0,0.0,730.068048771,-319.618534806,9223.87177764,0.033757903407,0.0,32.1704007598,89.99999999959013,0.03375790658644548,-1.7393661433261198E-16,0.0,-0.004178073999995741,0.0,19177.11208836,1080.47446367,0.00179985435175,1501.44587223,485.790500347,-10.2837716901,0.0,4.49494270175,0.0,0.0,0.0,0.737607761375,571.593572632,472.189651963
14.8,2.09348983001E7,12407.517468,0.0,0.0,729.036827846,-315.978975677,9255.65159374,0.0339575713111,0.0,32.170302893,89.99999999959013,0.0339575745122545,-1.7704262566760666E-16,0.0,-0.004178073999995741,0.0,18958.73854062,1080.3489292,0.00179802557027,1499.54830694,485.677255616,-10.2279210323,0.0,4.42578452764,0.0,0.0,0.0,0.735472969838,567.580402808,470.768333714
14.9,2.0934929673E7,12480.3884849,0.0,0.0,728.011227636,-312.346287158,9287.06779806,0.0341569574545,0.0,32.1702061461,89.99999999959013,0.0341569606772442,-1.770426260337267E-16,0.0,-0.004178073999995741,0.0,18740.77722948,1080.22483103,0.00179621771296,1497.67245282,485.565306586,-10.1726865581,0.0,4.35731538567,0.0,0.0,0.0,0.733353993954,563.617688531,469.358079355
15.0,2.09349606828E7,12553.1571123,0.0,0.0,726.991186627,-308.720400816,9318.12107421,0.0343560633714,0.0,32.1701105168,89.99999999959013,0.03435606661573828,-1.770426264015656E-16,0.0,-0.004178073999995741,0.0,18523.22404896,1080.10216648,0.0017944307405,1495.81826906,485.45465082,-10.1180622786,0.0,4.28952583913,0.0,0.0,0.0,0.731250820536,559.704904,467.958870381
15.1,2.09349913301E7,12625.8239008,0.0,0.0,725.976643904,-305.101249156,9348.81209905,0.0345548905791,0.0,32.1700160032,89.99999999959013,0.03455489384510086,-1.770426267711234E-16,0.0,-0.004178073999995741,0.0,18306.07494936,1079.98093288,0.00179266461392,1493.98571524,485.345285906,-10.0640422968,0.0,4.22240656673,0.0,0.0,0.0,0.729163437232,555.841531455,466.570688929
15.2,2.09350216157E7,12698.3893952,0.0,0.0,724.96753914,-301.488765606,9379.14154269,0.0347534405784,0.0,32.1699226031,89.99999999959013,0.034753443866023005,-1.7704262714182708E-16,0.0,-0.004178073999995741,0.0,18089.32593636,1079.86112756,0.00179091929466,1492.17475134,485.237209457,-10.0106208055,0.0,4.15594836049,0.0,0.0,0.0,0.727091832507,552.027061048,465.193517765
15.3,2.09350515401E7,12770.8541338,0.0,0.0,723.963812583,-297.88288451,9409.11006866,0.0349517148537,0.0,32.1698303145,89.99999999959013,0.034951718162923764,-1.7704262751482258E-16,0.0,-0.004178073999995741,0.0,17872.9730706,1079.74274792,0.00178919474455,1490.38533776,485.130419108,-9.95779208609,0.0,4.09014212359,0.0,0.0,0.0,0.725035995616,548.260990712,463.827340271
15.4,2.09350811041E7,12843.2186493,0.0,0.0,722.965405053,-294.283541115,9438.71833396,0.0351497148729,0.0,32.1697391353,89.99999999959013,0.0351497182037783,-1.7704262788896405E-16,0.0,-0.004178073999995741,0.0,17657.0124669,1079.62579135,0.00178749092578,1488.61743525,485.024912518,-9.90555050672,0.0,4.02497886826,0.0,0.0,0.0,0.722995916589,544.542826027,462.47214043
15.5,2.09351103083E7,12915.4834684,0.0,0.0,721.972257932,-290.690671557,9467.96698915,0.035347442088,0.0,32.1696490636,89.99999999959013,0.035347445440461686,-1.7704262826482435E-16,0.0,-0.004178073999995741,0.0,17441.440293419997,1079.5102553,0.0017858078009,1486.87100498,484.920687369,-9.85389052092,0.0,3.96044971372,0.0,0.0,0.0,0.720971586203,540.872080103,461.12790281
15.6,2.09351391534E7,12987.6491121,0.0,0.0,720.984313152,-287.104212857,9496.85667847,0.0355448979347,0.0,32.1695600973,89.99999999959013,0.035544901308863425,-1.801486396708658E-16,0.0,-0.004178073999995741,0.0,17226.25277142,1079.3961372,0.00178414533286,1485.14600847,484.817741365,-9.80280666602,0.0,3.89654588423,0.0,0.0,0.0,0.718962995964,537.248273449,459.794612549
15.7,2.09351676399E7,13059.7160955,0.0,0.0,720.001513191,-283.524102906,9525.38803989,0.0357420838333,0.0,32.1694722344,89.99999999959013,0.03574208722900213,-1.8014864005646642E-16,0.0,-0.004178073999995741,0.0,17011.44617436,1079.28343455,0.00178250348492,1483.44240764,484.716072232,-9.75229356166,0.0,3.83325870704,0.0,0.0,0.0,0.716970138087,533.670933858,458.472255344
15.8,2.09351957686E7,13131.684928,0.0,0.0,719.023801062,-279.950280455,9553.56170522,0.0359390011879,0.0,32.169385473,89.99999999959013,0.035939004605254656,-1.8325465148599915E-16,0.0,-0.004178073999995741,0.0,16797.016827299998,1079.17214485,0.00178088222074,1481.76016476,484.61567772,-9.70234590838,0.0,3.77057961054,0.0,0.0,0.0,0.714993005471,530.139596286,457.16081743
