time,eiPosition_ft_X,eiPosition_ft_Y,eiPosition_ft_Z,eiVelocity_ft_s_X,eiVelocity_ft_s_Y,eiVelocity_ft_s_Z,feVelocity_ft_s_X,feVelocity_ft_s_Y,feVelocity_ft_s_Z,altitudeMsl_ft,longitude_deg,latitude_deg,localGravity_ft_s2,eulerAngle_deg_Yaw,eulerAngle_deg_Pitch,eulerAngle_deg_Roll,bodyAngularRateWrtEi_deg_s_Roll,bodyAngularRateWrtEi_deg_s_Pitch,bodyAngularRateWrtEi_deg_s_Yaw,speedOfSound_ft_s,airDensity_slug_ft3,ambientPressure_lbf_ft2,ambientTemperature_dgR,aero_bodyForce_lbf_X,aero_bodyForce_lbf_Y,aero_bodyForce_lbf_Z,aero_bodyMoment_ftlbf_L,aero_bodyMoment_ftlbf_M,aero_bodyMoment_ftlbf_N,mach,dynamicPressure_lbf_ft2
0.0,2.09256463255E7,0.0,0.0,1000.0,2525.92219455,6.12303176911E-14,6.12303176911E-14,1000.0,-1000.0,0.0,0.0,0.0,32.1988102141,90.0,0.0,0.0,0.0,-0.00417807,0.0,1116.45000305,0.00237689282456,2116.23841715,518.67,-33.0008018002,4.16528678098E-31,33.0008018002,0.0,0.0,0.0,1.26670568186,2376.89282456
0.1,2.09257460002E7,252.427824837,6.11296583395E-15,993.503567201,2522.64037058,6.10293705529E-14,6.10293705529E-14,996.698922676,-993.533997806,99.6763098706,2.73353083227E-4,0.0,32.19850297014271,90.0,2.73353496451E-4,-4.23199767727E-20,0.0,-0.00417807,0.0,1116.06736929,0.00236996791419,2108.62680941,518.31454003,-32.6360711969,1.45721452648E-20,32.5321279642,0.0,0.0,0.0,1.26095342661,2346.88270523
0.2,2.09258450277E7,504.529277667,1.22059478042E-14,987.053654632,2519.39465359,6.08306342503E-14,6.08306342503E-14,993.434170074,-987.114397811,198.70834628,5.45806005407E-4,0.0,32.198197716458544,90.0,5.45806831855E-4,-8.45848363953E-20,0.0,-0.00417807,0.0,1115.68708241,0.00236310312528,2101.08644119,517.961380995,-32.2773954866,2.88244607344E-20,32.0714504583,0.0,0.0,0.0,1.2552502172,2317.38450543
0.3,2.09259434125E7,756.307939172,1.8279165158E-14,980.649470851,2516.18444553,6.0634072195E-14,6.0634072195E-14,990.205141664,-980.740410448,297.100709835,8.17368646728E-4,0.0,32.197894438829294,90.0,8.173698864E-4,-1.26795183831E-19,0.0,-0.00417807,0.0,1115.30912707,0.00235629781753,2093.61648625,517.610506426,-31.924641224,4.27650088946E-20,31.6185920205,0.0,0.0,0.0,1.24959529213,2288.38692899
0.4,2.09260411591E7,1007.76733089,2.43328335244E-14,974.290241908,2513.00916145,6.04396486021E-14,6.04396486021E-14,987.011250111,-974.411263599,394.857923026,0.00108805072448,0.0,32.19759312313703,90.0,0.00108805237738,-1.68951614071E-19,0.0,-0.00417807,0.0,1114.93348818,0.00234955136169,2086.21613305,517.261900129,-31.5776786732,5.64016133618E-20,31.1733803059,0.0,0.0,0.0,1.24398790746,2259.87899351
0.5,2.0926138272E7,1258.91091651,3.03671649929E-14,967.975210863,2509.8682292,6.02473284685E-14,6.02473284685E-14,983.851920909,-968.126202117,491.984432036,0.00135786179664,0.0,32.19729375566412,90.0,0.00135786386276,-2.11054712348E-19,0.0,-0.00417807,0.0,1114.56015092,0.00234286313934,2078.88458435,516.915546186,-31.2363816841,6.97418672204E-20,30.7356477221,0.0,0.0,0.0,1.2384273363,2231.85001994
0.6,2.09262347556E7,1509.74210312,3.63823681911E-14,961.703637319,2506.76108905,6.0057077551E-14,6.0057077551E-14,980.72659203,-961.884487358,588.484608316,0.00162681126533,0.0,32.19699632289319,90.0,0.00162681374467,-2.53105054355E-19,0.0,-0.00417807,0.0,1114.18910074,0.00233623254263,2071.62105695,516.571428945,-30.9006275738,8.27931410127E-20,30.3052312721,0.0,0.0,0.0,1.23291286839,2204.28962248
0.7,2.09263306142E7,1760.26424245,4.23786483594E-14,955.474796965,2503.68719336,5.98688623455E-14,5.98688623455E-14,977.634713576,-955.685396729,684.362750296,0.00189490838018,0.0,32.19670081130714,90.0,0.00189491127275,-2.95103206445E-19,0.0,-0.00417807,0.0,1113.82032331,0.00232965897405,2064.42478131,516.229533017,-30.570297012,9.55625904229E-20,29.8819724025,0.0,0.0,0.0,1.22744380963,2177.18769895
0.8,2.0926425852E7,2010.48063206,4.83562074237E-14,949.287981144,2500.64600623,5.96826500669E-14,5.96826500669E-14,974.575747457,-949.528223252,779.623084893,0.00216216224165,0.0,32.19640720808914,90.0,0.00216216554744,-3.37049725841E-19,0.0,-0.00417807,0.0,1113.45380456,0.00232314184618,2057.29500131,515.889843268,-30.2452739116,1.08057163649E-19,29.4657168578,0.0,0.0,0.0,1.22201948164,2150.5344215
0.9,2.09265204731E7,2260.39451649,5.43152440667E-14,943.142496428,2497.63700321,5.94984086299E-14,5.94984086299E-14,971.54916706,-943.412275144,874.269769114,0.00242858180418,0.0,32.19611550002263,90.0,0.00242858552319,-3.78945160821E-19,0.0,-0.00417807,0.0,1113.08953065,0.00231668058152,2050.23097387,515.552344813,-29.9254453228,1.20283608495E-19,29.0563145406,0.0,0.0,0.0,1.21663922138,2124.32022765
1.0,2.09266144818E7,2510.00908839,6.02559537968E-14,937.037664208,2494.65967097,5.93161066297E-14,5.93161066297E-14,968.554456953,-937.336875404,968.306891521,0.00269417587931,0.0,32.19582567469128,90.0,0.00269418001155,-4.20790050916E-19,0.0,-0.00417807,0.0,1112.72748798,0.00231027461223,2043.23196873,515.217023015,-29.6107013314,1.32248479173E-19,28.6536193764,0.0,0.0,0.0,1.21130238071,2098.53581172
1.1,2.0926707882E7,2759.32748962,6.61785290151E-14,930.972820298,2491.71350701,5.91357133239E-14,5.91357133239E-14,965.591112572,-931.301361423,1061.73847371,0.00295895313874,0.0,32.19553771957902,90.0,0.0029589576842,-4.62584927094E-19,0.0,-0.00417807,0.0,1112.36766318,0.0023039233799,2036.29726814,514.883863474,-29.3009349613,1.43958142848E-19,28.2574891839,0.0,0.0,0.0,1.20600832602,2073.17211653
1.2,2.09268006777E7,3008.35281232,7.20831590808E-14,924.947314553,2488.79801937,5.8957198615E-14,5.8957198615E-14,962.658639941,-925.305084599,1154.5684717,0.00322292211721,0.0,32.195251622270035,90.0,0.0032229270759,-5.04330311936E-19,0.0,-0.00417807,0.0,1112.01004309,0.00229762633541,2029.42616655,514.552852026,-28.9960420801,1.55418785925E-19,27.8677855507,0.0,0.0,0.0,1.20075643783,2048.22032546
1.3,2.09268928728E7,3257.08809997,7.7970030375E-14,918.960510496,2485.91272636,5.8780533033E-14,5.8780533033E-14,959.756555388,-919.347409965,1246.80077734,0.00348609121542,0.0,32.194967370848715,90.0,0.00348609658733,-5.46026719817E-19,0.0,-0.00417807,0.0,1111.65461477,0.00229138293868,2022.6179704,514.223974735,-28.695921309,1.66636420105E-19,27.4843737126,0.0,0.0,0.0,1.19554611047,2023.6718548
1.4,2.09269844711E7,3505.53634835,8.38393263624E-14,913.01178496,2483.05715628,5.86056877194E-14,5.86056877194E-14,956.884385271,-913.427715833,1338.43921969,0.00374846870278,0.0,32.19468495339972,90.0,0.00374847448791,-5.87674657071E-19,0.0,-0.00417807,0.0,1111.30136552,0.00228519265849,2015.87199782,513.897217894,-28.4004739348,1.77616888194E-19,27.1071224378,0.0,0.0,0.0,1.19037675167,1999.51834631
1.5,2.09270754764E7,3753.70050658,8.96912276517E-14,907.100527739,2480.23084714,5.84326344106E-14,5.84326344106E-14,954.04166572,-907.545393447,1429.48756622,0.00401006272015,0.0,32.194404358307914,90.0,0.00401006891851,-6.29274622164E-19,0.0,-0.00417807,0.0,1110.9502828,0.00227905497229,2009.18757839,513.572568011,-28.1096038267,1.88365869695E-19,26.7359039161,0.0,0.0,0.0,1.18524778224,1975.7516602
1.6,2.09271658924E7,4001.58347805,9.55259120546E-14,901.226141253,2477.43334644,5.82613454225E-14,5.82613454225E-14,951.227942376,-901.699846647,1519.9495242,0.00427088128248,0.0,32.194125573858386,90.0,0.00427088789406,-6.7082710585E-19,0.0,-0.00417807,0.0,1110.60135433,0.00227296936603,2002.56405289,513.250011813,-27.8232173548,1.98888886196E-19,26.3705936509,0.0,0.0,0.0,1.18015863576,1952.3638682
1.7,2.09272557228E7,4249.18812136,1.01343554642E-13,895.388040219,2474.66421091,5.80917936357E-14,5.80917936357E-14,948.442770152,-895.89049154,1609.82874191,0.00453093228138,0.0,32.19384858893647,90.0,0.00453093930618,-7.1233259133E-19,0.0,-0.00417807,0.0,1110.25456799,0.00226693533395,1996.00077306,512.929536237,-27.5412233124,2.09191306546E-19,26.0110703562,0.0,0.0,0.0,1.17510875822,1929.34724704
1.8,2.09273449712E7,4496.51725125,1.07144327802E-13,889.585651336,2471.92300627,5.79239524809E-14,5.79239524809E-14,945.685712984,-890.116756188,1699.12880982,0.00479022348762,0.0,32.19357339232767,90.0,0.00479023092565,-7.5379155441E-19,0.0,-0.00417807,0.0,1109.90991188,0.00226095237845,1989.49710137,512.611128428,-27.2635328411,2.1927835184E-19,25.6572158566,0.0,0.0,0.0,1.17009760774,1906.69427205
1.9,2.09274336411E7,4743.57363945,1.12928401291E-13,883.81841298,2469.209307,5.77577959244E-14,5.77577959244E-14,942.956343609,-884.378080302,1787.85326177,0.0050487625536,0.0,32.19329997311775,90.0,0.00504877040486,-7.95204463645E-19,0.0,-0.00417807,0.0,1109.56737427,0.00225502000987,1983.0524108,512.294775732,-26.990059358,2.2915510022E-19,25.3089149917,0.0,0.0,0.0,1.16512465425,1884.39761103
2.0,2.0927521736E7,4990.36001559,1.18695942289E-13,878.085774904,2466.52269611,5.75932984548E-14,5.75932984548E-14,940.254243332,-878.673914942,1876.0055762,0.00530655701572,0.0,32.19302832049264,90.0,0.0053065652802,-8.36571780486E-19,0.0,-0.00417807,0.0,1109.22694363,0.00224913774639,1976.66608457,511.980465694,-26.7207184861,2.38826491492E-19,24.9660555232,0.0,0.0,0.0,1.16018937919,1862.45011838
2.1,2.09276092594E7,5236.87906799,1.24447115451E-13,872.38719795,2463.86276494,5.74304350697E-14,5.74304350697E-14,937.579001816,-873.003722235,1963.58917717,0.00556361429667,0.0,32.192758423838484,90.0,0.00556362297438,-8.77893959427E-19,0.0,-0.00417807,0.0,1108.88860863,0.00224330511379,1970.33751602,511.668186054,-26.455427987,2.48297331581E-19,24.6285280455,0.0,0.0,0.0,1.15529127526,1840.84482938
2.2,2.09276962146E7,5483.13344454,1.30182082955E-13,866.722153775,2461.22911292,5.72691812627E-14,5.72691812627E-14,934.930216863,-867.366975092,2050.60743549,0.00581994170777,0.0,32.19249027264164,90.0,0.0058199507987,-9.19171448135E-19,0.0,-0.00417807,0.0,1108.55235809,0.00223752164537,1964.0661083,511.357924743,-26.194107696,2.57572296807E-19,24.2962258998,0.0,0.0,0.0,1.1504298461,1819.57495472
2.3,2.09277826049E7,5729.12575345,1.35901004555E-13,861.090124573,2458.62134742,5.71095130109E-14,5.71095130109E-14,932.307494215,-861.763156942,2137.0636698,0.00607554645108,0.0,32.192223856788644,90.0,0.00607555595524,-9.60404687595E-19,0.0,-0.00417807,0.0,1108.21818103,0.00223178688173,1957.85127422,511.049669878,-25.9366794595,2.66655938032E-19,23.9690450912,0.0,0.0,0.0,1.14560460607,1798.63387518
2.4,2.09278684337E7,5974.85856406,1.41604037624E-13,855.490602818,2456.03908348,5.69514067629E-14,5.69514067629E-14,929.710447353,-856.191761464,2222.96114761,0.00633043562163,0.0,32.19195916596622,90.0,0.00633044553901,-1.00159411223E-18,0.0,-0.00417807,0.0,1107.88606665,0.00222610037068,1951.69243606,510.743409758,-25.6830670748,2.75552684624E-19,23.6468842082,0.0,0.0,0.0,1.14081507994,1778.01513654
2.5,2.09279537041E7,6220.33440761,1.47291337204E-13,849.923091006,2453.48194367,5.67948394271E-14,5.67948394271E-14,927.138697305,-850.652292342,2308.30308629,0.00658461620946,0.0,32.19169619026128,90.0,0.00658462654006,-1.04274015005E-18,0.0,-0.00417807,0.0,1107.55600428,0.00222046166707,1945.58902533,510.439132863,-25.4331962313,2.84266848299E-19,23.3296443456,0.0,0.0,0.0,1.13606080269,1757.71244463
2.6,2.09280384194E7,6465.55577792,1.52963056051E-13,844.38710141,2450.9495579,5.66397883603E-14,5.66397883603E-14,924.591872459,-845.144263007,2393.09265407,0.00683809510169,0.0,32.19143491976093,90.0,0.00683810584552,-1.08384322274E-18,0.0,-0.00417807,0.0,1107.22798347,0.00221487033262,1939.54048262,510.13682785,-25.1869944549,2.92802626813E-19,23.0172290298,0.0,0.0,0.0,1.13134131922,1737.71966061
2.7,2.09281225826E7,6710.52513221,1.58619344678E-13,838.88215584,2448.44156321,5.64862313564E-14,5.64862313564E-14,922.069608381,-839.66719641,2477.33297098,0.00709087908453,0.0,32.191175344952455,90.0,0.00709089024158,-1.12490374582E-18,0.0,-0.00417807,0.0,1106.90199389,0.00220932593586,1933.54625741,509.836483545,-24.9443910533,3.01164107533E-19,22.7095441467,0.0,0.0,0.0,1.12665618416,1718.03079633
2.8,2.09282061968E7,6955.24489173,1.64260351398E-13,833.407785408,2445.95760363,5.6334146636E-14,5.6334146636E-14,919.571547639,-834.22062478,2561.02710984,0.00734297484519,0.0,32.19091745622329,90.0,0.00734298641546,-1.16592212875E-18,0.0,-0.00417807,0.0,1106.57802539,0.00220382805191,1927.60580787,509.538088947,-24.7053170638,3.09355270876E-19,22.4064978723,0.0,0.0,0.0,1.12200496161,1698.64000992
2.9,2.09282892651E7,7199.71744246,1.69886222369E-13,827.963530306,2443.49732998,5.61835128359E-14,5.61835128359E-14,917.097339633,-828.804089404,2644.17809713,0.00759438897379,0.0,32.190661244261086,90.0,0.00759440095728,-1.20689877505E-18,0.0,-0.00417807,0.0,1106.25606798,0.00219837626239,1921.71860072,509.241633217,-24.4697052024,3.17379993616E-19,22.1080006055,0.0,0.0,0.0,1.1173872249,1679.54160153
3.0,2.09283717905E7,7443.94513583,1.7549710163E-13,822.548939583,2441.06039973,5.60343089989E-14,5.60343089989E-14,914.646640429,-823.417140406,2726.78891393,0.00784512796522,0.0,32.19040669965363,90.0,0.00784514036194,-1.24783408239E-18,0.0,-0.00417807,0.0,1105.93611182,0.00219297015532,1915.88411102,508.947105682,-24.2374898154,3.25242052088E-19,21.8139649031,0.0,0.0,0.0,1.11280255643,1660.73000914
3.1,2.09284537759E7,7687.93028932,1.81093131148E-13,817.163570937,2438.64647682,5.58865145641E-14,5.58865145641E-14,912.219112597,-818.059336537,2808.86249671,0.00809519822095,0.0,32.19015381338887,90.0,0.00809521103089,-1.28872844273E-18,0.0,-0.00417807,0.0,1105.61814721,0.00218760932493,1910.10182204,508.654495826,-24.0086068318,3.32945125275E-19,21.5243054172,0.0,0.0,0.0,1.10825054741,1642.19980461
3.2,2.09285352242E7,7931.67518711,1.8667445085E-13,811.806990501,2436.25523151,5.57401093573E-14,5.57401093573E-14,909.814425054,-812.730244968,2890.4017383,0.00834460605076,0.0,32.18990257655494,90.0,0.00834461927393,-1.32958224242E-18,0.0,-0.00417807,0.0,1105.30216462,0.00218229337161,1904.37122506,508.363793291,-23.7829937175,3.40492797781E-19,21.2389388347,0.0,0.0,0.0,1.10373079768,1623.9456898
3.3,2.09286161382E7,8175.18208075,1.92241198667E-13,806.478772651,2433.88634024,5.55950735818E-14,5.55950735818E-14,907.432252917,-807.429441087,2971.40948862,0.0085933576745,0.0,32.18965298024014,90.0,0.00859337131089,-1.3703958623E-18,0.0,-0.00417807,0.0,1104.98815464,0.00217702190174,1898.69181928,508.074987871,-23.560589432,3.47888562709E-19,20.9577838187,0.0,0.0,0.0,1.09924291552,1605.96249285
3.4,2.09286965209E7,8418.4531897,1.97793510566E-13,801.178499803,2431.53948545,5.54513878093E-14,5.54513878093E-14,905.072277346,-802.156508307,3051.88855554,0.00884145922375,0.0,32.18940501573289,90.0,0.00884147327337,-1.41116967781E-18,0.0,-0.00417807,0.0,1104.67610803,0.00217179452758,1893.06311157,507.788069513,-23.3413343849,3.55135824439E-19,20.680760952,0.0,0.0,0.0,1.09478651742,1588.24516457
3.5,2.09287763749E7,8661.49070199,2.03331520593E-13,795.905762231,2429.2143555,5.53090329712E-14,5.53090329712E-14,902.734185412,-796.91103788,3131.84170569,0.00908891674346,0.0,32.189158674421805,90.0,0.0090889312063,-1.45190405908E-18,0.0,-0.00417807,0.0,1104.36601566,0.0021666108672,1887.4846164,507.503028309,-23.1251703954,3.622379013E-19,20.4077926824,0.0,0.0,0.0,1.09036122793,1570.78877495
3.6,2.09288557029E7,8904.29677476,2.08855360901E-13,790.660157876,2426.91064445,5.51679903504E-14,5.51679903504E-14,900.417669948,-791.692628705,3211.27166516,0.00933573619354,0.0,32.18891394799561,90.0,0.00933575106961,-1.49259937103E-18,0.0,-0.00417807,0.0,1104.05786856,0.00216147054432,1881.95585567,507.219854497,-22.9120406519,3.69198028163E-19,20.1388032699,0.0,0.0,0.0,1.08596667947,1553.58850979
3.7,2.09289345078E7,9146.87353483,2.1436516179E-13,785.441292173,2424.628052,5.50282415725E-14,5.50282415725E-14,898.122429419,-786.500887161,3290.18112034,0.00958192345046,0.0,32.18867082794322,90.0,0.00958193873975,-1.53325597347E-18,0.0,-0.00417807,0.0,1103.75165789,0.00215637318823,1876.47635853,506.938538458,-22.7018896741,3.76019358936E-19,19.8737187355,0.0,0.0,0.0,1.08160251215,1536.63966748
3.8,2.09290127921E7,9389.22307928,2.19861051742E-13,780.248777873,2422.36628331,5.48897685983E-14,5.48897685983E-14,895.848167789,-781.335426921,3368.57271862,0.00982748430873,0.0,32.18842930615367,90.0,0.00982750001125,-1.57387422121E-18,0.0,-0.00417807,0.0,1103.44737494,0.00215131843369,1871.04566131,506.659070712,-22.4946632752,3.82704968981E-19,19.6124668118,0.0,0.0,0.0,1.0772683736,1519.93765578
3.9,2.09290905584E7,9631.34747596,2.25343157446E-13,775.082234877,2420.12504889,5.47525537158E-14,5.47525537158E-14,893.594594392,-776.195868796,3446.44906912,0.0100724244824,0.0,32.18818937451615,90.0,0.0100724405982,-1.61445446411E-18,0.0,-0.00417807,0.0,1103.14501111,0.0021463059208,1865.66330732,506.381441915,-22.2903085263,3.89257857448E-19,19.3549768953,0.0,0.0,0.0,1.07296391879,1503.47798884
4.0,2.09291678094E7,9873.24876405,2.30811603841E-13,769.941290072,2417.90406447,5.46165795325E-14,5.46165795325E-14,891.361423811,-771.081840561,3523.81274337,0.0103167496066,0.0,32.187951025119965,90.0,0.0103167661356,-1.65499704721E-18,0.0,-0.00417807,0.0,1102.84455797,0.00214133529493,1860.32884677,506.105642858,-22.0887737213,3.95680949522E-19,19.1011799997,0.0,0.0,0.0,1.06868880991,1487.25628421
4.1,2.09292445475E7,10114.9289545,2.3626651414E-13,764.825577166,2415.70305091,5.44818289681E-14,5.44818289681E-14,889.148375752,-765.992976803,3600.66627603,0.0105604652388,0.0,32.1877142499546,90.0,0.010560482181,-1.6955023108E-18,0.0,-0.00417807,0.0,1102.54600718,0.00213640620663,1855.04183659,505.831664466,-21.8900083433,4.01977098607E-19,18.8510087119,0.0,0.0,0.0,1.06444271614,1471.26825999
4.2,2.09293207753E7,10356.3900308,2.41708009863E-13,759.734736542,2413.52173402,5.43482852477E-14,5.43482852477E-14,886.95517493,-760.928918759,3677.01216558,0.0108035768603,0.0,32.18747904140964,90.0,0.0108035942157,-1.73597059048E-18,0.0,-0.00417807,0.0,1102.24935053,0.00213151831147,1849.80184034,505.559497792,-21.6939630321,4.0814908843E-19,18.6043971478,0.0,0.0,0.0,1.06022531358,1455.50973209
4.3,2.09293964953E7,10597.6339489,2.47136210868E-13,754.668415098,2411.35984451,5.42159318942E-14,5.42159318942E-14,884.781550956,-755.889314175,3752.85287489,0.0110460898777,0.0,32.18724539177482,90.0,0.0110461076463,-1.77640221731E-18,0.0,-0.00417807,0.0,1101.95457993,0.00212667127004,1844.60842809,505.289134014,-21.5005895522,4.14199635077E-19,18.3612809109,0.0,0.0,0.0,1.05603628504,1439.97661154
4.4,2.09294717098E7,10838.6626384,2.5255123538E-13,749.626266106,2409.21711784,5.40847527221E-14,5.40847527221E-14,882.62723822,-750.873817149,3828.19083198,0.0112880096239,0.0,32.18701329354,90.0,0.0112880278058,-1.81679751782E-18,0.0,-0.00417807,0.0,1101.66168742,0.00212186474779,1839.46117624,505.02056444,-21.3098407626,4.20131388962E-19,18.1215970517,0.0,0.0,0.0,1.05187531993,1424.66490192
4.5,2.09295464213E7,11079.4780026,2.57953200021E-13,744.607949068,2407.09329413,5.39547318304E-14,5.39547318304E-14,880.491975788,-745.882087996,3903.02843057,0.0115293413598,0.0,32.186782739295175,90.0,0.0115293599549,-1.85715681413E-18,0.0,-0.00417807,0.0,1101.37066513,0.00211709841499,1834.35966751,504.753780496,-21.1216705871,4.25946936732E-19,17.8852840281,0.0,0.0,0.0,1.0477421141,1409.57069683
4.6,2.09296206322E7,11320.0819188,2.63342219835E-13,739.613129573,2404.98811805,5.38258535966E-14,5.38258535966E-14,878.375507295,-740.913793107,3977.36803071,0.0117700902752,0.0,32.186553721730455,90.0,0.0117701092835,-1.89748042402E-18,0.0,-0.00417807,0.0,1101.08150534,0.00211237194658,1829.30349071,504.488773732,-20.9360339858,4.31648803101E-19,17.6522816674,0.0,0.0,0.0,1.04363636971,1394.69017748
4.7,2.09296943447E7,11560.4762394,2.68718408317E-13,734.641479168,2402.90133871,5.36981026703E-14,5.36981026703E-14,876.277580843,-735.968604813,4051.21195941,0.0120102614904,0.0,32.18632623353608,90.0,0.0120102809119,-1.93776866099E-18,0.0,-0.00417807,0.0,1100.79420041,0.00210768502217,1824.29224071,504.225535813,-20.7528869268,4.37239452642E-19,17.4225311298,0.0,0.0,0.0,1.03955779509,1380.01961035
4.8,2.09297675612E7,11800.6627916,2.74081877443E-13,729.692675225,2400.83270959,5.3571463967E-14,5.3571463967E-14,874.197948899,-731.046201256,4124.56251116,0.012249860057,0.0,32.186100267602406,90.0,0.0122498798917,-1.97802183435E-18,0.0,-0.00417807,0.0,1100.50874283,0.00210303732588,1819.3255183,503.964058524,-20.57218636,4.42721291502E-19,17.1959748719,0.0,0.0,0.0,1.03550610463,1365.55534488
4.9,2.0929840284E7,12040.6433783,2.7943273769E-13,724.766400806,2398.78198839,5.34459226623E-14,5.34459226623E-14,872.1363682,-726.146266258,4197.4219486,0.0124888909595,0.0,32.18587581711992,90.0,0.0124889112074,-2.0182402493E-18,0.0,-0.00417807,0.0,1100.22512517,0.00209842854631,1814.40293006,503.704333761,-20.3938901905,4.48096669076E-19,16.9725566131,0.0,0.0,0.0,1.03148101862,1351.29381132
5.0,2.09299125153E7,12280.4197783,2.84771098069E-13,719.86234455,2396.748937,5.33214641864E-14,5.33214641864E-14,870.092599658,-721.268489201,4269.79250301,0.0127273591161,0.0,32.185652874879224,90.0,0.0127273797773,-2.058424207E-18,0.0,-0.00417807,0.0,1099.94334014,0.00209385837645,1809.5240883,503.446353533,-20.2179572537,4.53367879617E-19,16.7522213011,0.0,0.0,0.0,1.02748226317,1337.23151855
5.1,2.09299842572E7,12519.9937468,2.90097066144E-13,714.980200542,2394.73332135,5.31980742178E-14,5.31980742178E-14,868.06640827,-716.412564902,4341.67637486,0.0129652693801,0.0,32.18543143427102,90.0,0.0129652904545,-2.09857400459E-18,0.0,-0.00417807,0.0,1099.66338054,0.00208932651359,1804.68861095,503.190109962,-20.0443472907,4.58537163802E-19,16.5349150801,0.0,0.0,0.0,1.02350957004,1323.36505201
5.2,2.0930055512E7,12759.367016,2.9541074806E-13,710.119668199,2392.73491136,5.30757386786E-14,5.30757386786E-14,866.057563023,-711.578193497,4413.07573441,0.0132026265409,0.0,32.18521148848613,90.0,0.0132026480286,-2.13868993533E-18,0.0,-0.00417807,0.0,1099.38523926,0.00208483265924,1799.89612142,502.935595273,-19.8730209246,4.63606710241E-19,16.3205852588,0.0,0.0,0.0,1.01956267658,1309.69107172
5.3,2.09301262818E7,12998.5412951,3.00712248566E-13,705.280452155,2390.75348083,5.29544437288E-14,5.29544437288E-14,864.065836812,-706.765080326,4483.99272217,0.0134394353251,0.0,32.18499303081552,90.0,0.0134394572259,-2.17877228863E-18,0.0,-0.00417807,0.0,1099.1089093,0.00208037651909,1795.14624855,502.682801803,-19.7039396374,4.68578656945E-19,16.1091802802,0.0,0.0,0.0,1.01564132557,1296.20631031
5.4,2.09301965688E7,13237.5182708,3.06001671038E-13,700.462262147,2388.78880738,5.2834175761E-14,5.2834175761E-14,862.091006352,-701.972935821,4554.42944942,0.0136757003974,0.0,32.18477605475021,90.0,0.0136757227115,-2.21882135011E-18,0.0,-0.00417807,0.0,1098.83438377,0.00207595780292,1790.43862647,502.431721989,-19.5370657482,4.73455092743E-19,15.9006496919,0.0,0.0,0.0,1.01174526513,1282.90757118
5.5,2.0930266375E7,13476.2996078,3.11279117505E-13,695.664812909,2386.84067233,5.27149213957E-14,5.27149213957E-14,860.132852098,-697.201475398,4624.38799879,0.0139114263619,0.0,32.18456055398136,90.0,0.0139114490892,-2.25883740168E-18,0.0,-0.00417807,0.0,1098.56165585,0.0020715762245,1785.77289457,502.182348373,-19.3723623909,4.78238058657E-19,15.6949441172,0.0,0.0,0.0,1.0078742486,1269.7917266
5.6,2.09303357025E7,13714.8869494,3.16544688665E-13,690.887824063,2384.90886068,5.25966674761E-14,5.25966674761E-14,858.19115816,-692.450419351,4693.87042464,0.0141466177631,0.0,32.184346521900245,90.0,0.0141466409036,-2.29882072159E-18,0.0,-0.00417807,0.0,1098.29071884,0.00206723150157,1781.14869735,501.934673599,-19.2097934936,4.82929549233E-19,15.4920152276,0.0,0.0,0.0,1.00402803446,1256.85571599
5.7,2.09304045532E7,13953.281917,3.21798483917E-13,686.131020017,2382.99316095,5.24794010636E-14,5.24794010636E-14,856.26571223,-687.719492745,4762.87875363,0.0143812790865,0.0,32.1841339523982,90.0,0.0143813026403,-2.3387715845E-18,0.0,-0.00417807,0.0,1098.02156613,0.00206292335577,1776.56568434,501.688690408,-19.0493237586,4.87531513827E-19,15.2918157154,0.0,0.0,0.0,1.0002063862,1244.09654418
5.8,2.09304729293E7,14191.4861117,3.27040601371E-13,681.394129863,2381.09336518,5.23631094327E-14,5.23631094327E-14,854.356305498,-683.008425321,4831.41498516,0.0146154147602,0.0,32.183922839166726,90.0,0.0146154387272,-2.37869026152E-18,0.0,-0.00417807,0.0,1097.75419117,0.00205865151251,1772.02351004,501.44439164,-18.8909186419,4.92045857859E-19,15.0942992678,0.0,0.0,0.0,0.996409072234,1231.51127977
5.9,2.09305408327E7,14429.5011134,3.32271137878E-13,676.67688728,2379.2092688,5.22477800669E-14,5.22477800669E-14,852.462732585,-678.316951396,4899.48109181,0.0148490291553,0.0,32.18371317619737,90.0,0.0148490535355,-2.41857702031E-18,0.0,-0.00417807,0.0,1097.48858755,0.002054415701,1767.52183382,501.20177023,-18.734544335,4.96474444021E-19,14.8994205414,0.0,0.0,0.0,0.992635865801,1219.09705346
6.0,2.09306082653E7,14667.328482,3.37490189049E-13,671.979030436,2377.3406706,5.2133400654E-14,5.2133400654E-14,850.584791466,-673.644809764,4967.07901984,0.015082126587,0.0,32.183504957281805,90.0,0.0150821513804,-2.45843212507E-18,0.0,-0.00417807,0.0,1097.22474891,0.00205021565411,1763.06031983,500.960819208,-18.5801677456,5.00819093455E-19,14.7071351373,0.0,0.0,0.0,0.988886544871,1206.85105653
6.1,2.09306752292E7,14904.9697575,3.4269784927E-13,667.300301898,2375.48737263,5.20199590818E-14,5.20199590818E-14,848.7222834,-668.991743609,5034.21068961,0.0153147113156,0.0,32.18329817661179,90.0,0.0153147365223,-2.49825583667E-18,0.0,-0.00417807,0.0,1096.96266899,0.00204605110834,1758.63863694,500.721531697,-18.4277564799,5.05081586882E-19,14.5173995776,0.0,0.0,0.0,0.985160892051,1194.7705393
6.2,2.0930741726E7,15142.4264601,3.47894211729E-13,662.640448539,2373.64918014,5.19074434342E-14,5.19074434342E-14,846.87501286,-664.357500407,5100.877996,0.0155467875475,0.0,32.18309282827919,90.0,0.0155468131674,-2.53804841267E-18,0.0,-0.00417807,0.0,1096.70234163,0.00204192180377,1754.25645861,500.48390091,-18.2772788252,5.09263665714E-19,14.3301712817,0.0,0.0,0.0,0.981458694496,1182.85280961
6.3,2.09308077579E7,15379.7000907,3.5307936843E-13,657.999221449,2371.82590153,5.17958419864E-14,5.17958419864E-14,845.042787466,-659.741831846,5167.08280885,0.0157783594358,0.0,32.18288890637595,90.0,0.0157783854689,-2.57781010734E-18,0.0,-0.00417807,0.0,1096.44376072,0.00203782748399,1749.9134629,500.247920151,-18.1287037328,5.13367033118E-19,14.1454085439,0.0,0.0,0.0,0.977779743819,1171.09523148
6.4,2.09308733265E7,15616.7921312,3.58253410215E-13,653.376375848,2370.01734823,5.16851432016E-14,5.16851432016E-14,843.225417921,-655.144493731,5232.82697338,0.0160094310811,0.0,32.18268640529412,90.0,0.0160094575275,-2.61754117178E-18,0.0,-0.00417807,0.0,1096.18692026,0.00203376789603,1745.60933228,500.013582811,-17.9820008016,5.17393355056E-19,13.9630705119,0.0,0.0,0.0,0.974123836008,1159.4952236
6.5,2.09309384337E7,15853.704045,3.63416426781E-13,648.771671004,2368.22333472,5.15753357268E-14,5.15753357268E-14,841.422717943,-650.565245906,5298.11231061,0.0162400065328,0.0,32.182485319425844,90.0,0.0162400333924,-2.65724185393E-18,0.0,-0.00417807,0.0,1095.93181432,0.00202974279032,1741.34375368,499.780882369,-17.8371402621,5.21344261289E-19,13.7831171646,0.0,0.0,0.0,0.970490771342,1148.05025808
6.6,2.09310030814E7,16090.4372767,3.68568506698E-13,644.184870151,2366.44367841,5.14664083891E-14,5.14664083891E-14,839.634504209,-646.003852171,5362.9406177,0.0164700897894,0.0,32.18228564306333,90.0,0.0164701170622,-2.6969123986E-18,0.0,-0.00417807,0.0,1095.67843706,0.00202575192064,1737.1164183,499.549812389,-17.6940929608,5.25221346352E-19,13.6055092924,0.0,0.0,0.0,0.966880354309,1136.75785908
6.7,2.09310672713E7,16326.9932532,3.7370973743E-13,639.615740406,2364.67819956,5.13583501915E-14,5.13583501915E-14,837.860596285,-641.4600802,5427.31366842,0.0166996847996,0.0,32.18208737079891,90.0,0.0166997124857,-2.73655304759E-18,0.0,-0.00417807,0.0,1095.42678271,0.00202179504404,1732.92702162,499.320366516,-17.5528303452,5.29026170507E-19,13.4302084768,0.0,0.0,0.0,0.963292393525,1125.61560152
6.8,2.09311310051E7,16563.3733833,3.78840205347E-13,635.06405269,2362.9267213,5.12511503101E-14,5.12511503101E-14,836.100816574,-636.933701463,5491.23321351,0.0169287954631,0.0,32.18189049712498,90.0,0.0169288235624,-2.77616403966E-18,0.0,-0.00417807,0.0,1095.17684558,0.00201787192082,1728.7752633,499.092538482,-17.4133244492,5.32760260651E-19,13.2571770704,0.0,0.0,0.0,0.959726701659,1114.6211099
6.9,2.09311942847E7,16799.5790584,3.83959995747E-13,630.529581658,2361.18906948,5.11447980898E-14,5.11447980898E-14,834.354990255,-632.424491153,5554.70098101,0.0171574256312,0.0,32.18169501683401,90.0,0.0171574541436,-2.81574561063E-18,0.0,-0.00417807,0.0,1094.92862004,0.00201398231446,1724.66084711,498.866322098,-17.2755478787,5.36425111217E-19,13.086378179,0.0,0.0,0.0,0.956183095356,1103.77205704
7.0,2.09312571116E7,17035.6116524,3.8906919287E-13,626.012105617,2359.4650727,5.10392830415E-14,5.10392830415E-14,832.622945226,-627.932228108,5617.71867666,0.0173855791075,0.0,32.18150092441859,90.0,0.0173856080332,-2.8552979934E-18,0.0,-0.00417807,0.0,1094.68210056,0.00201012599156,1720.58348086,498.641711254,-17.1394737981,5.40022185031E-19,12.917775642,0.0,0.0,0.0,0.952661395162,1093.06616295
7.1,2.09313194877E7,17271.4725224,3.94167879916E-13,621.51140646,2357.75456218,5.0934594838E-14,5.0934594838E-14,830.904512048,-623.456694742,5680.28798428,0.017613259649,0.0,32.181308214771356,90.0,0.0176132889879,-2.89482141799E-18,0.0,-0.00417807,0.0,1094.43728167,0.0020063027218,1716.54287636,498.418699919,-17.0050759164,5.43552914159E-19,12.7513340156,0.0,0.0,0.0,0.949161425454,1082.50119367
7.2,2.09313814145E7,17507.1630088,3.9925613906E-13,617.027269591,2356.05737176,5.08307233114E-14,5.08307233114E-14,829.199523895,-618.997676972,5742.41056612,0.0178404709665,0.0,32.18111688278505,90.0,0.0178405007187,-2.93431611163E-18,0.0,-0.00417807,0.0,1094.19415798,0.00200251227791,1712.53874932,498.197282141,-16.8723284745,5.4701870072E-19,12.5870185548,0.0,0.0,0.0,0.945683014369,1072.07496016
7.3,2.09314428937E7,17742.6844353,4.04334051467E-13,612.559483855,2354.37333781,5.07276584496E-14,5.07276584496E-14,827.507816496,-614.554964149,5804.08806318,0.0180672167254,0.0,32.18092692325248,90.0,0.0180672468908,-2.97378229874E-18,0.0,-0.00417807,0.0,1093.95272416,0.00199875443561,1708.57081931,497.977452042,-16.7412062325,5.50420917672E-19,12.4247951966,0.0,0.0,0.0,0.942225993731,1061.78531725
7.4,2.09315039269E7,17978.0381096,4.0940169731E-13,608.107841476,2352.70229921,5.06253903929E-14,5.06253903929E-14,825.829228088,-610.128348992,5865.32209554,0.0182935005464,0.0,32.18073833116654,90.0,0.018293531125,-3.01322020101E-18,0.0,-0.00417807,0.0,1093.71297495,0.00199502897352,1704.6388097,497.75920382,-16.6116844574,5.53760909587E-19,12.2646305437,0.0,0.0,0.0,0.93879019899,1051.63016259
7.5,2.09315645158E7,18213.2253231,4.14459155782E-13,603.672137987,2351.04409728,5.05239094316E-14,5.05239094316E-14,824.163599362,-605.717627524,5926.11426276,0.0185193260062,0.0,32.180551101720184,90.0,0.018519356998,-3.05263003745E-18,0.0,-0.00417807,0.0,1093.47490516,0.00199133567321,1700.74244758,497.542531746,-16.4837389106,5.57039993393E-19,12.1064918483,0.0,0.0,0.0,0.935375469153,1041.60743563
7.6,2.09316246619E7,18448.2473517,4.19506505114E-13,599.252172163,2349.39857573,5.04232060023E-14,5.04232060023E-14,822.510773417,-601.322599001,5986.46614414,0.0187446966381,0.0,32.180365229806476,90.0,0.0187447280431,-3.09201202439E-18,0.0,-0.00417807,0.0,1093.23850968,0.00198767431905,1696.88146372,497.327430163,-16.357345837,5.60259459105E-19,11.9503469971,0.0,0.0,0.0,0.931981646719,1031.71511662
7.7,2.09316843667E7,18683.1054558,4.24543822586E-13,594.847745968,2347.76558063,5.03232706854E-14,5.03232706854E-14,820.870595711,-596.943065858,6046.37929907,0.0189696159327,0.0,32.18018071071852,90.0,0.018969647751,-3.13136637557E-18,0.0,-0.00417807,0.0,1093.00378346,0.00198404469824,1693.05559251,497.113893487,-16.2324819533,5.63420570524E-19,11.7961644956,0.0,0.0,0.0,0.928608577618,1021.95122569
7.8,2.09317436319E7,18917.8008803,4.29571184545E-13,590.458664482,2346.14496035,5.02240942022E-14,5.02240942022E-14,819.242914013,-592.578833644,6105.85526734,0.0191940873386,0.0,32.17999753964951,90.0,0.0191941195701,-3.17069330214E-18,0.0,-0.00417807,0.0,1092.77072149,0.00198044660074,1689.26457189,496.901916202,-16.1091244369,5.66524565918E-19,11.6439134536,0.0,0.0,0.0,0.92525611115,1012.31382187
7.9,2.0931802459E7,19152.3348553,4.34588666416E-13,586.084735851,2344.53656551,5.01256674121E-14,5.01256674121E-14,817.627578361,-588.22971096,6164.89556944,0.019418114263,0.0,32.17981571179273,90.0,0.0194181469077,-3.20999301272E-18,0.0,-0.00417807,0.0,1092.53931887,0.00197687981922,1685.50814331,496.691492863,-15.9872509153,5.69572658692E-19,11.4935635712,0.0,0.0,0.0,0.921924099921,1002.80100223
8.0,2.09318608494E7,19386.708596,4.39596342717E-13,581.725771221,2342.94024895,5.00279813096E-14,5.00279813096E-14,816.024441011,-583.895509406,6223.50170689,0.0196417000721,0.0,32.179635222641494,90.0,0.01964173313,-3.24926571343E-18,0.0,-0.00417807,0.0,1092.30957073,0.00197334414905,1681.78605167,496.482618092,-15.8668394557,5.72566038036E-19,11.3450851246,0.0,0.0,0.0,0.91861239979,993.410900966
8.1,2.09319188046E7,19620.9233029,4.44594287072E-13,577.381584688,2341.35586568,4.99310270224E-14,4.99310270224E-14,814.433356401,-579.576043519,6281.6751625,0.0198648480921,0.0,32.179456067489205,90.0,0.0198648815633,-3.28851160791E-18,0.0,-0.00417807,0.0,1092.08147226,0.00196983938821,1678.09804526,496.275286578,-15.7478685548,5.75505869547E-19,11.1984489525,0.0,0.0,0.0,0.915320869807,984.141688545
8.2,2.09319763262E7,19854.9801622,4.49582572224E-13,573.051993236,2339.78327282,4.98347958077E-14,4.98347958077E-14,812.854181103,-575.271130722,6339.4174007,0.0200875616094,0.0,32.17927824182936,90.0,0.0200875954938,-3.32773089741E-18,0.0,-0.00417807,0.0,1091.85501874,0.0019663653373,1674.44387572,496.069493077,-15.6303171289,5.7839329584E-19,11.0536264432,0.0,0.0,0.0,0.912049372161,974.991570888
8.3,2.09320334155E7,20088.8803458,4.54561270049E-13,568.736816688,2338.2223296,4.97392790507E-14,4.97392790507E-14,811.286773783,-570.980591265,6396.72986776,0.0203098438715,0.0,32.17910174115548,90.0,0.0203098781691,-3.36692378075E-18,0.0,-0.00417807,0.0,1091.63020548,0.00196292179948,1670.82329798,495.865232407,-15.5141645044,5.81229437143E-19,10.910589522,0.0,0.0,0.0,0.908797772121,965.958788543
8.4,2.0932090074E7,20322.6250118,4.59530451566E-13,564.435877648,2336.67289729,4.96444682617E-14,4.96444682617E-14,809.730995161,-566.704248179,6453.61399216,0.0205316980874,0.0,32.17892656116119,90.0,0.0205317327982,-3.40609045443E-18,0.0,-0.00417807,0.0,1091.40702786,0.00195950858043,1667.23607021,495.662499453,-15.3993904085,5.84015391871E-19,10.7693106379,0.0,0.0,0.0,0.905565937984,957.0416159
8.5,2.09321463031E7,20556.2153044,4.64490186954E-13,560.149001454,2335.13483914,4.95503550733E-14,4.95503550733E-14,808.18670797,-562.441927215,6510.0711848,0.0207531274281,0.0,32.17875269724017,90.0,0.0207531625521,-3.4452311126E-18,0.0,-0.00417807,0.0,1091.18548133,0.0019561254883,1663.68195379,495.461289162,-15.2859749598,5.86752237188E-19,10.6297627524,0.0,0.0,0.0,0.902353741025,948.238360419
8.6,2.09322021043E7,20789.6523543,4.69440545559E-13,555.876016123,2333.60802039,4.94569312387E-14,4.94569312387E-14,806.65377692,-558.193456802,6566.10283929,0.0209741350273,0.0,32.17858014518614,90.0,0.0209741705645,-3.48434594714E-18,0.0,-0.00417807,0.0,1090.96556138,0.0019527723337,1660.16071322,495.261596541,-15.1738986599,5.89441029557E-19,10.4919193271,0.0,0.0,0.0,0.89916105544,939.547361885
8.7,2.09322574788E7,21022.9372787,4.74381595909E-13,551.616752304,2332.09230821,4.93641886292E-14,4.93641886292E-14,805.132068655,-553.958667993,6621.7103322,0.0211947239818,0.0,32.178408900792924,90.0,0.0211947599323,-3.52343514767E-18,0.0,-0.00417807,0.0,1090.74726355,0.00194944892967,1656.67211612,495.063416661,-15.0631423843,5.92082805259E-19,10.3557543127,0.0,0.0,0.0,0.8959877583,930.966991677
8.8,2.09323124281E7,21256.0711818,4.79313405725E-13,547.371043231,2330.58757166,4.92721192315E-14,4.92721192315E-14,803.621451722,-549.737394416,6676.89502338,0.0214148973522,0.0,32.178238959754374,90.0,0.0214149337159,-3.56249890157E-18,0.0,-0.00417807,0.0,1090.53058347,0.0019461550916,1653.21593315,494.866744652,-14.9536873744,5.9467858092E-19,10.221242137,0.0,0.0,0.0,0.892833729502,922.495652057
8.9,2.09323669534E7,21489.0551546,4.84236041933E-13,543.138724671,2329.09368164,4.91807151462E-14,4.91807151462E-14,802.121796528,-545.529472232,6731.65825613,0.0216346581633,0.0,32.17807031786444,90.0,0.0216346949403,-3.60153739406E-18,0.0,-0.00417807,0.0,1090.31551678,0.00194289063723,1649.79193799,494.671575701,-14.8455152292,5.97229354002E-19,10.0883576949,0.0,0.0,0.0,0.889698851716,914.131775485
9.0,2.09324210563E7,21721.8902754,4.89149570672E-13,538.919634881,2327.61051089,4.90899685848E-14,4.90899685848E-14,800.632975311,-541.334740083,6786.0013575,0.0218540094045,0.0,32.17790297111709,90.0,0.0218540465947,-3.64055080819E-18,0.0,-0.00417807,0.0,1090.10205922,0.00193965538662,1646.39990725,494.477905056,-14.7386078973,5.99736103298E-19,9.95707633733,0.0,0.0,0.0,0.886583010345,905.87382394
9.1,2.09324747378E7,21954.5776099,4.94054057311E-13,534.713614566,2326.13793392,4.89998718686E-14,4.89998718686E-14,799.154862101,-537.153039051,6839.92563852,0.0220729540306,0.0,32.17773691540639,90.0,0.022072991634,-3.67953932485E-18,0.0,-0.00417807,0.0,1089.89020654,0.0019364491621,1643.0396205,494.285728021,-14.632947669,6.02199789405E-19,9.82737386079,0.0,0.0,0.0,0.883486093469,897.720288271
9.2,2.09325279994E7,22187.1182112,4.98949566455E-13,530.520506827,2324.67582701,4.89104174256E-14,4.89104174256E-14,797.687332689,-532.984212611,6893.43239446,0.0222914949619,0.0,32.17757214672644,90.0,0.0222915329785,-3.71850312287E-18,0.0,-0.00417807,0.0,1089.67995456,0.00193327178824,1639.71086017,494.095039957,-14.5285171694,6.04621355187E-19,9.69922649757,0.0,0.0,0.0,0.88040799181,889.669687553
9.3,2.09325808423E7,22419.5131202,5.03836161956E-13,526.340157124,2323.22406814,4.88215977893E-14,4.88215977893E-14,796.23026459,-528.828106591,6946.52290505,0.0225096350849,0.0,32.17740866107142,90.0,0.0225096735147,-3.75744237899E-18,0.0,-0.00417807,0.0,1089.47129916,0.00193012309183,1636.41341151,493.90583628,-14.42529935,6.07001726221E-19,9.57261090576,0.0,0.0,0.0,0.877348598679,881.72056847
9.4,2.09326332679E7,22651.7633657,5.08713906927E-13,522.172413234,2321.78253699,4.87334055963E-14,4.87334055963E-14,794.783537016,-524.684569129,6999.19843474,0.0227273772529,0.0,32.17724645453555,90.0,0.022727416096,-3.7963572679E-18,0.0,-0.00417807,0.0,1089.26423626,0.00192700290182,1633.14706258,493.718112462,-14.3232774826,6.09341811237E-19,9.44750415972,0.0,0.0,0.0,0.874307809937,873.87150471
9.5,2.09326852772E7,22883.8699646,5.13582863748E-13,518.017125206,2320.35111489,4.86458335843E-14,4.86458335843E-14,793.347030839,-520.55345063,7051.46023285,0.0229447242863,0.0,32.1770855232131,90.0,0.0229447635426,-3.8352479623E-18,0.0,-0.00417807,0.0,1089.05876183,0.00192391104935,1629.9116042,493.531864027,-14.2224351516,6.1164250254E-19,9.32388374079,0.0,0.0,0.0,0.871285523952,866.121096374
9.6,2.09327368717E7,23115.8339218,5.18443094078E-13,513.874145323,2318.9296848,4.85588745907E-14,4.85588745907E-14,791.920628562,-516.434603728,7103.30953391,0.0231616789729,0.0,32.17692586329843,90.0,0.0231617186424,-3.87411463289E-18,0.0,-0.00417807,0.0,1088.85487189,0.00192084736763,1626.70682987,493.347086554,-14.1227562475,6.13904676431E-19,9.20172752813,0.0,0.0,0.0,0.868281641553,858.4679694
9.7,2.09327880525E7,23347.6562307,5.23294658865E-13,509.743328062,2317.51813126,4.847252155E-14,4.847252155E-14,790.504214291,-512.327883245,7154.7475578,0.0233782440686,0.0,32.1767674709859,90.0,0.0233782841513,-3.9129574484E-18,0.0,-0.00417807,0.0,1088.65256251,0.001917811692,1623.5325358,493.163775674,-14.0242249603,6.16129193604E-19,9.08101378995,0.0,0.0,0.0,0.865296065994,850.910775007
9.8,2.09328388208E7,23579.3378734,5.28137618354E-13,505.624530058,2316.11634039,4.83867674928E-14,4.83867674928E-14,789.097673701,-508.233146155,7205.77551,0.0235944222977,0.0,32.17661034266999,90.0,0.0235944627936,-3.95177657565E-18,0.0,-0.00417807,0.0,1088.4518298,0.00191480385984,1620.38852082,492.98192707,-13.9268257728,6.18316899547E-19,8.96172117481,0.0,0.0,0.0,0.86232870291,843.448189146
9.9,2.09328891778E7,23810.8798205,5.329720321E-13,501.517610061,2314.72419984,4.83016055434E-14,4.83016055434E-14,787.70089401,-504.150251544,7256.39458178,0.0238102163534,0.0,32.17645447444517,90.0,0.0238102572626,-3.99057217954E-18,0.0,-0.00417807,0.0,1088.25266992,0.00191182371058,1617.27458637,492.801536473,-13.8305434546,6.20468624913E-19,8.84382870325,0.0,0.0,0.0,0.85937946028,836.07891197
10.0,2.09329391247E7,24042.2830314,5.37797958973E-13,497.422428906,2313.34159876,4.82170289184E-14,4.82170289184E-14,786.313763949,-500.079060575,7306.60595042,0.0240256288982,0.0,32.17629986270602,90.0,0.0240256702206,-4.02934442308E-18,0.0,-0.00417807,0.0,1088.05507909,0.00190887108562,1614.19053642,492.622599669,-13.7353630558,6.22585185901E-19,8.72731575957,0.0,0.0,0.0,0.856448248384,828.801667316
10.1,2.09329886626E7,24273.5484546,5.42615457171E-13,493.338849471,2311.9684278,4.81330309248E-14,4.81330309248E-14,784.936173737,-496.019436451,7356.41077945,0.0242406625642,0.0,32.1761465039471,90.0,0.0242407042999,-4.06809346744E-18,0.0,-0.00417807,0.0,1087.85905354,0.00190594582838,1611.13617752,492.445112489,-13.6412699011,6.24667384615E-19,8.6121620838,0.0,0.0,0.0,0.85353497977,821.615202201
10.2,2.09330377928E7,24504.6770277,5.47424584226E-13,489.266736644,2310.60457904,4.80496049587E-14,4.80496049587E-14,783.568015047,-491.971244381,7405.81021879,0.0244553199538,0.0,32.17599439456312,90.0,0.0244553621026,-4.10681947197E-18,0.0,-0.00417807,0.0,1087.66458959,0.00190304778421,1608.11131866,492.269070814,-13.5482495837,6.26716009421E-19,8.49834776394,0.0,0.0,0.0,0.850639569211,814.518286325
10.3,2.09330865164E7,24735.6696776,5.52225397013E-13,485.20595729,2309.24994599,4.79667445031E-14,4.79667445031E-14,782.20918099,-487.934351543,7454.80540497,0.0246696036396,0.0,32.175843531048734,90.0,0.0246696462017,-4.14552259417E-18,0.0,-0.00417807,0.0,1087.47168356,0.00190017680037,1605.11577131,492.094470574,-13.4562879601,6.28731835287E-19,8.38585322833,0.0,0.0,0.0,0.847761933672,807.509711598
10.4,2.09331348344E7,24966.5273206,5.57017951762E-13,481.156380215,2307.90442357,4.7884443127E-14,4.7884443127E-14,780.859566077,-483.908627053,7503.39746138,0.0248835161654,0.0,32.175693909798724,90.0,0.0248835591407,-4.18420298981E-18,0.0,-0.00417807,0.0,1087.28033185,0.00189733272605,1602.14934938,491.921307746,-13.3653711441,6.30715624122E-19,8.27465923824,0.0,0.0,0.0,0.844901992272,800.588291664
10.5,2.0933182748E7,25197.2508625,5.61802304063E-13,477.117876137,2306.56790806,4.78026944831E-14,4.78026944831E-14,779.519066202,-479.893941934,7551.58749836,0.025097060046,0.0,32.17554552750787,90.0,0.0250971034345,-4.22286081287E-18,0.0,-0.00417807,0.0,1087.09053087,0.00189451541228,1599.21186913,491.749578353,-13.2754855017,6.32668125096E-19,8.1647468806,0.0,0.0,0.0,0.842059666249,793.752861452
10.6,2.09332302583E7,25427.841199,5.66578508874E-13,473.090317646,2305.24029711,4.77214923069E-14,4.77214923069E-14,778.187578615,-475.890169076,7599.37661351,0.025310237768,0.0,32.175398380671034,90.0,0.0253102815697,-4.26149621559E-18,0.0,-0.00417807,0.0,1086.9022771,0.00189172471197,1596.30314921,491.579278463,-13.1866176455,6.34590074966E-19,8.05609756096,0.0,0.0,0.0,0.839234878924,787.002276724
10.7,2.09332773664E7,25658.2992154,5.71346620534E-13,469.073579182,2303.92148969,4.76408304149E-14,4.76408304149E-14,776.865001895,-471.897183216,7646.76589175,0.02552305179,0.0,32.17525246598311,90.0,0.0255230960049,-4.30010934852E-18,0.0,-0.00417807,0.0,1086.71556703,0.00188896047982,1593.42301057,491.41040419,-13.0987544299,6.36482198384E-19,7.9486929966,0.0,0.0,0.0,0.836427555667,780.335413647
10.8,2.09333240734E7,25888.6257871,5.76106692763E-13,465.067536997,2302.61138604,4.75607027032E-14,4.75607027032E-14,775.551235929,-467.914860895,7693.7564056,0.0257355045428,0.0,32.17510778013904,90.0,0.025735549171,-4.33870036049E-18,0.0,-0.00417807,0.0,1086.53039722,0.00188622257235,1590.57127648,491.242951693,-13.0118829457,6.38345208196E-19,7.84251520979,0.0,0.0,0.0,0.833637623863,773.751168363
10.9,2.09333703803E7,26118.8217794,5.80858778679E-13,461.072069127,2301.30988772,4.74811031461E-14,4.74811031461E-14,774.246181886,-463.943080439,7740.34921532,0.0259475984302,0.0,32.1749643197338,90.0,0.0259476434716,-4.37726939868E-18,0.0,-0.00417807,0.0,1086.34676426,0.00188351084785,1587.74777245,491.076917175,-12.9259905158,6.40179805739E-19,7.73754652124,0.0,0.0,0.0,0.830865012879,767.248456583
11.0,2.09334162882E7,26348.8880482,5.85602930799E-13,457.087055364,2300.01689752,4.74020257946E-14,4.74020257946E-14,772.949742196,-459.98172192,7786.54536909,0.0261593358289,0.0,32.17482208156244,90.0,0.0261593812835,-4.41581660862E-18,0.0,-0.00417807,0.0,1086.16466477,0.00188082516636,1584.95232623,490.912296882,-12.8410646896,6.41986681126E-19,7.63376954368,0.0,0.0,0.0,0.828109654029,760.826213177
11.1,2.09334617981E7,26578.8254394,5.90339201049E-13,453.112377227,2298.73231948,4.73234647753E-14,4.73234647753E-14,771.661820527,-456.030667134,7832.34590317,0.026370719089,0.0,32.17468106252004,90.0,0.0263707649569,-4.4543421342E-18,0.0,-0.00417807,0.0,1085.98409542,0.00187816538966,1582.18476777,490.749087101,-12.7570932389,6.43766513529E-19,7.53116717562,0.0,0.0,0.0,0.825371480546,754.483391785
11.2,2.0933506911E7,26808.6347893,5.95067640772E-13,449.147917928,2297.45605883,4.72454142885E-14,4.72454142885E-14,770.382321763,-452.089799571,7877.75184209,0.0265817505345,0.0,32.17454125930168,90.0,0.0265817968156,-4.49284611772E-18,0.0,-0.00417807,0.0,1085.8050529,0.00187553138121,1579.44492919,490.587284164,-12.6740641534,6.45519971451E-19,7.42972259525,0.0,0.0,0.0,0.822650427544,748.218964432
11.3,2.0933551628E7,27038.3169252,5.99788300734E-13,445.193562354,2296.18802201,4.71678686075E-14,4.71678686075E-14,769.11115198,-448.159004385,7922.76419883,0.0267924324633,0.0,32.174402668802564,90.0,0.0267924791576,-4.53132869987E-18,0.0,-0.00417807,0.0,1085.62753396,0.00187292300619,1576.73264476,490.426884443,-12.5919656356,6.47247712987E-19,7.32941925446,0.0,0.0,0.0,0.819946431992,742.031921155
11.4,2.093359595E7,27267.8726648,6.04501231132E-13,441.249197032,2294.9281166,4.70908220771E-14,4.70908220771E-14,767.848218429,-444.238168368,7967.38397494,0.0270027671479,0.0,32.17426528801789,90.0,0.0270028142555,-4.5697900198E-18,0.0,-0.00417807,0.0,1085.45153538,0.00187034013142,1574.04775086,490.26788435,-12.5107860973,6.4895038609E-19,7.23024087305,0.0,0.0,0.0,0.81725943268,735.921269633
11.5,2.09336398781E7,27497.3028166,6.09206481601E-13,437.314710106,2293.67625136,4.70142691121E-14,4.70142691121E-14,766.593429513,-440.327179926,8011.61216075,0.0272127568354,0.0,32.17412911364289,90.0,0.0272128043561,-4.60823021509E-18,0.0,-0.00417807,0.0,1085.27705397,0.00186778262536,1571.39008597,490.110280338,-12.4305141549,6.5062862882E-19,7.13217143302,0.0,0.0,0.0,0.81458937019,729.886034834
11.6,2.09336834133E7,27726.6081801,6.13904101222E-13,433.389991309,2292.43233616,4.69382041963E-14,4.69382041963E-14,765.346694765,-436.425929051,8055.44973551,0.0274224037479,0.0,32.17399414287287,90.0,0.0274224516819,-4.64664942181E-18,0.0,-0.00417807,0.0,1085.10408657,0.0018652503581,1568.75949062,489.954068901,-12.351138625,6.52283069591E-19,7.03519517307,0.0,0.0,0.0,0.811936186863,723.925258669
11.7,2.09337265565E7,27955.7895458,6.18594138527E-13,429.474931942,2291.19628197,4.68626218813E-14,4.68626218813E-14,764.107924832,-432.534307296,8098.89766753,0.027631710083,0.0,32.173860372603144,90.0,0.0276317584302,-4.68504777451E-18,0.0,-0.00417807,0.0,1084.93263007,0.00186274320133,1566.15580736,489.799246569,-12.2726485211,6.53914327413E-19,6.93929658312,0.0,0.0,0.0,0.809299826773,718.037999645
11.8,2.09337693086E7,28184.8476956,6.23276641506E-13,425.569424842,2289.96800086,4.67875167852E-14,4.67875167852E-14,762.877031454,-428.652207748,8141.95691436,0.0278406780139,0.0,32.17372779982909,90.0,0.0278407267743,-4.72342540625E-18,0.0,-0.00417807,0.0,1084.76268139,0.00186026102832,1563.57888078,489.645809915,-12.1950330489,6.5552301212E-19,6.84446039907,0.0,0.0,0.0,0.806680235696,712.223332539
11.9,2.09338116707E7,28413.7834022,6.27951657614E-13,421.673364365,2288.74740598,4.67128835915E-14,4.67128835915E-14,761.653927441,-424.779525009,8184.62842297,0.0280493096896,0.0,32.1735964216461,90.0,0.0280493588633,-4.76178244862E-18,0.0,-0.00417807,0.0,1084.59423748,0.00185780371389,1561.02855743,489.493755546,-12.1182816029,6.57109724607E-19,6.75067159762,0.0,0.0,0.0,0.804077361079,706.480348072
12.0,2.09338536436E7,28642.5974301,6.32619233779E-13,417.786646356,2287.5344115,4.66387170479E-14,4.66387170479E-14,760.43852666,-420.916155166,8226.91312979,0.0282576072356,0.0,32.17346623514964,90.0,0.0282576568224,-4.80011903175E-18,0.0,-0.00417807,0.0,1084.42729532,0.00185537113442,1558.50468582,489.343080108,-12.0423837625,6.58675057047E-19,6.6579153912,0.0,0.0,0.0,0.801491152015,700.808152593
12.1,2.09338952283E7,28871.290535,6.37279416406E-13,413.909168131,2286.32893264,4.65650119653E-14,4.65650119653E-14,759.230744014,-417.061995773,8268.81196101,0.0284655727537,0.0,32.173337237435184,90.0,0.0284656227538,-4.83843528433E-18,0.0,-0.00417807,0.0,1084.26185193,0.00185296316779,1556.00711639,489.193780284,-11.9673292882,6.60219593112E-19,6.56617722306,0.0,0.0,0.0,0.798921559213,695.205867768
12.2,2.09339364257E7,29099.8634644,6.41932251383E-13,410.04082845,2285.13088563,4.64917632165E-14,4.64917632165E-14,758.030495424,-413.216945825,8310.3258326,0.0286732083226,0.0,32.17320942579825,90.0,0.0286732587359,-4.87673133366E-18,0.0,-0.00417807,0.0,1084.09790436,0.0018505796934,1553.53570149,489.045852794,-11.8931081182,6.61743908182E-19,6.47544276246,0.0,0.0,0.0,0.796368534969,689.672630281
12.3,2.09339772368E7,29328.3169571,6.46577784091E-13,406.181527495,2283.94018771,4.64189657355E-14,4.64189657355E-14,756.837697812,-409.380905737,8351.4556505,0.0288805159981,0.0,32.17308279723441,90.0,0.0288805668247,-4.91500730559E-18,0.0,-0.00417807,0.0,1083.9354497,0.00184822059212,1551.09029535,488.899294394,-11.8197103647,6.63248569551E-19,6.38569789992,0.0,0.0,0.0,0.793832033139,684.207591538
12.4,2.09340176623E7,29556.6517441,6.51216059406E-13,402.331166854,2282.75675707,4.63466145158E-14,4.63466145158E-14,755.652269082,-405.55377732,8392.20231079,0.0290874978134,0.0,32.17295734913923,90.0,0.0290875490531,-4.95326332461E-18,0.0,-0.00417807,0.0,1083.77448505,0.0018458857463,1548.67075407,488.754101874,-11.7471263107,6.64734136634E-19,6.29692874267,0.0,0.0,0.0,0.791312009115,678.809917381
12.5,2.09340577033E7,29784.8685481,6.55847121705E-13,398.489649488,2281.58051289,4.62747046102E-14,4.62747046102E-14,754.474128106,-401.735463764,8432.56669979,0.0292941557792,0.0,32.17283307860836,90.0,0.0292942074322,-4.99149951385E-18,0.0,-0.00417807,0.0,1083.61500756,0.00184357503973,1546.27693557,488.610272059,-11.6753464063,6.66201161158E-19,6.20912161011,0.0,0.0,0.0,0.78880841979,673.478787801
12.6,2.09340973605E7,30012.9680836,6.60471014875E-13,394.656879724,2280.41137529,4.6203231129E-14,4.6203231129E-14,753.303194705,-397.925869613,8472.54969419,0.0295004918841,0.0,32.17270998303748,90.0,0.0295005439503,-5.02971599506E-18,0.0,-0.00417807,0.0,1083.45701441,0.00184128835764,1543.90869959,488.467801811,-11.6043612658,6.67650187359E-19,6.12226302946,0.0,0.0,0.0,0.786321223542,668.213396671
12.7,2.0934136635E7,30240.9510574,6.65087782317E-13,390.832763221,2279.2492653,4.61321892396E-14,4.61321892396E-14,752.139389632,-394.124900744,8512.15216122,0.029706508095,0.0,32.172588059622264,90.0,0.0297065605745,-5.06791288868E-18,0.0,-0.00417807,0.0,1083.30050279,0.00183902558665,1541.56590767,488.326688023,-11.5341616641,6.69081752163E-19,6.03633973139,0.0,0.0,0.0,0.783850380198,663.012951471
12.8,2.09341755274E7,30468.8181683,6.6969746695E-13,387.01720696,2278.09410489,4.60615741652E-14,4.60615741652E-14,750.982634561,-390.332464353,8551.37495875,0.0299122063571,0.0,32.17246730585846,90.0,0.0299122592498,-5.10609031379E-18,0.0,-0.00417807,0.0,1083.14546996,0.0018367866148,1539.2484231,488.186927624,-11.464738534,6.70496385377E-19,5.95133864593,0.0,0.0,0.0,0.781395851011,657.876673031
12.9,2.09342140387E7,30696.5701075,6.7430011122E-13,383.210119218,2276.94581692,4.5991381184E-14,4.5991381184E-14,749.832852064,-386.548468928,8590.21893545,0.0301175885942,0.0,32.17234771894183,90.0,0.0301176419001,-5.1442483882E-18,0.0,-0.00417807,0.0,1082.99191315,0.00183457133151,1536.95611093,488.048517574,-11.3960829626,6.71894609856E-19,5.86724689825,0.0,0.0,0.0,0.778957598639,652.80379527
13.0,2.09342521697E7,30924.2075582,6.78895757101E-13,379.411409554,2275.80432511,4.5921605628E-14,4.5921605628E-14,748.689965601,-382.772824232,8628.68493089,0.030322656709,0.0,32.17222929636817,90.0,0.0303227104281,-5.18238722841E-18,0.0,-0.00417807,0.0,1082.83982968,0.00183237962754,1534.68883794,487.911454865,-11.3281861888,6.73276941687E-19,5.78405180473,0.0,0.0,0.0,0.77653558711,647.793564949
13.1,2.09342899212E7,31151.7311965,6.83484446106E-13,375.620988784,2274.66955409,4.58522428825E-14,4.58522428825E-14,747.553899505,-379.005441287,8666.77377569,0.0305274125835,0.0,32.17211203563333,90.0,0.0305274667158,-5.22050694965E-18,0.0,-0.00417807,0.0,1082.68921685,0.00183021139502,1532.4464726,487.775736525,-11.2610396001,6.74643890354E-19,5.70174086899,0.0,0.0,0.0,0.774129781805,642.845241424
13.2,2.09343272942E7,31379.1416906,6.88066219286E-13,371.838768966,2273.54142931,4.5783288385E-14,4.5783288385E-14,746.424578964,-375.246232352,8704.48629161,0.0307318580789,0.0,32.17199593403316,90.0,0.0307319126244,-5.25860766587E-18,0.0,-0.00417807,0.0,1082.54007202,0.00182806652741,1530.22888507,487.641359609,-11.1946347297,6.75995958906E-19,5.62030177809,0.0,0.0,0.0,0.771740149426,637.958096409
13.3,2.09343642893E7,31606.4397014,6.9264111724E-13,368.064663384,2272.41987706,4.5714737624E-14,4.5714737624E-14,745.301930007,-371.495110908,8741.82329175,0.0309359950359,0.0,32.17188098916358,90.0,0.0309360499947,-5.29668948979E-18,0.0,-0.00417807,0.0,1082.39239256,0.00182594491946,1528.03594718,487.508321207,-11.1289632538,6.77333644114E-19,5.53972239874,0.0,0.0,0.0,0.769366657978,633.131413741
13.4,2.09344009074E7,31833.6258827,6.9720918012E-13,364.298586524,2271.30482448,4.56465861388E-14,4.56465861388E-14,744.185879493,-367.751991635,8778.78558055,0.0311398252755,0.0,32.1717671984205,90.0,0.0311398806475,-5.3347525329E-18,0.0,-0.00417807,0.0,1082.24617587,0.00182384646725,1525.86753241,487.376618437,-11.0640169888,6.78657436633E-19,5.45999077364,0.0,0.0,0.0,0.767009276735,628.364489148
13.5,2.09344371492E7,32060.7008806,7.0177044763E-13,360.540454062,2270.19619949,4.55788295181E-14,4.55788295181E-14,743.076355095,-364.016790402,8815.37395401,0.0313433505981,0.0,32.17165455939987,90.0,0.0313434063834,-5.37279690543E-18,0.0,-0.00417807,0.0,1082.10141938,0.00182177106814,1523.72351583,487.246248449,-10.9997878888,6.79967821153E-19,5.38109511792,0.0,0.0,0.0,0.764667976226,623.656630032
13.6,2.09344730157E7,32287.6653344,7.0632495904E-13,356.790182845,2269.09393083,4.55114633993E-14,4.55114633993E-14,741.973285284,-360.289424243,8851.58919979,0.031546572785,0.0,32.171543069697705,90.0,0.0315466289835,-5.41082271646E-18,0.0,-0.00417807,0.0,1081.95812055,0.00181971862074,1521.60377417,487.117208423,-10.9362680425,6.8126527655E-19,5.30302381559,0.0,0.0,0.0,0.7623427282,619.007155246
13.7,2.09345085075E7,32514.5198763,7.10872753183E-13,353.047690874,2267.99794801,4.5444483468E-14,4.5444483468E-14,740.876599321,-356.569811345,8887.4320973,0.0317494935976,0.0,32.171432726809996,90.0,0.0317495502093,-5.44883007382E-18,0.0,-0.00417807,0.0,1081.81627684,0.00181768902494,1519.50818569,486.989495567,-10.8734496711,6.82550276033E-19,5.22576541612,0.0,0.0,0.0,0.76003350561,614.415394882
13.8,2.09345436255E7,32741.2651312,7.15413868464E-13,349.312897289,2266.90818131,4.53778854567E-14,4.53778854567E-14,739.786227239,-352.85787103,8922.90341781,0.0319521147782,0.0,32.17132352833282,90.0,0.0319521718032,-5.4868190842E-18,0.0,-0.00417807,0.0,1081.67588577,0.00181568218185,1517.43663026,486.86310712,-10.8113251257,6.83823287283E-19,5.1493086311,0.0,0.0,0.0,0.757740282583,609.88069006
13.9,2.09345783704E7,32967.9017175,7.19948342864E-13,345.585722349,2265.82456179,4.53116651442E-14,4.53116651442E-14,738.702099833,-349.153523738,8958.0039246,0.03215443805,0.0,32.17121547206225,90.0,0.0321544954881,-5.52478985311E-18,0.0,-0.00417807,0.0,1081.53694487,0.00181369799383,1515.38898927,486.738040348,-10.7498868845,6.850847726E-19,5.07364233092,0.0,0.0,0.0,0.755463034401,605.402392726
14.0,2.09346127429E7,33194.4302462,7.24476213944E-13,341.866087423,2264.74702122,4.52458183551E-14,4.52458183551E-14,737.624148644,-345.456691012,8992.73437304,0.0323564651171,0.0,32.17110855549437,90.0,0.0323565229685,-5.56274248489E-18,0.0,-0.00417807,0.0,1081.39945168,0.00181173636444,1513.36514567,486.614292547,-10.6891275506,6.86335189026E-19,4.9987555416,0.0,0.0,0.0,0.753201737472,600.979865452
14.1,2.09346467438E7,33420.8513221,7.28997518848E-13,338.153914967,2263.67549213,4.51803409588E-14,4.51803409588E-14,736.552305951,-341.767295485,9027.09551071,0.0325581976653,0.0,32.171002776425325,90.0,0.0325582559299,-5.60067708276E-18,0.0,-0.00417807,0.0,1081.26340379,0.00180979719842,1511.3649839,486.49186104,-10.62903985,6.87574988494E-19,4.92463744159,0.0,0.0,0.0,0.750956369309,596.612481239
14.2,2.09346803739E7,33647.1655428,7.33512294312E-13,334.449128516,2262.60990777,4.51152288685E-14,4.51152288685E-14,735.486504757,-338.085260861,9061.0880775,0.0327596373618,0.0,32.170898132451285,90.0,0.0327596960396,-5.63859374879E-18,0.0,-0.00417807,0.0,1081.1287988,0.00180788040174,1509.3883899,486.370743177,-10.5696166284,6.88804617942E-19,4.85127735873,0.0,0.0,0.0,0.748726908507,592.299623327
14.3,2.09347136339E7,33873.3734996,7.38020576664E-13,330.751652663,2261.55020207,4.50504780412E-14,4.50504780412E-14,734.426678775,-334.410511901,9094.71280574,0.0329607858553,0.0,32.170794621268435,90.0,0.0329608449464,-5.67649258394E-18,0.0,-0.00417807,0.0,1080.99563434,0.00180598588151,1507.4352511,486.250936337,-10.51085085,6.90024519447E-19,4.77866476723,0.0,0.0,0.0,0.746513334718,588.040685008
14.4,2.09347465245E7,34099.475777,7.42522401829E-13,327.06141305,2260.4963097,4.49860844762E-14,4.49860844762E-14,733.372762419,-330.742974413,9127.97042026,0.0331616447768,0.0,32.17069224077298,90.0,0.033161704281,-5.71437368807E-18,0.0,-0.00417807,0.0,1080.86390804,0.00180411354599,1505.50545639,486.132437924,-10.4527355943,6.91235130349E-19,4.70678928471,0.0,0.0,0.0,0.744315628628,583.835069441
14.5,2.09347790464E7,34325.4729532,7.47017805336E-13,323.378336347,2259.44816597,4.49220442148E-14,4.49220442148E-14,732.324690792,-327.082575232,9160.86163856,0.0333622157391,0.0,32.17059098876118,90.0,0.0333622756566,-5.75223715993E-18,0.0,-0.00417807,0.0,1080.73361758,0.00180226330463,1503.5988961,486.015245369,-10.3952640545,6.92436883364E-19,4.63564066935,0.0,0.0,0.0,0.742133771932,579.682189476
14.6,2.09348112004E7,34551.3655997,7.51506822318E-13,319.702350248,2258.40570691,4.48583533398E-14,4.48583533398E-14,731.282399672,-323.429242209,9193.38717085,0.0335625003375,0.0,32.17049086282928,90.0,0.0335625606682,-5.79008309719E-18,0.0,-0.00417807,0.0,1080.60476065,0.00180043506797,1501.71546199,485.899356129,-10.3384295355,6.93630206707E-19,4.56520881701,0.0,0.0,0.0,0.739967747316,575.581467479
