time,eiPosition_ft_X,eiPosition_ft_Y,eiPosition_ft_Z,eiVelocity_ft_s_X,eiVelocity_ft_s_Y,eiVelocity_ft_s_Z,feVelocity_ft_s_X,feVelocity_ft_s_Y,feVelocity_ft_s_Z,altitudeMsl_ft,longitude_deg,latitude_deg,localGravity_ft_s2,eulerAngle_deg_Yaw,eulerAngle_deg_Pitch,eulerAngle_deg_Roll,bodyAngularRateWrtEi_deg_s_Roll,bodyAngularRateWrtEi_deg_s_Pitch,bodyAngularRateWrtEi_deg_s_Yaw,speedOfSound_ft_s,airDensity_slug_ft3,ambientPressure_lbf_ft2,ambientTemperature_dgR,aero_bodyForce_lbf_X,aero_bodyForce_lbf_Y,aero_bodyForce_lbf_Z,aero_bodyMoment_ftlbf_L,aero_bodyMoment_ftlbf_M,aero_bodyMoment_ftlbf_N,mach,dynamicPressure_lbf_ft2
0.0,2.09322545305E7,0.0,0.0,0.0,1526.40407246,0.0,0.0,0.0,-0.0,30000.0,0.0,0.0,32.1263120705,0.0,0.0,0.0,10.0,20.0,30.0,994.849493459,8.90685451211E-4,629.673709538,411.838873082,-0.0,0.0,-0.0,0.0,0.0,0.0,0.0,0.0
0.1,2.09322543699E7,152.640406855,1.14686868622E-25,-3.21262823588,1526.40406074,6.04496698297E-24,6.04496700051E-24,2.33456829909E-5,3.20149752179,29999.8399251,2.13006164356E-12,3.13920967199E-31,32.12631256185416,3.01848523902,1.97281990539,1.05189602353,10.0,20.0,30.0,994.850180963,8.90690690389E-4,629.678283691,411.839442296,3.08537031337E-6,-1.64502972572E-6,-8.95575913773E-5,0.0,0.0,0.0,0.00321807000002,0.00456460558565
0.2,2.0932253888E7,305.280811368,1.82729365394E-25,-6.42523864455,1526.4040256,5.26317790641E-23,5.263177912E-23,9.33824056386E-5,6.40297721603,29999.3597011,1.70404566109E-11,5.00166942608E-31,32.12631403591663,6.07796216744,3.88713582048,2.20825551802,10.0,20.0,30.0,994.85224347,8.90706408038E-4,629.692006288,411.841149936,2.43031400991E-5,-1.37873576762E-5,-3.57417089329E-4,0.0,0.0,0.0,0.00643610873749,0.0182586428706
0.3,2.09322530848E7,457.921211195,1.52150205819E-23,-9.63781339794,1526.40396704,5.89085978372E-22,5.89085985353E-22,2.10109193951E-4,9.60442125431,29998.5593308,5.75113426934E-11,4.16465662252E-29,32.126316492687415,9.18406624412,5.73660372783,3.46882343069,10.0,20.0,30.0,994.85568096,8.90732604494E-4,629.714877738,411.843995991,8.06270787486E-5,-4.85801717892E-5,-8.0114728172E-4,0.0,0.0,0.0,0.00965408494963,0.0410827734321
0.4,2.09322519604E7,610.561603994,1.03261551483E-22,-12.8503346662,1526.40388504,8.37548967449E-22,8.37549030621E-22,3.73524422799E-4,12.8058118065,29997.4388186,1.36322523799E-10,2.82647614533E-28,32.126319932166524,12.3418503034,7.51470851691,4.83323184222,10.0,20.0,30.0,994.860493399,8.90769280323E-4,629.746898722,411.847980446,1.87543708664E-4,-1.19834257069E-4,-0.00141672480227,0.0,0.0,0.0,0.0128719673732,0.0730380998771
0.5,2.09322505148E7,763.201987423,2.50261573853E-22,-16.062784617,1526.40377962,1.3344749371E-21,1.33447512848E-21,5.8362581651E-4,16.0071310398,29995.9981708,2.66253274202E-10,6.85016259308E-28,32.12632435435395,15.5557030573,9.21477333414,6.30086480116,10.0,20.0,30.0,994.866680741,8.90816436313E-4,629.788070196,411.853103279,3.58820400841E-4,-2.42837924119E-4,-0.0021985768761,0.0,0.0,0.0,0.0160897247443,0.114126165809
0.6,2.09322487479E7,915.842359138,3.29498956853E-22,-19.2751454145,1526.40365077,2.50902724706E-21,2.50902754942E-21,8.40410449863E-4,19.208361118,29994.2373954,4.60082157268E-10,9.01904988374E-28,32.1263297591497,18.8292524282,10.8299814859,7.87071355512,10.0,20.0,30.0,994.874242927,8.9087407348E-4,629.838393386,411.859364463,6.0629039399E-4,-4.34160455576E-4,-0.00313964069415,0.0,0.0,0.0,0.0193073257982,0.164348955781
0.7,2.09322466597E7,1068.4827168,9.18311355348E-22,-22.4873992183,1526.4034985,1.13633449088E-20,1.13633458919E-20,0.00114387474519,22.4094842007,29992.1565022,7.30586857504E-10,2.51360332826E-27,32.12633614655377,22.1652565235,12.3534124126,9.54122434918,10.0,20.0,30.0,994.883179884,8.90942193063E-4,629.897869794,411.866763963,9.39656695707E-4,-7.11440747884E-4,-0.00423143895131,0.0,0.0,0.0,0.0225247392689,0.223708895239
0.8,2.09322442504E7,1221.12305806,1.87394547454E-21,-25.6995281832,1526.4033228,1.06405432451E-20,1.06405455379E-20,0.00149401447765,25.610482442,29989.7555027,1.09054399755E-9,5.12936717448E-27,32.12634351656616,25.5654866594,13.7780930619,11.3101426102,10.0,20.0,30.0,994.893491526,8.91020796529E-4,629.966501192,411.875301738,0.0013663166818,-0.00109316294609,-0.00546417095482,0.0,0.0,0.0,0.0257419338891,0.292208850443
0.9,2.09322415198E7,1373.76338058,3.67164325103E-21,-28.9115144577,1526.40312367,1.67843551472E-20,1.67843602009E-20,0.00189082476877,28.8113379901,29987.0344104,1.55272896016E-9,1.0050030309E-26,32.12635186908689,29.0306086749,15.0970655811,13.1743592177,10.0,20.0,30.0,994.905177753,8.91109885568E-4,630.044289626,411.884977742,0.00189120905412,-0.00159842097702,-0.0068268185864,0.0,0.0,0.0,0.02895887839,0.369852128389
1.0,2.09322384681E7,1526.40368201,5.59583122487E-21,-32.1233401833,1526.40290111,2.03983616743E-20,2.03983702321E-20,0.00233430008877,32.0120329863,29983.9932405,2.12991571168E-9,1.53169242596E-26,32.12636120411595,32.5600706904,16.3034715773,15.1297665259,10.0,20.0,30.0,994.918238454,8.91209462099E-4,630.131237416,411.895791922,0.00251668464934,-0.00224667398036,-0.0083072662825,0.0,0.0,0.0,0.0321755415009,0.456642476703
1.1,2.09322350952E7,1679.04396002,9.36316280399E-21,-35.3349874938,1526.40265513,5.5815631551E-20,5.58156473018E-20,0.00282443425637,35.2125495641,29980.6320098,2.83487662945E-9,2.56288784928E-26,32.12637152165336,36.1520072242,17.3906522493,17.1711336079,10.0,20.0,30.0,994.932673502,8.91319528262E-4,630.227347152,411.907744218,0.00324240241187,-0.00305749471781,-0.00989243408362,0.0,0.0,0.0,0.0353918919492,0.55258408353
1.2,2.09322314011E7,1831.68421225,1.57976315811E-20,-38.5464385145,1526.40238572,7.31628644085E-20,7.31628933989E-20,0.00336122043846,38.4128698482,29976.9507371,3.68038232182E-9,4.32413341459E-26,32.126382821499114,39.8031708563,18.3522624877,19.2920115108,10.0,20.0,30.0,994.948482758,8.91440086426E-4,630.3326217,411.920834565,0.00406525165491,-0.00405031310566,-0.0115684226971,0.0,0.0,0.0,0.03860789846,0.657681577409
1.3,2.09322273859E7,1984.32443638,2.53401463407E-20,-41.7576753609,1526.40209288,1.29541374293E-19,1.29541424669E-19,0.00394465114974,41.612975954,29972.9494429,4.67920144905E-9,6.93611532244E-26,32.12639510375322,43.508903044,19.1823956429,21.4846797645,10.0,20.0,30.0,994.965666071,8.91571139185E-4,630.447064198,411.935062891,0.00497930153581,-0.00524415706753,-0.0133206694176,0.0,0.0,0.0,0.0418235297559,0.771940027132
1.4,2.09322230496E7,2136.96463005,3.99133587847E-20,-44.9686801382,1526.40177662,1.61344633058E-19,1.61344718507E-19,0.00457471825154,44.8128499864,29968.6281496,5.84410054724E-9,1.09251033071E-25,32.126408368215685,47.2631548733,19.8757141969,23.7401446008,10.0,20.0,30.0,994.984223275,8.91712689356E-4,630.570678055,411.950429118,0.00597577846619,-0.00665739293851,-0.0151341136582,0.0,0.0,0.0,0.0450387545567,0.895364941591
1.5,2.09322183922E7,2289.60479092,6.01244219068E-20,-48.1794349405,1526.40143693,2.43743990603E-19,2.43744128511E-19,0.00525141295139,48.0124740389,29963.9868813,7.18784384963E-9,1.64572886436E-25,32.126422614886515,51.058566204,20.4275802281,26.0481970407,10.0,20.0,30.0,995.00415419,8.91864739984E-4,630.703466957,411.966933162,0.007043071966,-0.00830746767212,-0.0169933707602,0.0,0.0,0.0,0.0482535415796,1.02796226961
1.6,2.09322134137E7,2442.24491665,8.87778050076E-20,-51.3899218495,1526.40107381,2.81329654494E-19,2.81329871694E-19,0.00597472580224,51.2118301931,29959.0256638,8.72319310796E-9,2.43003136181E-25,32.12643784366571,54.8866077691,20.8341785489,28.397535137,10.0,20.0,30.0,995.025458627,8.92027294337E-4,630.845434859,411.984574932,0.00816676925391,-0.0102106551047,-0.0188829126771,0.0,0.0,0.0,0.0514678595383,1.16973839976
1.7,2.09322081142E7,2594.8850049,1.21681259258E-19,-54.6001229342,1526.40068726,3.91195458644E-19,3.91195774941E-19,0.006744646704,54.4109005175,29953.7445248,1.0462907425E-8,3.33066750995E-25,32.12645405455331,58.7377855531,21.0926249427,30.7759494393,10.0,20.0,30.0,995.048136378,8.92200355912E-4,630.996585991,412.003354331,0.00932971864723,-0.0123818085196,-0.0207872540608,0.0,0.0,0.0,0.0546816771434,1.32070016018
1.8,2.09322024937E7,2747.52505333,1.59962354414E-19,-57.8100202496,1526.40027729,3.91195437102E-19,3.91195877351E-19,0.00756116489928,57.6096670669,29948.1434938,1.24197430569E-8,4.37850136063E-25,32.12647124734928,62.6019007553,21.2010522093,33.1705647526,10.0,20.0,30.0,995.072187226,8.92383928427E-4,631.156924857,412.023271257,0.0105121216224,-0.0148341217252,-0.0226911422263,0.0,0.0,0.0,0.0578949631018,1.48085481834
1.9,2.09321965522E7,2900.16505958,2.05529285705E-19,-61.019595836,1526.39984389,4.51910730806E-19,4.51911327869E-19,0.00842426897414,60.8081118811,29942.2226021,1.46064532518E-8,5.62576435532E-25,32.12648942195365,66.4683526882,21.1586678212,35.5681253093,10.0,20.0,30.0,995.097610939,8.92578015827E-4,631.326456233,412.044325599,0.0116916531652,-0.0175789008159,-0.0245797494228,0.0,0.0,0.0,0.0611076861166,1.65021008085
2.0,2.09321902898E7,3052.80502132,2.59220502111E-19,-64.2288317181,1526.39938706,5.90688573382E-19,5.90689366023E-19,0.00933394686014,64.0062169846,29935.9818827,1.70357880615E-8,7.09540682111E-25,32.12650857826644,70.3264670188,20.9657788477,37.9553055446,10.0,20.0,30.0,995.124407273,8.92782622284E-4,631.505185169,412.066517243,0.0128436098199,-0.0206253487268,-0.0264388658091,0.0,0.0,0.0,0.0643198148869,1.82877409319
2.1,2.09321837064E7,3205.44493621,3.28755522264E-19,-67.4377099042,1526.39890681,7.75725699228E-19,7.75726754717E-19,0.01029018583,67.2039643854,29929.4213706,1.97204941821E-8,8.99872844643E-25,32.12652871628764,74.1658287212,20.6237822235,40.3190256305,10.0,20.0,30.0,995.152575968,8.92997752192E-4,631.693116987,412.089846066,0.0139410846253,-0.0239803646154,-0.0282550915063,0.0,0.0,0.0,0.0675313181075,2.01655543951
2.2,2.09321768023E7,3358.0848019,4.15984716805E-19,-70.6462123853,1526.39840313,1.01280451743E-18,1.01280591652E-18,0.011292972497,70.401336074,29922.5411024,2.26733147292E-8,1.13863782699E-24,32.12654983591727,77.976598532,20.1351211158,42.6467503442,10.0,20.0,30.0,995.182116755,8.93223410174E-4,631.890257284,412.11431194,0.0149551679144,-0.0276483600146,-0.0300160260908,0.0,0.0,0.0,0.0707421644687,2.21356314229
2.3,2.09321695772E7,3510.72461606,5.27153088904E-19,-73.8543211344,1526.39787602,1.26723055526E-18,1.26723240875E-18,0.0123422928161,73.5983140232,29915.3411165,2.59069891078E-8,1.44292958335E-24,32.12657193685534,81.7497937023,19.5032107213,44.9267518498,10.0,20.0,30.0,995.213029347,8.93459601074E-4,632.096611929,412.13991473,0.0158551727435,-0.0316310935963,-0.0317104538885,0.0,0.0,0.0,0.0739523226563,2.41980666212
2.4,2.09321620314E7,3663.36437633,6.59311606948E-19,-77.0620181052,1526.39732548,1.37709628456E-18,1.37709870341E-18,0.013438132082,76.7948801862,29907.8214533,2.94342528129E-8,1.80467606867E-24,32.12659501910187,85.4775180383,18.7323389577,47.1483211611,10.0,20.0,30.0,995.245313447,8.93706329964E-4,632.312187066,412.166654296,0.0166088835139,-0.035927526267,-0.0333285234467,0.0,0.0,0.0,0.077161761351,2.63529589738
2.5,2.09321541648E7,3816.00408037,8.08065636105E-19,-80.2692852316,1526.39675151,1.57369816614E-18,1.57370125411E-18,0.0145804749287,79.9910164968,29899.9821548,3.32678372437E-8,2.21184830689E-24,32.126619082556864,89.1531318505,17.82754896,49.3019186732,10.0,20.0,30.0,995.278968745,8.93963602139E-4,632.536989113,412.19453049,0.017182826157,-0.0405336981826,-0.0348619195794,0.0,0.0,0.0,0.0803704492285,2.86004118395
2.6,2.09321459776E7,3968.64372585,9.77925455125E-19,-83.476104427,1526.39615412,1.83390655077E-18,1.83391043715E-18,0.0157693053267,83.1867048679,29891.8232649,3.74204695425E-8,2.67679196916E-24,32.12664412712033,92.7713585406,16.7945109274,51.3792602428,10.0,20.0,30.0,995.313994915,8.94231423122E-4,632.771024759,412.223543159,0.0175425580666,-0.0454426291284,-0.0363040264186,0.0,0.0,0.0,0.0835783549589,3.09405329486
2.7,2.09321374696E7,4121.28331041,1.17698643761E-18,-86.6824575829,1526.3955333,2.12880937667E-18,2.12881423381E-18,0.0170046065838,86.3819271907,29883.3448293,4.19048723863E-8,3.22166592923E-24,32.12667015249229,96.3283302183,15.6393907219,53.373340946,10.0,20.0,30.0,995.350391619,8.94509798658E-4,633.014300968,412.253692144,0.0176529757914,-0.050644243553,-0.037650079949,0.0,0.0,0.0,0.086785447207,3.33734343995
2.8,2.09321286411E7,4273.92283173,1.40588464577E-18,-89.8883265685,1526.39488905,2.43527699296E-18,2.43528300928E-18,0.0182863613432,89.576665334,29874.5468956,4.67337638414E-8,3.8482113495E-24,32.126697158672755,99.8215792805,14.3687218287,55.2784031549,10.0,20.0,30.0,995.388158508,8.94798734718E-4,633.26682498,412.284977277,0.0174786383374,-0.0561253213777,-0.038897308562,0.0,0.0,0.0,0.0899916946318,3.58992326555
2.9,2.0932119492E7,4426.56228744,1.67017119122E-18,-93.0936932296,1526.39422137,2.7648742178E-18,2.76488161998E-18,0.0196145515842,92.7709011435,29865.429513,5.19198571532E-8,4.57162296528E-24,32.12672514546175,103.249985907,12.989286063,57.0898585734,10.0,20.0,30.0,995.427295217,8.95098237498E-4,633.528604307,412.317398386,0.0169841037807,-0.0618694755294,-0.0400450602312,0.0,0.0,0.0,0.093197065886,3.85180485405
3.0,2.09321100224E7,4579.20167522,1.96782222586E-18,-96.298539388,1526.39353027,3.15807792711E-18,3.15808694871E-18,0.0209891586173,95.9646164405,29855.9927327,5.74758605727E-8,5.38636121993E-24,32.126754112759265,106.613692887,11.5080069684,58.804175301,10.0,20.0,30.0,995.467801367,8.95408313418E-4,633.799646734,412.350955293,0.0161342767596,-0.0678571569582,-0.0410949149904,0.0,0.0,0.0,0.0964015296165,4.12300072359
3.1,2.09321002323E7,4731.84099272,2.29160973064E-18,-99.5028468404,1526.39281574,3.27372583218E-18,3.2737366878E-18,0.0224101630872,99.1577930212,29846.2366077,6.34144771867E-8,6.27264159091E-24,32.12678406026533,109.913999285,9.93185841087,60.4187410416,10.0,20.0,30.0,995.50967657,8.95728969125E-4,634.079960321,412.385647812,0.0148947642944,-0.0740656877096,-0.0420507814836,0.0,0.0,0.0,0.0996050544634,4.40352382758
3.2,2.09320901218E7,4884.48023759,2.6367921231E-18,-102.706597357,1526.39207777,3.64379979591E-18,3.64381268888E-18,0.0238775449674,102.350412656,29836.1611927,6.97484047185E-8,7.21748545485E-24,32.12681498797997,113.153243492,8.26778956487,61.9317125906,10.0,20.0,30.0,995.552920419,8.96060211487E-4,634.369553403,412.421475752,0.0132322372807,-0.0804693224245,-0.0429189764552,0.0,0.0,0.0,0.10280760906,4.69338755434
3.3,2.0932079691E7,5037.11940749,3.01412468345E-18,-105.909772683,1526.39131639,3.9097902954E-18,3.90980549303E-18,0.0253912835639,105.542457089,29825.7665443,7.6490335359E-8,8.25033254398E-24,32.12684689570319,116.334684638,6.52266642663,63.3418600963,10.0,20.0,30.0,995.597532499,8.96402047601E-4,634.668434589,412.458438914,0.0111147949174,-0.0870393384353,-0.043708286153,0.0,0.0,0.0,0.106009162034,4.99260572664
3.4,2.09320689399E7,5189.75850008,3.4217570342E-18,-109.112354535,1526.39053157,4.22204002749E-18,4.22205780218E-18,0.0269513575074,108.733908036,29815.0527211,8.36529555834E-8,9.36611813751E-24,32.126879783135,119.462389445,4.70322919664,64.6484126607,10.0,20.0,30.0,995.643512378,8.96754484784E-4,634.976612761,412.496537094,0.00851232926332,-0.0937441544203,-0.0444300087353,0.0,0.0,0.0,0.109209682004,5.30119260124
3.5,2.09320578685E7,5342.39751302,3.85552583277E-18,-112.314324599,1526.38972332,4.43020628639E-18,4.43022690208E-18,0.0285577447585,111.924747185,29804.0197831,9.12489459548E-8,1.05534464033E-23,32.126913650275434,122.541129726,2.81606435373,65.8509099054,10.0,20.0,30.0,995.690859613,8.97117530582E-4,635.294097077,412.535770082,0.00539688706418,-0.10054947737,-0.0450979768937,0.0,0.0,0.0,0.112409137583,5.61916286846
3.6,2.0932046477E7,5495.03644397,4.31647190659E-18,-115.515664536,1526.38889165,4.84653929405E-18,4.84656303231E-18,0.0302104226032,115.114956195,29792.6677926,9.92909809476E-8,1.18151664905E-23,32.126948496824504,125.576293989,0.86758996269,66.9490623599,10.0,20.0,30.0,995.739573746,8.97491192762E-4,635.620896969,412.576137659,0.00174302596585,-0.107418477407,-0.0457285600335,0.0,0.0,0.0,0.115607497376,5.94653165165
3.7,2.09320347654E7,5647.67529057,4.8138471071E-18,-118.716355973,1526.38803654,5.1472239961E-18,5.1472512032E-18,0.0319093676502,118.304516693,29780.9968135,1.07791728786E-7,1.31766030159E-23,32.12698432258222,128.573815224,-1.13594732941,67.9426220533,10.0,20.0,30.0,995.789654308,8.97875479316E-4,635.957022144,412.617639604,-0.0024718377857,-0.114311989794,-0.0463406454929,0.0,0.0,0.0,0.118804729979,6.28331450671
3.8,2.09320227338E7,5800.31405049,5.33689614112E-18,-121.916380509,1526.38715801,5.21661215635E-18,5.2166431327E-18,0.0336545558321,121.493410276,29769.0069115,1.16763851237E-7,1.46083164888E-23,32.127021127348605,131.540115758,-3.18846509435,68.8312635281,10.0,20.0,30.0,995.841100813,8.98270398463E-4,636.302482582,412.660275684,-0.00726709304623,-0.121188743256,-0.0469555984182,0.0,0.0,0.0,0.122000803982,6.62952742159
3.9,2.09320103822E7,5952.95272139,5.88295909133E-18,-125.115719708,1526.38625605,5.57512081418E-18,5.57515585605E-18,0.0354459624011,124.681618511,29756.6981543,1.26220003404E-7,1.61030262835E-23,32.12705891102369,134.482069326,-5.28402904839,69.6144746625,10.0,20.0,30.0,995.893912766,8.98675958642E-4,636.657288541,412.704045665,-0.0126586117382,-0.128005613526,-0.0475972000646,0.0,0.0,0.0,0.125195687966,6.98518681571
4.0,2.09319977107E7,6105.59130092,6.45758706445E-18,-128.314355105,1526.38533066,5.99145350192E-18,5.99149294994E-18,0.0372835619302,127.869122931,29744.0706113,1.36172833596E-7,1.76759272577E-23,32.12709767320749,137.406979844,-7.41682920751,70.2914561356,10.0,20.0,30.0,995.948089655,8.9909216852E-4,637.021450551,412.748949302,-0.018658443892,-0.134717900851,-0.0482915644378,0.0,0.0,0.0,0.128389350504,7.35030953944
4.1,2.09319847193E7,6258.22978674,7.06690940794E-18,-131.512268199,1526.38438184,6.16492481211E-18,6.16496905828E-18,0.0391673283096,131.055905033,29731.1243538,1.46634983104E-7,1.93437970937E-23,32.12713741390001,140.322576074,-9.58114912281,70.861028075,10.0,20.0,30.0,996.003630958,8.99519036985E-4,637.394979418,412.794986347,-0.0252745325096,-0.141279629964,-0.0490670333455,0.0,0.0,0.0,0.131581760159,7.72491287354
4.2,2.09319714082E7,6410.86817651,7.68756516969E-18,-134.709440455,1526.3834096,6.22853020745E-18,6.22857950972E-18,0.0410972347476,134.241946284,29717.859455,1.57619086037E-7,2.104269157E-23,32.12717813280129,143.23702108,-11.77132878,71.3215423417,10.0,20.0,30.0,996.060536136,8.99956573152E-4,637.777886225,412.842156544,-0.032510450908,-0.147643870864,-0.0499540500837,0.0,0.0,0.0,0.134772885487,8.10901452852
4.3,2.09319577775E7,6563.50646788,8.31319368741E-18,-137.905853303,1526.38241392,6.33261238833E-18,6.33266696799E-18,0.043073253764,137.427228113,29704.2759899,1.69137769099E-7,2.27552001686E-23,32.127219829711336,146.158935172,-13.9817214843,71.6707990202,10.0,20.0,30.0,996.118804641,9.00404786357E-4,638.170182328,412.890459629,-0.0403651650967,-0.153763078562,-0.050985012136,0.0,0.0,0.0,0.137962695035,8.50263264407
4.4,2.09319438271E7,6716.14465851,8.948536529E-18,-141.101488136,1526.38139481,6.4366944723E-18,6.43675458469E-18,0.0450953571935,140.611731913,29690.3740353,1.81203651438E-7,2.44943018085E-23,32.1272625043302,149.097430867,-16.2066448058,71.9059659716,10.0,20.0,30.0,996.178435907,9.00863686161E-4,638.57187936,412.939895335,-0.0488328236147,-0.159589449775,-0.0521941034203,0.0,0.0,0.0,0.141151157339,8.90578578842
4.5,2.09319295572E7,6868.78274606,9.58173974095E-18,-144.296326313,1526.38035228,6.33839205315E-18,6.33845787653E-18,0.0471635161808,143.795439042,29676.15367,1.9382934446E-7,2.62275494713E-23,32.127306156457855,152.062158039,-18.4403254382,72.0235008043,10.0,20.0,30.0,996.239429359,9.0133328235E-4,638.982989227,412.990463385,-0.0579025771133,-0.165075294388,-0.0536171067712,0.0,0.0,0.0,0.144338240927,9.3184929577
4.6,2.09319149679E7,7021.42072819,1.02130924341E-17,-147.490349152,1526.37928631,6.41356188476E-18,6.41363359837E-18,0.049277701182,146.978330817,29661.6149747,2.07027451619E-7,2.79557345914E-23,32.12735078579437,155.06335698,-20.6768376393,72.0190753482,10.0,20.0,30.0,996.301784406,9.01813584932E-4,639.403524115,413.042163498,-0.0675584298069,-0.170173419375,-0.0552911974986,0.0,0.0,0.0,0.147523914319,9.74077357527
4.7,2.09319000591E7,7174.05860255,1.08454279805E-17,-150.683537934,1526.37819692,6.17648139319E-18,6.17655919566E-18,0.0514378819578,150.160388521,29646.7580317,2.20810568222E-7,2.96866128753E-23,32.12739639223975,158.111916294,-22.9100347924,71.8875037647,10.0,20.0,30.0,996.365500444,9.0230460414E-4,639.833496481,413.094995385,-0.07777912474,-0.174837522708,-0.0572547190115,0.0,0.0,0.0,0.150708146021,10.172647491
4.8,2.09318848312E7,7326.69636679,1.14579296887E-17,-153.8758739,1526.37708409,5.83531739752E-18,5.83540133536E-18,0.0536440275754,153.341593392,29631.5829254,2.35191281308E-7,3.13632039446E-23,32.12744297539401,161.219431368,-25.1334735687,71.6226768865,10.0,20.0,30.0,996.430576856,9.02806350428E-4,640.272919062,413.148958752,-0.0885380646229,-0.179022594686,-0.0595469416396,0.0,0.0,0.0,0.153890904532,10.6141349807
4.9,2.0931869284E7,7479.33401858,1.20412300425E-17,-157.067338252,1526.37594784,5.66762565745E-18,5.66771569797E-18,0.0558961064052,156.521926634,29616.089742,2.50182169342E-7,3.29598665165E-23,32.12749053505719,164.398257379,-27.340330237,71.2175074013,10.0,20.0,30.0,996.497013013,9.03318834475E-4,640.721804868,413.204053295,-0.0998032697843,-0.182685323996,-0.0622078059275,0.0,0.0,0.0,0.157072158341,11.0652567451
5.0,2.09318534177E7,7631.97155558,1.25826655517E-17,-160.257912149,1526.37478816,5.17611878225E-18,5.17621478277E-18,0.0581940861199,159.701369403,29600.2785698,2.65795802135E-7,3.4441937311E-23,32.12753907102931,167.661548298,-29.5233088966,70.6638932532,10.0,20.0,30.0,996.56480827,9.03842067184E-4,641.180167188,413.260278708,-0.111537374563,-0.185784505736,-0.0652776518077,0.0,0.0,0.0,0.160251875925,11.5260339095
5.1,2.09318372325E7,7784.60897543,1.30833348661E-17,-163.447576709,1526.37360504,4.56896359537E-18,4.56906540259E-18,0.0605379336921,162.87990282,29584.1494985,2.82044740608E-7,3.58124234208E-23,32.127588582910406,171.023269833,-31.6745419012,69.9527103284,10.0,20.0,30.0,996.63396197,9.0437605968E-4,641.648019584,413.317634675,-0.123697663231,-0.188281448552,-0.0687969351856,0.0,0.0,0.0,0.163430025752,11.9964880227
5.2,2.09318207282E7,7937.24627581,1.35168701813E-17,-166.636313007,1526.3723985,3.8230304582E-18,3.823137691E-18,0.0629276153913,166.057507958,29567.7026201,2.98941536577E-7,3.69991491896E-23,32.12763907050048,174.498169637,-33.7854836039,69.0738503164,10.0,20.0,30.0,996.704473444,9.04920823311E-4,642.125375898,413.376120874,-0.136236146298,-0.190140377991,-0.0728059335893,0.0,0.0,0.0,0.166606576277,12.4766410563
5.3,2.09318039052E7,8089.88345435,1.38356244191E-17,-169.824102076,1526.37116853,2.52776816165E-18,2.52788002302E-18,0.0653630967805,169.234165848,29550.9380285,3.16498732611E-7,3.78716918297E-23,32.12769053349958,178.101682208,-35.8467999482,68.0163256749,10.0,20.0,30.0,996.776342007,9.05476369648E-4,642.612250246,413.435736979,-0.14909967778,-0.191328833121,-0.0773444426465,0.0,0.0,0.0,0.169781495948,12.9665154039
5.4,2.09317867635E7,8242.52050873,1.40876494149E-17,-173.010924902,1526.36991512,2.86892830243E-18,2.86904433885E-18,0.0678443427189,172.409857479,29533.8558192,3.34728861809E-7,3.8561581067E-23,32.127742971707725,-178.150261092,-37.8482585423,66.7684707638,10.0,20.0,30.0,996.849566962,9.06042710486E-4,643.108657022,413.496482653,-0.16223011377,-0.191818053479,-0.0824514652521,0.0,0.0,0.0,0.172954753196,13.4661338802
5.5,2.09317693031E7,8395.1574366,1.43235701783E-17,-176.196762428,1526.36863829,2.0015643825E-18,2.00168453468E-18,0.070371317357,175.584563791,29516.4560898,3.53644447611E-7,3.92073904926E-23,32.12779638472494,-174.24155396,-39.7786268977,65.318275804,10.0,20.0,30.0,996.924147599,9.06619857842E-4,643.614610896,413.558357555,-0.175564512368,-0.191583353356,-0.0881648953793,0.0,0.0,0.0,0.176126316446,13.9755197205
5.6,2.09317515241E7,8547.79423561,1.44822955271E-17,-179.381595549,1526.36733802,9.26033614878E-19,9.26157294437E-19,0.0729439841313,178.75826568,29498.7389399,3.73258003623E-7,3.96418972019E-23,32.12785077225126,-170.156412573,-41.6255906457,63.653896914,10.0,20.0,30.0,997.000083195,9.07207823954E-4,644.130126816,413.621361338,-0.18903537475,-0.190604480509,-0.0945211985676,0.0,0.0,0.0,0.179296154109,14.4946965791
5.7,2.09317334268E7,8700.43090342,1.4554833809E-17,-182.565405114,1526.36601433,6.19563571298E-19,6.1969007656E-19,0.075562305767,181.930943996,29480.7044708,3.93582033395E-7,3.98404881108E-23,32.12790613398671,-165.880094758,-43.3757087894,61.764388234,10.0,20.0,30.0,997.077373011,9.07806621284E-4,644.655220008,413.685493645,-0.202570926881,-0.188865956377,-0.101555091189,0.0,0.0,0.0,0.182464234584,15.0236885293
5.8,2.09317150111E7,8853.06743769,1.45585033455E-17,-185.748171926,1526.3646672,1.96361340261E-20,1.97648772409E-20,0.0782262442724,185.102579538,29462.3527858,4.14629030242E-7,3.98505675563E-23,32.127962469731315,-161.399881384,-45.0144290638,59.6406964352,10.0,20.0,30.0,997.156016298,9.08416262517E-4,645.189905972,413.750754117,-0.216095441113,-0.186357394959,-0.109299220645,0.0,0.0,0.0,0.185630526259,15.5625200615
5.9,2.09316962772E7,9005.70383608,1.44947352836E-17,-188.929876736,1526.36329665,-3.15745968646E-19,-3.15615593677E-19,0.080935760938,188.27315306,29443.6839903,4.36411477026E-7,3.96760524827E-23,32.12801977898512,-156.70633966,-46.5261923086,57.2769371766,10.0,20.0,30.0,997.236012291,9.09036760559E-4,645.734200487,413.817142384,-0.229529596588,-0.183073797579,-0.117783848704,0.0,0.0,0.0,0.188794997509,16.1112160832
6.0,2.09316772252E7,9158.34009624,1.44422417982E-17,-192.110500249,1526.36190266,-8.28801693296E-19,-8.28669603513E-19,0.0836908163358,191.442645264,29424.6981913,4.5894184604E-7,3.95323993218E-23,32.12807806164814,-151.794844745,-47.894658498,54.6719298131,10.0,20.0,30.0,997.317360212,9.09668128537E-4,646.288119613,413.884658072,-0.242790877135,-0.179015820878,-0.127036540191,0.0,0.0,0.0,0.191957616697,16.6698019173
6.1,2.09316578551E7,9310.97621583,1.43021084156E-17,-195.290023117,1526.36048524,-2.46631058268E-18,-2.46617760956E-18,0.086491370313,194.611036804,29405.3954979,4.82232598679E-7,3.91488517035E-23,32.1281373172204,-146.667264837,-49.1030857059,51.8308954844,10.0,20.0,30.0,997.400059272,9.10310379803E-4,646.851679682,413.953300798,-0.255794005033,-0.17419001544,-0.137081859292,0.0,0.0,0.0,0.195118352175,17.2383033017
6.2,2.09316381672E7,9463.61219251,1.40633557839E-17,-198.468425944,1526.35904439,-2.47498637716E-18,-2.47485349571E-18,0.0893373819926,197.778308282,29385.7760213,5.06296185396E-7,3.84953553764E-23,32.12819754540196,-141.333618268,-50.1348829534,48.7671270678,10.0,20.0,30.0,997.484108666,9.10963527928E-4,647.424897309,414.023070175,-0.268451408775,-0.168609032655,-0.147941075705,0.0,0.0,0.0,0.198277172279,17.8167463877
6.3,2.09316181615E7,9616.24802393,1.37814806021E-17,-201.645689278,1526.35758011,-3.02720882133E-18,-3.02707651853E-18,0.0922288097689,200.944440248,29365.8398742,5.31145045356E-7,3.77238197506E-23,32.12825874589282,-135.813406822,-50.9743351935,45.5033351994,10.0,20.0,30.0,997.569507577,9.11627586707E-4,648.007789383,414.093965806,-0.280673722676,-0.162291797517,-0.15963188289,0.0,0.0,0.0,0.201434045335,18.4051577393
6.4,2.09315978381E7,9768.88370775,1.33455328522E-17,-204.82179362,1526.3560924,-5.42112930292E-18,-5.4209991672E-18,0.095165611306,204.1094132,29345.5871718,5.56791606321E-7,3.65305425044E-23,32.12832091829303,-130.136255809,-51.6074629849,42.072300908,10.0,20.0,30.0,997.656255173,9.12302570153E-4,648.600373074,414.165987289,-0.292370315928,-0.155263645249,-0.172168130602,0.0,0.0,0.0,0.204588939655,19.0035643321
6.5,2.09315771972E7,9921.51924163,1.27551366842E-17,-207.996719412,1526.35458125,-6.91299349742E-18,-6.91286719075E-18,0.0981477435372,207.273207582,29325.0180309,5.83248284475E-7,3.49144935488E-23,32.128384062402624,-124.341501362,-52.0229358419,38.5164753347,10.0,20.0,30.0,997.74435061,9.12988492503E-4,649.202665829,414.239134216,-0.303449848465,-0.147556419834,-0.185559573907,0.0,0.0,0.0,0.207741823537,19.6119935522
6.6,2.09315562388E7,10074.1546232,1.20012137209E-17,-211.170447046,1526.35304668,-8.01743601205E-18,-8.01731535763E-18,0.101175162658,210.435803784,29304.1325703,6.10527484145E-7,3.28508213989E-23,32.12844817762163,-118.476503535,-52.2129191828,34.8863051423,10.0,20.0,30.0,997.833793029,9.13685368216E-4,649.814685374,414.31340617,-0.313820850748,-0.139208532705,-0.199811640763,0.0,0.0,0.0,0.210892665267,20.2304731949
6.7,2.09315349631E7,10226.7898502,1.11595713897E-17,-214.342956857,1526.35148867,-8.74602165016E-18,-8.74590777162E-18,0.104247824126,213.597182141,29282.9309107,6.38641597651E-7,3.05470318645E-23,32.12851326385007,-112.593730106,-52.17371735,31.2373285535,10.0,20.0,30.0,997.924581561,9.1439321197E-4,650.436449713,414.388802728,-0.323392324367,-0.130264980094,-0.214925220232,0.0,0.0,0.0,0.214041433117,20.859031464
6.8,2.09315133702E7,10379.4249202,1.02661184795E-17,-217.514229124,1526.34990723,-9.40521821649E-18,-9.4051119052E-18,0.10736568266,216.757322932,29261.4131751,6.6760300509E-7,2.81014171378E-23,32.128579320488,-106.746980279,-51.906093445,27.626411237,10.0,20.0,30.0,998.016715319,9.15112038664E-4,651.06797713,414.465323461,-0.332074360175,-0.120777317737,-0.230896473275,0.0,0.0,0.0,0.217188095345,21.4976969699
6.9,2.09314914603E7,10532.0598308,9.25204430623E-18,-220.68424407,1526.34830236,-1.07351743811E-17,-1.07350771747E-17,0.110528692234,219.91620638,29239.5794881,6.97424074159E-7,2.53256211826E-23,32.12864634733544,-100.987374647,-51.4152022514,24.1077484421,10.0,20.0,30.0,998.110193407,9.15841863418E-4,651.709286187,414.542967933,-0.339778770438,-0.110803591902,-0.247716667999,0.0,0.0,0.0,0.220332620194,22.1464987291
7.0,2.09314692334E7,10684.6945799,8.1042806352E-18,-223.852981862,1526.34667406,-1.20766952027E-17,-1.20766088327E-17,0.113736806077,223.073812651,29217.4299764,7.28117159916E-7,2.2183871123E-23,32.12871434389243,-95.359811411,-50.7101498521,20.7293334238,10.0,20.0,30.0,998.205014911,9.16582701573E-4,652.360395726,414.621735698,-0.346419731352,-0.100408225914,-0.265372041101,0.0,0.0,0.0,0.223474975895,22.8054661626
7.1,2.09314466897E7,10837.3291649,6.86446084743E-18,-227.020422605,1526.34502233,-1.25855485721E-17,-1.258547438E-17,0.116989976667,226.23012185,29194.9647688,7.59694604592E-7,1.87901289531E-23,32.12878330985902,-89.9004435204,-49.8032661198,17.5304468383,10.0,20.0,30.0,998.301178907,9.1733456869E-4,653.021324868,414.701626308,-0.3519144321,-0.0896618616738,-0.283843687154,0.0,0.0,0.0,0.226615130663,23.4746290946
7.2,2.09314238294E7,10989.9635835,5.51940106354E-18,-230.186546349,1526.34334716,-1.4019587598E-17,-1.40195271115E-17,0.120288155732,229.385114027,29172.1839959,7.92168737402E-7,1.5108305358E-23,32.12885324473522,-84.6354361466,-48.7092200088,14.5404265742,10.0,20.0,30.0,998.398684457,9.18097480551E-4,653.692093012,414.782639304,-0.356183726507,-0.0786411558683,-0.303107477215,0.0,0.0,0.0,0.229753052701,24.1540177516
7.3,2.09314006525E7,11142.5978335,4.06771352539E-18,-233.351333082,1526.34164856,-1.49679038352E-17,-1.49678586447E-17,0.123631294246,232.538769169,29149.0877905,8.25551874278E-7,1.11346005038E-23,32.12892414832108,-79.5809471725,-47.4441127093,11.7786607192,10.0,20.0,30.0,998.497530608,9.18871453155E-4,654.372719839,414.864774222,-0.359152783236,-0.0674285309071,-0.323134008116,0.0,0.0,0.0,0.232888710193,24.8436627605
7.4,2.09313771592E7,11295.2319125,2.51448677748E-18,-236.514762732,1526.33992653,-1.57311826709E-17,-1.57311543573E-17,0.127019342423,235.691067205,29125.6762873,8.59856317776E-7,6.88294219337E-24,32.128996019916634,-74.7440465186,-46.0246569807,9.25551950402,10.0,20.0,30.0,998.597716394,9.19656502725E-4,655.063225307,414.94803059,-0.360751730372,-0.0561118808553,-0.343888583617,0.0,0.0,0.0,0.236022071313,25.5435951477
7.5,2.09313533496E7,11447.8658181,9.4576312789E-19,-239.676815165,1526.33818107,-1.5939349754E-17,-1.59393389621E-17,0.130452249718,238.841987999,29101.949623,8.95094356738E-7,2.58885446333E-24,32.12906885942193,-70.1241986752,-44.4675085889,6.97385060917,10.0,20.0,30.0,998.699240837,9.204526457E-4,655.763629657,415.032407929,-0.360916290197,-0.0447842329479,-0.365331228446,0.0,0.0,0.0,0.239153104217,26.2538463376
7.6,2.09313292239E7,11600.4995479,-7.3930265716E-19,-242.837470187,1526.33641217,-1.77897214795E-17,-1.77897300268E-17,0.133929964823,241.991511358,29077.9079363,9.3127826619E-7,-2.02370881847E-24,32.129142666237,-65.7149574736,-42.7887738578,4.93068686113,10.0,20.0,30.0,998.802102945,9.21259898741E-4,656.473953408,415.117905754,-0.359588399896,-0.0335433655452,-0.387416736065,0.0,0.0,0.0,0.242281777047,26.9744481511
7.7,2.09313047821E7,11753.1330997,-2.59969114991E-18,-245.996707538,1526.33461985,-1.92237592985E-17,-1.92237897451E-17,0.137452435663,245.139617021,29053.551368,9.68420307113E-7,-7.11619791484E-24,32.12921743996187,-61.505611735,-41.0036858394,3.11890494192,10.0,20.0,30.0,998.90630171,9.22078278726E-4,657.194217361,415.204523572,-0.356716813929,-0.0224913836797,-0.410094750821,0.0,0.0,0.0,0.24540805793,27.7054328043
7.8,2.09312800246E7,11905.7664711,-4.5734148697E-18,-249.154506897,1526.33280409,-1.9825129554E-17,-1.98251838037E-17,0.141019609395,248.286284667,29028.8800608,1.00653272614E-6,-1.25189346901E-23,32.129293180196605,-57.4826253805,-39.1264233966,1.52867865459,10.0,20.0,30.0,999.011836113,9.22907802754E-4,657.924442594,415.292260883,-0.352257683831,-0.0117342536354,-0.433309884926,0.0,0.0,0.0,0.248531914977,28.4468329068
7.9,2.09312549513E7,12058.3996597,-6.59247262609E-18,-252.310847877,1526.3309649,-1.99176472829E-17,-1.99177264733E-17,0.144631432402,251.431493908,29003.8941596,1.0456277555E-6,-1.8045778728E-23,32.12936988654123,-53.6308046605,-37.1700406524,0.148659337649,10.0,20.0,30.0,999.118705122,9.23748488141E-4,658.66465047,415.38111718,-0.346175111205,-0.00138129827943,-0.457001870551,0.0,0.0,0.0,0.251653316285,29.1986814604
8.0,2.09312295624E7,12211.0326633,-8.65131327294E-18,-255.465710026,1526.32910227,-2.02877204545E-17,-2.02878256758E-17,0.148287850293,254.575224293,28978.5938113,1.08571761269E-6,-2.36815353802E-23,32.12944755849578,-49.9341865944,-35.146475039,-1.03312257979,10.0,20.0,30.0,999.22690769,9.24600352422E-4,659.414862629,415.471091949,-0.338441669759,0.00845534484718,-0.481105747047,0.0,0.0,0.0,0.254772229933,29.9610118577
8.1,2.09312038582E7,12363.6654794,-1.06278122461E-17,-258.619072826,1526.32721621,-1.95475702905E-17,-1.95477011465E-17,0.151988807894,257.717455304,28952.9791648,1.12681450028E-6,-2.90919091447E-23,32.129526195560295,-46.3766775416,-33.0666069118,-2.02860610463,10.0,20.0,30.0,999.336442756,9.25463413352E-4,660.175100994,415.562184668,-0.329038892328,0.0176613004059,-0.505552083163,0.0,0.0,0.0,0.257888623986,30.7338578801
8.2,2.09311778387E7,12516.2981058,-1.2617726251E-17,-261.770915694,1526.32530672,-1.98251242626E-17,-1.9825281513E-17,0.155734249255,260.858166355,28927.0503709,1.16893060574E-6,-3.45390181839E-23,32.129605797434834,-42.9424856638,-30.9403497478,-2.84925472175,10.0,20.0,30.0,999.447309248,9.26337688901E-4,660.945387769,415.654394809,-0.317957718913,0.026120564559,-0.530267233865,0.0,0.0,0.0,0.261002466492,31.5172536965
8.3,2.09311515041E7,12668.93054,-1.45858981945E-17,-264.921217976,1526.3233738,-1.8992454904E-17,-1.89926388708E-17,0.159524117638,263.997336794,28900.8075828,1.21207810121E-6,-3.992662581E-23,32.129686363519426,-39.6163932848,-28.7767557712,-3.50577220377,10.0,20.0,30.0,999.559506076,9.2722319726E-4,661.725745438,415.747721835,-0.305198901942,0.0337161438925,-0.555173631169,0.0,0.0,0.0,0.264113725483,32.3112338614
8.4,2.09311248545E7,12821.5627797,-1.64939328337E-17,-268.069958952,1526.32141745,-1.96863419095E-17,-1.96865524144E-17,0.163358355517,267.134945901,28874.2509556,1.25626914332E-6,-4.51496309068E-23,32.129767893514106,-36.3839107487,-26.5841267268,-4.00793792749,10.0,20.0,30.0,999.673032142,9.28119956836E-4,662.516196766,415.842165204,-0.290773365092,0.0403307209183,-0.580190108161,0.0,0.0,0.0,0.267222368975,33.1158333138
8.5,2.09310978901E7,12974.1948227,-1.84579409638E-17,-271.217117834,1526.31943766,-1.99638949839E-17,-1.99641333204E-17,0.167236904574,270.270972886,28847.3806464,1.30151587285E-6,-5.05258691214E-23,32.129850386718935,-33.2313462995,-24.3701232738,-4.36452760831,10.0,20.0,30.0,999.78788633,9.29027986254E-4,663.316764803,415.937724364,-0.274702512224,0.0458473428809,-0.605232255198,0.0,0.0,0.0,0.270328364969,33.9310873748
8.6,2.09310706111E7,13126.8266665,-2.04339762267E-17,-274.362673762,1526.31743444,-1.93625211933E-17,-1.93627881055E-17,0.171159705697,273.40539689,28820.1968145,1.34783041466E-6,-5.59350445073E-23,32.12993384283395,-30.1458190694,-22.1418691742,-4.58329291569,10.0,20.0,30.0,999.904067513,9.29947304354E-4,664.127472876,416.03439876,-0.257018483187,0.0501501303747,-0.630212807012,0.0,0.0,0.0,0.273431681447,34.7570317461
8.7,2.09310430176E7,13279.4583088,-2.23711533701E-17,-277.506605806,1526.31540778,-1.93625179082E-17,-1.93628134729E-17,0.175126698975,276.538196983,28792.6996212,1.39522487743E-6,-6.12378662593E-23,32.13001826135919,-27.1152356047,-19.906048299,-4.67098023141,10.0,20.0,30.0,1000.02157455,9.30877930197E-4,664.948344596,416.132187824,-0.237764353487,0.0531250020773,-0.655042059277,0.0,0.0,0.0,0.276532286376,35.5937025086
8.8,2.09310151098E7,13432.0897473,-2.42542067977E-17,-280.648892966,1526.31335769,-1.8391069181E-17,-1.83913932531E-17,0.179137823697,279.669352163,28764.8892299,1.4437113534E-6,-6.63925467307E-23,32.130103641694696,-24.1282448933,-17.6689936641,-4.633374439,10.0,20.0,30.0,1000.14040628,9.31819883057E-4,665.779403858,416.231090985,-0.216994275085,0.0546604117199,-0.679628312952,0.0,0.0,0.0,0.279630147705,36.4411361199
8.9,2.09309868879E7,13584.7209796,-2.6054918312E-17,-283.789514168,1526.31128417,-1.77896945137E-17,-1.7790046542E-17,0.183193018345,282.798841357,28736.7658063,1.49330191813E-6,-7.13218420334E-23,32.13018998344052,-21.1741826293,-15.4367684335,-4.47535805218,10.0,20.0,30.0,1000.26056155,9.32773182426E-4,666.620674835,416.331107663,-0.194773555852,0.0546480932514,-0.703878344538,0.0,0.0,0.0,0.282725233368,37.299369413
9.0,2.0930958352E7,13737.3520033,-2.78727453647E-17,-286.928448267,1526.30918722,-1.8483579765E-17,-1.84839605196E-17,0.187292220593,285.92664342,28708.3295179,1.54400863041E-6,-7.62980032747E-23,32.13027728599671,-18.2430123108,-13.2152392142,-4.20097934457,10.0,20.0,30.0,1000.38203916,9.33737848012E-4,667.472181985,416.432237271,-0.171178675535,0.0529838100076,-0.727697900161,0.0,0.0,0.0,0.28581751128,38.1684395941
9.1,2.09309295023E7,13889.9828162,-2.97881790968E-17,-290.065674044,1526.30706684,-2.00332616468E-17,-2.00336730166E-17,0.191435367304,289.052737131,28679.5805345,1.59584353192E-6,-8.15413651667E-23,32.130365549063306,-15.3252685267,-11.0101421388,-3.813525628,10.0,20.0,30.0,1000.50483792,9.34713899738E-4,668.333950047,416.534479214,-0.146297236393,0.0495681035718,-0.750992211233,0.0,0.0,0.0,0.288906949341,39.0483842408
9.2,2.09309003389E7,14042.6134159,-3.17942805853E-17,-293.201170205,1526.30492302,-2.00101272739E-17,-2.00105710942E-17,0.195622394526,292.177101198,28650.5190281,1.64881864706E-6,-8.70329345951E-23,32.13045477184035,-12.412006234,-8.82714224259,-3.31559964012,10.0,20.0,30.0,1000.62895662,9.35701357744E-4,669.206004044,416.63783289,-0.120227847008,0.0443070379154,-0.773666529236,0.0,0.0,0.0,0.291993515431,39.9392413001
9.3,2.09308708621E7,14195.2438,-3.38346134623E-17,-296.334915383,1526.30275576,-2.05421041033E-17,-2.05425814532E-17,0.199853237486,295.299714252,28621.1451727,1.70294598268E-6,-9.26182250032E-23,32.1305449540279,-9.49475879449,-6.67188656364,-2.70919830842,10.0,20.0,30.0,1000.75439405,9.36700242384E-4,670.088369282,416.74229769,-0.0930799381184,0.0371129343244,-0.795626677021,0.0,0.0,0.0,0.295077177415,40.8410490863
9.4,2.0930841072E7,14347.8739663,-3.58851228642E-17,-299.466888133,1526.30056508,-2.05767932213E-17,-2.05773048518E-17,0.204127830592,298.420554849,28591.4591443,1.75823752792E-6,-9.82313896173E-23,32.130636095025984,-6.56550687358,-4.55005123751,-1.99579408772,10.0,20.0,30.0,1000.88114895,9.37710574228E-4,670.981071347,416.847872995,-0.0649735097148,0.0279050925697,-0.816779613848,0.0,0.0,0.0,0.298157903141,41.7538462792
9.5,2.09308109688E7,14500.5039123,-3.79588770099E-17,-302.597066935,1526.29835096,-2.08890377796E-17,-2.08895846338E-17,0.208446107423,301.539601468,28561.4611215,1.81470525393E-6,-1.039082016E-22,32.13072819433468,-3.6166598907,-2.46738266262,-1.17641971524,10.0,20.0,30.0,1001.00922009,9.38732374059E-4,671.884136111,416.954558182,-0.0360388089917,0.0166104937457,-0.837034011258,0.0,0.0,0.0,0.301235660436,42.6776719217
9.6,2.09307805526E7,14653.1336357,-4.0059229666E-17,-305.725430192,1526.29611341,-2.10567217276E-17,-2.10573048074E-17,0.212808000728,304.656832512,28531.1512846,1.87236111368E-6,-1.09657842056E-22,32.13082125125401,-0.641051446118,-0.429732579087,-0.251757650633,10.0,20.0,30.0,1001.13860619,9.39765662876E-4,672.797589727,417.062352617,-0.0064159391553,0.00316448020182,-0.856300836712,0.0,0.0,0.0,0.304310417113,43.6125654177
9.7,2.09307498238E7,14805.7631342,-4.21646196334E-17,-308.851956229,1526.29385243,-2.10950238933E-17,-2.10956438947E-17,0.217213442427,307.772226304,28500.5298162,1.93121704171E-6,-1.15421290001E-22,32.13091526538404,2.36805004512,1.55691334942,0.777764299076,10.0,20.0,30.0,1001.26930598,9.40810461893E-4,673.721458633,417.171255662,0.0237456005169,-0.0124885919863,-0.874493941843,0.0,0.0,0.0,0.307382140965,44.5585665303
9.8,2.09307187823E7,14958.3924054,-4.42840674416E-17,-311.976623291,1526.29156801,-2.12569247826E-17,-2.12575825375E-17,0.221662363599,310.885761093,28469.5969013,1.99128495397E-6,-1.21223238557E-22,32.1310102362248,5.41691448499,3.48641412779,1.91186962249,10.0,20.0,30.0,1001.40131817,9.41866792534E-4,674.65576955,417.281266669,0.0542874425668,-0.0303947325085,-0.891530652051,0.0,0.0,0.0,0.310450799768,45.5157153791
9.9,2.09306874285E7,15111.021447,-4.64023580877E-17,-315.099409548,1526.28926016,-2.11759640594E-17,-2.11766601768E-17,0.226154694483,313.997415043,28438.3527267,2.05257674744E-6,-1.2702203853E-22,32.13110616307636,8.51130624647,5.35246013782,3.15032061773,10.0,20.0,30.0,1001.53464146,9.4293467644E-4,675.600549481,417.392384982,0.085042945987,-0.0505897327019,-0.907332354078,0.0,0.0,0.0,0.313516361281,46.4840524381
10.0,2.09306557625E7,15263.6502566,-4.84933550388E-17,-318.220293085,1526.28692888,-2.08058824333E-17,-2.08066171253E-17,0.230690364474,317.107166243,28406.7974817,2.11510430005E-6,-1.32746143785E-22,32.13120304543875,11.6564230389,7.14856915329,4.49279575761,10.0,20.0,30.0,1001.66927452,9.44014135464E-4,676.555825715,417.504609939,0.115837855974,-0.0730986221464,-0.92182507815,0.0,0.0,0.0,0.316578793243,47.4636185337
10.1,2.09306237845E7,15416.278832,-5.05013158151E-17,-321.339251909,1526.28457417,-1.9510614638E-17,-1.95113872511E-17,0.23526930212,320.2149927,28374.9313576,2.17887947043E-6,-1.38242964042E-22,32.13130088261204,14.8568178235,8.86809305775,5.93875652881,10.0,20.0,30.0,1001.80521602,9.45105191671E-4,677.521625824,417.617940868,0.146491026774,-0.0979351701669,-0.934940071215,0.0,0.0,0.0,0.319638063376,48.4544548418
10.2,2.09305914947E7,15568.9071707,-5.24690302317E-17,-324.456263947,1526.28219602,-1.98806810771E-17,-1.98814915811E-17,0.239891435116,323.320872338,28342.7545481,2.24391409758E-6,-1.43629632087E-22,32.13139967419625,18.1163050389,10.5042367926,7.48730431248,10.0,20.0,30.0,1001.94246462,9.4620786734E-4,678.497977662,417.732377093,0.176815205186,-0.12510143628,-0.946614357762,0.0,0.0,0.0,0.322694139385,49.4566028858
10.3,2.09305588933E7,15721.5352704,-5.44274919843E-17,-327.571307042,1526.27979444,-1.91405241883E-17,-1.91413730179E-17,0.244556690301,326.424783,28310.2672488,2.3102200007E-6,-1.48990990464E-22,32.13149941959148,21.437853629,12.0500910794,9.1370291451,10.0,20.0,30.0,1002.08101895,9.4732218496E-4,679.48490937,417.847917926,0.206617871883,-0.154587373438,-0.956791284718,0.0,0.0,0.0,0.325746988953,50.4701045341
10.4,2.09305259805E7,15874.1631288,-5.62596650325E-17,-330.684358954,1526.27736943,-1.83078484218E-17,-1.83087341643E-17,0.249264993656,329.526702448,28277.4696578,2.37780897901E-6,-1.54006661807E-22,32.131600118097744,24.8234709054,13.4986803147,10.8858537887,10.0,20.0,30.0,1002.22087765,9.48448167234E-4,680.482449372,417.964562673,0.235702137323,-0.186370487722,-0.965421046911,0.0,0.0,0.0,0.328796579749,51.4950019975
10.5,2.09304927565E7,16026.7907435,-5.79960804813E-17,-333.795397363,1526.27492098,-1.71050980409E-17,-1.71060197122E-17,0.254016270297,332.626608359,28244.3619754,2.44669281144E-6,-1.58760221481E-22,32.131701769115104,28.2740830784,14.8430266788,12.7308783889,10.0,20.0,30.0,1002.36203932,9.49585837074E-4,681.490626376,418.082310634,0.263867688627,-0.220415557892,-0.972461189607,0.0,0.0,0.0,0.331842879421,52.5313378269
10.6,2.09304592215E7,16179.4181122,-5.97380461548E-17,-336.90439986,1526.27244911,-1.70125704183E-17,-1.7013528616E-17,0.258810444473,335.724478327,28210.944404,2.51688325636E-6,-1.63528991991E-22,32.13180437214362,31.7894202097,16.0762308903,14.6682329753,10.0,20.0,30.0,1002.50450257,9.50735217605E-4,682.509469374,418.201161098,0.290911783441,-0.256674417953,-0.977877084707,0.0,0.0,0.0,0.334885855599,53.5791549101
10.7,2.09304253757E7,16332.0452326,-6.13329063607E-17,-340.011343957,1526.2699538,-1.52547080007E-17,-1.52557008533E-17,0.263647439563,338.820289861,28177.2171484,2.58839205147E-6,-1.6789508798E-22,32.131907926483336,35.3679151778,17.1915691509,16.6929469362,10.0,20.0,30.0,1002.64826598,9.51896332162E-4,683.539007644,418.321113348,0.316630286434,-0.295085805623,-0.981642377216,0.0,0.0,0.0,0.337925475896,54.6384964702
10.8,2.09303912193E7,16484.6721022,-6.28167433226E-17,-343.116207076,1526.26743506,-1.3866919688E-17,-1.38679458475E-17,0.268527178069,341.914020383,28143.1804154,2.66123091346E-6,-1.71957280738E-22,32.132012431534314,39.0066276697,18.1826046662,18.7988460749,10.0,20.0,30.0,1002.79332812,9.5306920429E-4,684.579270747,418.442166658,0.340818743749,-0.335575279261,-0.983739398718,0.0,0.0,0.0,0.340961707903,55.709406062
10.9,2.09303567525E7,16637.2987188,-6.4226564452E-17,-346.218966555,1526.26489288,-1.44220214497E-17,-1.44230801283E-17,0.273449581614,345.005647233,28108.8344144,2.73541153781E-6,-1.75816874823E-22,32.1321178866966,42.7012048672,19.0433107612,20.9784885428,10.0,20.0,30.0,1002.93968755,9.54253857743E-4,685.630288529,418.564320295,0.363273490385,-0.378055205528,-0.98415954468,0.0,0.0,0.0,0.343994519195,56.7919275697
11.0,2.09303219756E7,16789.92508,-6.55817986301E-17,-349.319599647,1526.26232728,-1.24791211899E-17,-1.24802118897E-17,0.278414570939,348.095147662,28074.1793569,2.81094559851E-6,-1.79527055044E-22,32.13222429117025,46.4458899814,19.7682011345,23.2231504683,10.0,20.0,30.0,1003.08734281,9.55450316485E-4,686.692091123,418.687573518,0.383792785225,-0.422424819681,-0.982903612543,0.0,0.0,0.0,0.347023877329,57.8861052039
11.1,2.09302868887E7,16942.5511835,-6.68056554103E-17,-352.418083516,1526.25973824,-1.118385083E-17,-1.11849717401E-17,0.283422065899,351.182498833,28039.2154565,2.8878447479E-6,-1.82877610275E-22,32.13233164455533,50.233587811,20.3524614005,25.5228701491,10.0,20.0,30.0,1003.23629244,9.56658604691E-4,687.764708944,418.811925577,0.402177968091,-0.468570360051,-0.979982097699,0.0,0.0,0.0,0.350049749841,58.9919834993
11.2,2.0930251492E7,17095.1770269,-6.76372323633E-17,-355.514395237,1526.25712578,-6.55791123502E-18,-6.55905606968E-18,0.288471985454,354.267677822,28003.9429295,2.96612061634E-6,-1.85154328471E-22,32.132439946151884,54.0559929258,20.7920749517,27.8665561334,10.0,20.0,30.0,1003.38653495,9.57878746743E-4,688.848172695,418.937375715,0.418234633019,-0.516365277894,-0.975415444625,0.0,0.0,0.0,0.35307210425,60.1096073111
11.3,2.09302157859E7,17247.8026078,-6.81912525222E-17,-358.6085118,1526.25448988,-5.63271495304E-18,-5.63387921151E-18,0.293564247673,357.350661618,27968.3619941,3.04578481201E-6,-1.86671254735E-22,32.13254919515997,57.9037810796,21.0839355771,30.2421595292,10.0,20.0,30.0,1003.53806884,9.5911076723E-4,689.94251336,419.063923166,0.43177381166,-0.565670523389,-0.969234250629,0.0,0.0,0.0,0.356090908054,61.2390218124
11.4,2.09301797704E7,17400.4279241,-6.85768878089E-17,-361.700410103,1526.25183055,-2.11699820508E-18,-2.11817914367E-18,0.298698769722,360.43142712,27932.4728711,3.12684892066E-6,-1.87727240228E-22,32.13265939097965,61.7668585118,21.2259393772,32.6369049633,10.0,20.0,30.0,1003.6908926,9.6035469095E-4,691.047762212,419.191567157,0.442613160569,-0.616334908173,-0.961479419861,0.0,0.0,0.0,0.359106128735,62.3802724915
11.5,2.09301434459E7,17553.0529732,-6.86424077378E-17,-364.790066955,1526.24914779,-1.19180181676E-18,-1.192993982E-18,0.303875467866,363.509951135,27896.2757834,3.20932450532E-6,-1.87906924102E-22,32.13277053301098,65.6346577083,21.2170494307,35.0375685292,10.0,20.0,30.0,1003.84500471,9.61610542908E-4,692.163950808,419.320306906,0.450578145938,-0.66819554439,-0.952202265469,0.0,0.0,0.0,0.362117733755,63.5334051483
11.6,2.09301068125E7,17705.6777528,-6.88004451981E-17,-367.877459075,1526.2464416,-6.36679754127E-19,-6.37884778338E-19,0.309094257462,366.586210384,27859.7709564,3.29322310617E-6,-1.88339876299E-22,32.13288262055401,69.4964629093,21.0573283759,37.43078579,10.0,20.0,30.0,1004.00040363,9.62878348318E-4,693.291110989,419.450141622,0.455503219208,-0.721078359797,-0.941464558003,0.0,0.0,0.0,0.365125690555,64.6984658918
11.7,2.09300698705E7,17858.3022607,-6.85643524288E-17,-370.962563092,1526.24371198,6.02466894767E-18,6.0234579865E-18,0.314355052954,369.660181494,27822.9586176,3.37855624016E-6,-1.8769390707E-22,32.132995652908804,73.3417451017,20.747936397,39.8033693611,10.0,20.0,30.0,1004.1570878,9.64158132596E-4,694.429274885,419.581070508,0.457232976913,-0.77479868805,-0.929338518443,0.0,0.0,0.0,0.368129966561,65.8755011364
11.8,2.093003262E7,18010.9264944,-6.75677558361E-17,-374.045355542,1526.24095893,1.41663149209E-17,1.4165111643E-17,0.319657767873,372.731841001,27785.8389972,3.46533540088E-6,-1.84966066583E-22,32.13310962927542,77.1604850766,20.2910947729,42.1426144369,10.0,20.0,30.0,1004.31505567,9.65449921369E-4,695.578474907,419.713092758,0.455623298,-0.829161932872,-0.915906754468,0.0,0.0,0.0,0.371130529177,67.0645575992
11.9,2.09299950615E7,18163.5504517,-6.60141963227E-17,-377.12581287,1526.23818245,1.82371429369E-17,1.82359576427E-17,0.325002314826,375.801165349,27748.4123273,3.55357205819E-6,-1.80713535854E-22,32.13322454915391,80.9434645861,19.6900177878,44.436572082,10.0,20.0,30.0,1004.47430564,9.66753740466E-4,696.738743755,419.846207556,0.450542451881,-0.883964304349,-0.901262138874,0.0,0.0,0.0,0.37412734579,68.2656822963
12.0,2.0929957195E7,18316.1741302,-6.38666664785E-17,-380.203911426,1526.23538254,2.50835282337E-17,2.50823721379E-17,0.330388605499,378.868130891,27710.6788427,3.64327765802E-6,-1.7483499873E-22,32.13334041174434,84.6825094272,18.9488180762,46.6742738907,10.0,20.0,30.0,1004.63483613,9.68069615922E-4,697.910114414,419.980414079,0.441872170443,-0.93899362518,-0.885507629346,0.0,0.0,0.0,0.377120383767,69.4789225398
12.1,2.09299190208E7,18468.7975274,-6.09678847414E-17,-383.279627471,1526.2325592,3.21149503167E-17,3.21138377648E-17,0.335816550648,381.932713884,27672.6387805,3.73446362215E-6,-1.66899887098E-22,32.13345721624678,88.3706737018,18.072392092,48.8458970358,10.0,20.0,30.0,1004.79664553,9.69397573976E-4,699.092620152,420.115711497,0.429508677299,-0.994030204289,-0.868756029074,0.0,0.0,0.0,0.380109610456,70.7043259344
12.2,2.09298805391E7,18621.4206412,-5.74473771752E-17,-386.352937168,1526.22971243,3.80361488787E-17,3.80350921628E-17,0.341286060097,384.994890492,27634.2923801,3.8271413479E-6,-1.57262768287E-22,32.13357496206128,92.0023606286,17.0662932147,50.9428648353,10.0,20.0,30.0,1004.95973221,9.70737641073E-4,700.286294527,420.25209897,0.413363667651,-1.04884777475,-0.851129688015,0.0,0.0,0.0,0.383094993186,71.941940374
12.3,2.09298417502E7,18774.0434691,-5.35438417838E-17,-389.423816588,1526.22684224,4.24770495033E-17,4.24760567615E-17,0.346797042732,388.054636787,27595.6398834,3.92132220796E-6,-1.46577071893E-22,32.1336936484879,95.5733811445,15.9366000203,52.9578838147,10.0,20.0,30.0,1005.12409454,9.72089843859E-4,701.49117138,420.389575649,0.393365232217,-1.10321449258,-0.832760144942,0.0,0.0,0.0,0.386076499269,73.1918140377
12.4,2.09298026544E7,18926.6660089,-4.89205109773E-17,-392.492241706,1526.22394861,4.85832840116E-17,4.8582369842E-17,0.352349406498,391.111928743,27556.6815346,4.01701754999E-6,-1.33920883577E-22,32.133813274626704,99.0809563942,14.6897865778,54.8849230785,10.0,20.0,30.0,1005.28973087,9.73454209186E-4,702.707284838,420.528140677,0.369458718878,-1.15689399257,-0.813787710704,0.0,0.0,0.0,0.389054095996,74.4539953872
12.5,2.09297632519E7,19079.2882581,-4.38623420687E-17,-395.558188403,1526.22103156,5.48745549488E-17,5.48737288969E-17,0.357943058395,394.16674224,27517.4175803,4.11423869654E-6,-1.20074269625E-22,32.13393383987775,102.52367359,13.332600472,56.719145165,10.0,20.0,30.0,1005.45663954,9.74830764105E-4,703.934669313,420.667793191,0.341607525834,-1.20964649687,-0.794360993491,0.0,0.0,0.0,0.39202775064,75.7285331626
12.6,2.09297235429E7,19231.9102144,-3.78882384926E-17,-398.621632462,1526.21809108,6.39413826049E-17,6.39406635355E-17,0.363577904474,397.219053062,27477.8482696,4.21299694463E-6,-1.03720206237E-22,32.13405534354111,105.90140653,11.871952837,58.4567993288,10.0,20.0,30.0,1005.62481887,9.76219535871E-4,705.173359507,420.808532315,0.309793820341,-1.26122997167,-0.774636367191,0.0,0.0,0.0,0.394997430456,77.0154763785
12.7,2.09296835276E7,19384.5318755,-3.12128434584E-17,-401.68254957,1526.21512717,6.96775402108E-17,6.96769432824E-17,0.369253849828,400.268836895,27437.9738539,4.3133035656E-6,-8.54462719123E-23,32.13417778471682,109.215212412,10.3148232182,60.0950885198,10.0,20.0,30.0,1005.79426716,9.7762055194E-4,706.423390402,420.950357169,0.274019177331,-1.31140132712,-0.754777384287,0.0,0.0,0.0,0.397963102678,78.314874321
12.8,2.09296432064E7,19537.1532391,-2.38121022365E-17,-404.740915317,1526.21213984,7.70790312763E-17,7.70785724152E-17,0.374970798597,403.316069329,27397.7945872,4.4151698048E-6,-6.51866040721E-23,32.13430116260497,112.46721584,8.66818072953,61.632020525,10.0,20.0,30.0,1005.96498272,9.7903383997E-4,707.684797271,421.093266861,0.234305132526,-1.35991765494,-0.734954135046,0.0,0.0,0.0,0.400924734524,79.6267765434
12.9,2.09296025795E7,19689.7743027,-1.59080595448E-17,-407.796705196,1526.20912908,8.26301494579E-17,8.26298405935E-17,0.380728653953,406.360725857,27357.3107259,4.51860688131E-6,-4.35490480701E-23,32.13442547660562,115.660489399,6.93892184635,63.0662522043,10.0,20.0,30.0,1006.13696383,9.80459427818E-4,708.95761567,421.237260492,0.190693644996,-1.40653749824,-0.715342555101,0.0,0.0,0.0,0.403882293191,80.9512328625
13.0,2.09295616472E7,19842.3950641,-7.27126941348E-18,-410.849894602,1526.20609489,9.07717867631E-17,9.077164453E-17,0.386527318103,409.402781873,27316.5225288,4.62362598774E-6,-1.99054747964E-23,32.13455072591883,118.798938342,5.13382431752,64.3969338431,10.0,20.0,30.0,1006.31020874,9.8189734354E-4,710.241881441,421.382337154,0.143247464489,-1.45102214749,-0.696123683828,0.0,0.0,0.0,0.406835745859,82.2882933546
13.1,2.09295204097E7,19995.0155209,1.87067230503E-18,-413.90045883,1526.20303728,9.22520845442E-17,9.22521214081E-17,0.392366692283,412.442212673,27275.430257,4.73023828992E-6,5.12107190803E-24,32.13467690964466,121.887195004,3.25951610268,65.6235586755,10.0,20.0,30.0,1006.48471572,9.83347615393E-4,711.537630712,421.528495931,0.092050399235,-1.49313695643,-0.677482876265,0.0,0.0,0.0,0.409785059689,83.6380083517
13.2,2.09294788672E7,20147.6356708,1.11199355539E-17,-416.948373076,1526.19995624,9.54902340413E-17,9.54904547873E-17,0.398246676751,415.478993452,27234.0341746,4.83845492663E-6,3.04415167014E-23,32.134804026983176,124.930526783,1.3224579101,66.7458208085,10.0,20.0,30.0,1006.660483,9.84810271831E-4,712.844899899,421.675735896,0.0372074804011,-1.53265267147,-0.659608971589,0.0,0.0,0.0,0.412730201823,85.0004284373
13.3,2.09294370201E7,20300.2555114,2.09613175777E-17,-419.993612438,1526.19685178,1.01411421052E-16,1.01411840202E-16,0.404167170786,418.513099308,27192.3345475,4.94828700938E-6,5.73830277494E-23,32.134932077234446,127.934760019,-0.671062213608,67.7634832177,10.0,20.0,30.0,1006.83750881,9.86285341508E-4,714.163725702,421.824056117,-0.0211549802035,-1.56934676783,-0.642693421512,0.0,0.0,0.0,0.415671139386,86.3756044426
13.4,2.09293948686E7,20452.8750404,3.14410775181E-17,-423.036151912,1526.1937239,1.07425125088E-16,1.07425758351E-16,0.410128072682,421.544505236,27150.3316447,5.05974562206E-6,8.60722537023E-23,32.135061059598534,130.906220924,-2.71492375863,68.6762562567,10.0,20.0,30.0,1007.01579136,9.87772853274E-4,715.494145106,421.973455649,-0.0828894420535,-1.60300478555,-0.626929382202,0.0,0.0,0.0,0.418607839483,87.7635874419
13.5,2.09293524129E7,20605.4942554,4.22751831575E-17,-426.075966394,1526.19057259,1.10015639823E-16,1.10016497417E-16,0.416129279744,424.573186134,27108.0257373,5.17284182072E-6,1.15731645747E-22,32.13519097317551,133.851693801,-4.80315946654,69.483686208,10.0,20.0,30.0,1007.19532885,9.89272836176E-4,716.836195383,422.123933541,-0.147827299846,-1.63342165839,-0.612510773637,0.0,0.0,0.0,0.421540269202,89.1644287485
13.6,2.09293096535E7,20758.1131541,5.33600135139E-17,-429.11303068,1526.18739786,1.11866004192E-16,1.11867094371E-16,0.422170688279,427.599116796,27065.4170991,5.28758663332E-6,1.4607753987E-22,32.13532181716545,136.778396195,-6.92993304659,70.1850527986,10.0,20.0,30.0,1007.37611945,9.90785319455E-4,718.18991409,422.275488833,-0.21577916129,-1.66040302841,-0.599631310545,0.0,0.0,0.0,0.424468395611,90.5781799108
13.7,2.09292665904E7,20910.7317342,6.46178528054E-17,-432.147319463,1526.18419971,1.13346292502E-16,1.13347622022E-16,0.428252193603,430.622271915,27022.5060065,5.40399105945E-6,1.76897187633E-22,32.13545359086839,139.693970198,-9.08950980479,70.7792742482,10.0,20.0,30.0,1007.55816135,9.92310332551E-4,719.555339071,422.428120555,-0.28653524002,-1.68376653893,-0.588483509326,0.0,0.0,0.0,0.427392185764,92.0048927074
13.8,2.09292232241E7,21063.3499932,7.5962658575E-17,-435.178807335,1526.18097813,1.14456504736E-16,1.14458078642E-16,0.434373690024,433.642626083,26979.2927381,5.52206607002E-6,2.07955043825E-22,32.135586293184424,142.606488855,-11.2762208297,71.2648182946,10.0,20.0,30.0,1007.74145269,9.93847905098E-4,720.932508454,422.581827728,-0.35986586434,-1.70334309883,-0.579257675588,0.0,0.0,0.0,0.430311606692,93.4446191428
13.9,2.09291795547E7,21215.967929,8.76303530408E-17,-438.207468785,1526.17773314,1.17509605499E-16,1.17511433792E-16,0.440535070845,436.660153788,26935.7775755,5.64182260698E-6,2.39896972246E-22,32.13571992341361,145.524476425,-13.4844211135,71.6396177068,10.0,20.0,30.0,1007.92599161,9.95398066922E-4,722.321460655,422.736609365,-0.435522101907,-1.71897811053,-0.572140877112,0.0,0.0,0.0,0.433226625412,94.8974114434
14.0,2.09291355827E7,21368.5855391,9.9355407684E-17,-441.233278199,1526.17446472,1.15011589337E-16,1.15013676573E-16,0.446736228356,439.674829418,26891.9608024,5.76327158312E-6,2.71996067038E-22,32.135854480756024,148.456941059,-15.7084417339,71.900989051,10.0,20.0,30.0,1008.11177625,9.96960848045E-4,723.722234372,422.89246447,-0.513236499847,-1.73053265476,-0.567315907262,0.0,0.0,0.0,0.436137208922,96.363322052
