time,feVelocity_ft_s_X,feVelocity_ft_s_Y,feVelocity_ft_s_Z,altitudeMsl_ft,longitude_deg,latitude_deg,localGravity_ft_s2,eulerAngle_deg_Yaw,eulerAngle_deg_Pitch,eulerAngle_deg_Roll,bodyAngularRateWrtEi_deg_s_Roll,bodyAngularRateWrtEi_deg_s_Pitch,bodyAngularRateWrtEi_deg_s_Yaw,altitudeRateWrtMsl_ft_min,speedOfSound_ft_s,airDensity_slug_ft3,ambientPressure_lbf_ft2,ambientTemperature_dgR,aero_bodyForce_lbf_X,aero_bodyForce_lbf_Y,aero_bodyForce_lbf_Z,aero_bodyMoment_ftlbf_L,aero_bodyMoment_ftlbf_M,aero_bodyMoment_ftlbf_N,mach,trueAirspeed_nmi_h
0.0,0.01,0.0,0.0,30000.0,0.0,0.0,0.0,0.0,0.0,0.0,9.999999988558965,19.99999997711793,30.000000022972678,0.0,994.8492583,8.90951E-4,629.8546116,411.8392612,-8.75E-10,0.0,0.0,0.0,0.0,0.0,1.01E-5,0.005924838
0.1,0.009999986,2.1E-5,3.197046525,29999.84015,1.82E-12,2.73E-9,0.0,3.014767104,1.97826179,1.042062328,9.999999988558965,19.99999997711793,30.000000022972678,-191.8227915,994.8499466,8.90956E-4,629.8591389,411.8398311,2.0E-6,-1.17E-6,-7.24E-5,0.0,0.0,0.0,0.003213612,1.89420754
0.2,0.009999944,8.86E-5,6.394075271,29999.36059,1.57E-11,5.47E-9,0.0,6.069444005,3.899444753,2.188395541,9.999999988558965,19.99999997711793,30.000000022972678,-383.6445162,994.8520117,8.90972E-4,629.872771,411.8415408,2.04E-5,-1.16E-5,-3.219E-4,0.0,0.0,0.0,0.00642717,3.788390647
0.3,0.009999875,2.02823E-4,9.591068449,29998.56133,5.45E-11,8.2E-9,0.0,9.169949811,5.756963827,3.439331734,9.999999988558965,19.99999997711793,30.000000022972678,-575.4641069,994.8554451,8.90998E-4,629.8954474,411.8443835,7.22E-5,-4.31E-5,-7.47186E-4,0.0,0.0,0.0,0.009640671,5.68255577
0.4,0.009999777,3.6368E-4,12.78800827,29997.44238,1.31E-10,1.09E-8,0.0,12.32147053,7.544312133,4.794588026,9.999999988558965,19.99999997711793,30.000000022972678,-767.2804964,994.860247,8.91034E-4,629.9271686,411.8483592,1.73352E-4,-1.0926E-4,-0.001344377,0.0,0.0,0.0,0.012854079,7.576690055
0.5,0.009999652,5.71158E-4,15.98487695,29996.00373,2.58E-10,1.37E-8,0.0,15.52854813,9.254814007,6.253660196,9.999999988558965,19.99999997711793,30.000000022972678,-959.0926173,994.8664254,8.91081E-4,629.9679453,411.8534747,3.37739E-4,-2.25113E-4,-0.002108054,0.0,0.0,0.0,0.016067363,9.4707825
0.6,0.009999499,8.25255E-4,19.1816567,29994.24541,4.48E-10,1.64E-8,0.0,18.79498555,10.88164338,7.815679061,9.999999988558965,19.99999997711793,30.000000022972678,-1150.899402,994.8739806,8.91138E-4,630.0177782,411.8597301,5.77542E-4,-4.07015E-4,-0.003031297,0.0,0.0,0.0,0.019280492,11.36482241
0.7,0.009999318,0.001125967,22.37832972,29992.16741,7.13E-10,1.91E-8,0.0,22.12373834,12.41785592,9.479258358,9.999999988558965,19.99999997711793,30.000000022972678,-1342.699783,994.882904,8.91205E-4,630.0767075,411.8671184,9.02817E-4,-6.72433E-4,-0.004105755,0.0,0.0,0.0,0.022493433,13.25879917
0.8,0.00999911,0.001473289,25.57487821,29989.76975,1.07E-9,2.19E-8,0.0,25.51679682,13.8564364,11.24233756,9.999999988558965,19.99999997711793,30.000000022972678,-1534.492692,994.893204,8.91283E-4,630.1446943,411.8756465,0.001321351,-0.001039717,-0.005321736,0.0,0.0,0.0,0.025706156,15.15270221
0.9,0.009998873,0.001867217,28.77128435,29987.05244,1.52E-9,2.46E-8,0.0,28.97506455,15.19036235,13.10202484,9.999999988558965,19.99999997711793,30.000000022972678,-1726.277061,994.9048722,8.91371E-4,630.2217793,411.8853076,0.001838501,-0.001527878,-0.006668305,0.0,0.0,0.0,0.02891863,17.04652095
1.0,0.009998609,0.002307746,31.96753035,29984.01549,2.09E-9,2.73E-8,0.0,32.49824095,16.41268459,15.05444756,9.999999988558965,19.99999997711793,30.000000022972678,-1918.051821,994.9179169,8.91469E-4,630.3078737,411.8961086,0.002457061,-0.002156342,-0.008133403,0.0,0.0,0.0,0.032130824,18.94024483
1.1,0.009998317,0.002794869,35.16359836,29980.65894,2.79E-9,3.01E-8,0.0,36.08471762,17.51662423,17.09461936,9.999999988558965,19.99999997711793,30.000000022972678,-2109.815902,994.932338,8.91578E-4,630.4030789,411.9080493,0.00317715,-0.002944704,-0.009703973,0.0,0.0,0.0,0.035342705,20.83386329
1.2,0.009997997,0.00332858,38.35947058,29976.98278,3.63E-9,3.28E-8,0.0,39.73149963,18.49568468,19.21633471,9.999999988558965,19.99999997711793,30.000000022972678,-2301.568235,994.9481272,8.91697E-4,630.5073356,411.921123,0.003996126,-0.003912476,-0.011366103,0.0,0.0,0.0,0.038554243,22.72736575
1.3,0.009997649,0.00390887,41.55512915,29972.98705,4.61E-9,3.55E-8,0.0,43.43416351,19.34377564,21.4121024,9.999999988558965,19.99999997711793,30.000000022972678,-2493.307749,994.9652843,8.91827E-4,630.6206952,411.9353297,0.004908526,-0.005078828,-0.013105175,0.0,0.0,0.0,0.041765407,24.62074165
1.4,0.009997273,0.004535733,44.75055622,29968.67176,5.77E-9,3.83E-8,0.0,47.18686359,20.055345,23.67312922,9.999999988558965,19.99999997711793,30.000000022972678,-2685.033373,994.9838177,8.91967E-4,630.7430697,411.9506763,0.005906033,-0.006462331,-0.014906032,0.0,0.0,0.0,0.044976166,26.5139804
1.5,0.00999687,0.005209158,47.94573395,29964.03695,7.1E-9,4.1E-8,0.0,50.98239615,20.62551238,25.98936288,9.999999988558965,19.99999997711793,30.000000022972678,-2876.744037,995.003719,8.92117E-4,630.8745502,411.9671558,0.006977473,-0.008080698,-0.016753146,0.0,0.0,0.0,0.048186489,28.40707143
1.6,0.009996438,0.005929138,51.14064444,29959.08262,8.62E-9,4.37E-8,0.0,54.81232741,21.05019772,28.34960012,9.999999988558965,19.99999997711793,30.000000022972678,-3068.438666,995.0249963,8.92277E-4,631.015099,411.9847751,0.008108836,-0.009950523,-0.018630798,0.0,0.0,0.0,0.051396343,30.30000413
1.7,0.009995979,0.006695661,54.33526982,29953.80883,1.03E-8,4.65E-8,0.0,58.66718633,21.32623685,30.74166058,9.999999988558965,19.99999997711793,30.000000022972678,-3260.116189,995.0476496,8.92448E-4,631.1647179,412.0035342,0.009283331,-0.012087032,-0.020523258,0.0,0.0,0.0,0.054605698,32.19276793
1.8,0.009995492,0.007508718,57.52959219,29948.21558,1.23E-8,4.92E-8,0.0,62.53671709,21.45147668,33.15262107,9.999999988558965,19.99999997711793,30.000000022972678,-3451.775531,995.0716704,8.9263E-4,631.3233985,412.0234264,0.010481468,-0.014503837,-0.022414992,0.0,0.0,0.0,0.057814523,34.0853522
1.9,0.009994977,0.008368296,60.72359364,29942.30292,1.45E-8,5.19E-8,0.0,66.41017979,21.42484286,35.56909858,9.999999988558965,19.99999997711793,30.000000022972678,-3643.415618,995.0970588,8.92821E-4,631.4911929,412.0444514,0.011681168,-0.017212695,-0.024290838,0.0,0.0,0.0,0.061022786,35.97774634
2.0,0.009994434,0.009274383,63.91725623,29936.07087,1.69E-8,5.47E-8,0.0,70.27668254,21.24637506,37.97756485,9.999999988558965,19.99999997711793,30.000000022972678,-3835.035374,995.1238228,8.93023E-4,631.6680639,412.0666164,0.012857903,-0.020223285,-0.026136219,0.0,0.0,0.0,0.064230457,37.86993972
2.1,0.009993863,0.010226968,67.11056202,29929.51948,1.95E-8,5.74E-8,0.0,74.12552395,20.91722681,40.36467155,9.999999988558965,19.99999997711793,30.000000022972678,-4026.633721,995.1519542,8.93236E-4,631.8539532,412.0899142,0.013984867,-0.023542997,-0.027937334,0.0,0.0,0.0,0.067437504,39.76192171
2.2,0.009993264,0.011226036,70.30349306,29922.64877,2.25E-8,6.01E-8,0.0,77.94652415,20.43963003,42.71756361,9.999999988558965,19.99999997711793,30.000000022972678,-4218.209584,995.1814526,8.93458E-4,632.0489633,412.1143451,0.015033169,-0.027176734,-0.029681355,0.0,0.0,0.0,0.070643896,41.65368167
2.3,0.009992637,0.012271575,73.49603136,29915.45879,2.57E-8,6.29E-8,0.0,81.73032335,19.81682682,45.0241599,9.999999988558965,19.99999997711793,30.000000022972678,-4409.761882,995.2123264,8.93691E-4,632.2530575,412.1399158,0.015972063,-0.031126745,-0.031356626,0.0,0.0,0.0,0.073849601,43.54520896
2.4,0.009991982,0.013363568,76.68815893,29907.94958,2.92E-8,6.56E-8,0.0,85.46863127,19.05297358,47.27338398,9.999999988558965,19.99999997711793,30.000000022972678,-4601.289536,995.2445671,8.93935E-4,632.4662278,412.1666194,0.016769183,-0.035392452,-0.032952838,0.0,0.0,0.0,0.077054589,45.43649289
2.5,0.009991299,0.014502001,79.87985774,29900.12118,3.3E-8,6.83E-8,0.0,89.15441591,18.15302436,49.45533358,9.999999988558965,19.99999997711793,30.000000022972678,-4792.791464,995.2781829,8.94188E-4,632.6884877,412.1944629,0.017390831,-0.039970343,-0.034461225,0.0,0.0,0.0,0.080258827,47.32752281
2.6,0.009990588,0.015686858,83.07110976,29891.97362,3.71E-8,7.11E-8,0.0,92.78202688,17.12260112,51.56138337,9.999999988558965,19.99999997711793,30.000000022972678,-4984.266586,995.3131653,8.94453E-4,632.9198296,412.2234393,0.017802255,-0.04485385,-0.035874725,0.0,0.0,0.0,0.083462286,49.21828802
2.7,0.009989849,0.016918122,86.26189694,29883.50697,4.16E-8,7.38E-8,0.0,96.34725436,15.96785866,53.58422221,9.999999988558965,19.99999997711793,30.000000022972678,-5175.713817,995.3495142,8.94727E-4,633.1602566,412.2535487,0.017967968,-0.050033265,-0.037188131,0.0,0.0,0.0,0.086664933,51.10877782
2.8,0.009989082,0.018195775,89.4522012,29874.72126,4.64E-8,7.65E-8,0.0,99.84733012,14.69535153,55.51783066,9.999999988558965,19.99999997711793,30.000000022972678,-5367.132072,995.3872295,8.95012E-4,633.4098219,412.2847911,0.017852074,-0.055495704,-0.038398255,0.0,0.0,0.0,0.089866738,52.99898151
2.9,0.009988288,0.019519801,92.64200442,29865.61655,5.15E-8,7.93E-8,0.0,103.2808803,13.31190867,57.35740854,9.999999988558965,19.99999997711793,30.000000022972678,-5558.520265,995.4263192,8.95307E-4,633.6684393,412.3171733,0.017418608,-0.061225053,-0.039504036,0.0,0.0,0.0,0.093067669,54.88888836
3.0,0.009987465,0.02089018,95.83128849,29856.19288,5.7E-8,8.2E-8,0.0,106.6478418,11.82452044,59.09926372,9.999999988558965,19.99999997711793,30.000000022972678,-5749.877309,995.4667667,8.95612E-4,633.9361411,412.3506816,0.016631892,-0.067202003,-0.04050668,0.0,0.0,0.0,0.096267695,56.77848762
3.1,0.009986614,0.022306894,99.02003526,29846.45031,6.29E-8,8.47E-8,0.0,109.9493548,10.24024093,60.74067407,9.999999988558965,19.99999997711793,30.000000022972678,-5941.202115,995.5085883,8.95928E-4,634.2129522,412.3853297,0.015456891,-0.073404041,-0.04140973,0.0,0.0,0.0,0.099466785,58.66776855
3.2,0.009985734,0.023769921,102.2082265,29836.38889,6.92E-8,8.75E-8,0.0,113.1876416,8.566107071,62.27973336,9.999999988558965,19.99999997711793,30.000000022972678,-6132.493593,995.5517756,8.96254E-4,634.4988154,412.4211108,0.013859589,-0.079805546,-0.042219172,0.0,0.0,0.0,0.102664906,60.55672038
3.3,0.009984827,0.025279242,105.3958441,29826.00868,7.6E-8,9.02E-8,0.0,116.3658834,6.809074938,63.71519045,9.999999988558965,19.99999997711793,30.000000022972678,-6323.750649,995.5963284,8.96591E-4,634.7938348,412.4580249,0.011807352,-0.08637786,-0.042943487,0.0,0.0,0.0,0.105862029,62.44533232
3.4,0.009983892,0.026834835,108.5828698,29815.30974,8.31E-8,9.29E-8,0.0,119.4881006,4.975972711,65.04628888,9.999999988558965,19.99999997711793,30.000000022972678,-6514.972191,995.6422548,8.96938E-4,635.0979749,412.4960788,0.009269298,-0.093089383,-0.043593681,0.0,0.0,0.0,0.109058121,64.33359358
3.5,0.009982928,0.028436678,111.7692854,29804.29213,9.06E-8,9.56E-8,0.0,122.5590447,3.073469071,66.27261227,9.999999988558965,19.99999997711793,30.000000022972678,-6706.157123,995.6895381,8.97295E-4,635.4111683,412.5352588,0.006216668,-0.09990575,-0.044183328,0.0,0.0,0.0,0.112253152,66.22149334
3.6,0.009981937,0.030084749,114.9550725,29792.9559,9.86E-8,9.84E-8,0.0,125.5841039,1.108055604,67.39393855,9.999999988558965,19.99999997711793,30.000000022972678,-6897.304349,995.7381863,8.97662E-4,635.73348,412.5755717,0.00262319,-0.106790008,-0.044728567,0.0,0.0,0.0,0.115447091,68.10902076
3.7,0.009980917,0.031779025,118.1402128,29781.30113,1.07E-7,1.01E-7,0.0,128.5692254,-0.913958461,68.4101048,9.999999988558965,19.99999997711793,30.000000022972678,-7088.412769,995.7881993,8.9804E-4,636.0649142,412.6170177,-0.001534576,-0.113702765,-0.04524807,0.0,0.0,0.0,0.118639905,69.996165
3.8,0.009979869,0.033519481,121.324688,29769.32788,1.16E-7,1.04E-7,0.0,131.5208562,-2.986440732,69.32088295,9.999999988558965,19.99999997711793,30.000000022972678,-7279.481283,995.8395767,8.98428E-4,636.4054754,412.6595966,-0.006276887,-0.120602477,-0.045763016,0.0,0.0,0.0,0.121831564,71.8829152
3.9,0.009978792,0.035306092,124.5084798,29757.03622,1.25E-7,1.07E-7,0.0,134.4459018,-5.103420824,70.12586575,9.999999988558965,19.99999997711793,30.000000022972678,-7470.508789,995.8923269,8.98826E-4,636.7551285,412.7033153,-0.011620495,-0.127445662,-0.046297022,0.0,0.0,0.0,0.125022035,73.76926046
4.0,0.009977688,0.037138834,127.6915697,29744.42621,1.35E-7,1.09E-7,0.0,137.351702,-7.259067399,70.82436188,9.999999988558965,19.99999997711793,30.000000022972678,-7661.494182,995.9464328,8.99235E-4,637.1139071,412.7481601,-0.017578338,-0.134187186,-0.046876059,0.0,0.0,0.0,0.128211289,75.65518988
4.1,0.009976555,0.03901768,130.8739393,29731.49793,1.46E-7,1.12E-7,0.0,140.2460252,-9.447658015,71.41529833,9.999999988558965,19.99999997711793,30.000000022972678,-7852.436357,996.0018943,8.99654E-4,637.4818161,412.794131,-0.024159241,-0.140780553,-0.047528344,0.0,0.0,0.0,0.131399294,77.54069254
4.2,0.009975394,0.040942604,134.0555701,29718.25145,1.57E-7,1.15E-7,0.0,143.1370767,-11.66354246,71.89712852,9.999999988558965,19.99999997711793,30.000000022972678,-8043.334205,996.0587278,9.00083E-4,637.8588312,412.8412418,-0.031367658,-0.14717824,-0.048284219,0.0,0.0,0.0,0.134586017,79.4257575
4.3,0.009974204,0.042913578,137.2364436,29704.68684,1.68E-7,1.17E-7,0.0,146.0335239,-13.90109993,72.2677444,9.999999988558965,19.99999997711793,30.000000022972678,-8234.186616,996.1169164,9.00523E-4,638.2449865,412.8894786,-0.03920343,-0.153332057,-0.049176002,0.0,0.0,0.0,0.137771429,81.3103738
4.4,0.009972986,0.044930575,140.4165413,29690.80419,1.8E-7,1.2E-7,0.0,148.944533,-16.15469007,72.52439098,9.999999988558965,19.99999997711793,30.000000022972678,-8424.992478,996.1764765,9.00973E-4,638.6402582,412.9388553,-0.047661553,-0.159193415,-0.050237801,0.0,0.0,0.0,0.140955495,83.19453044
4.5,0.00997174,0.046993565,143.5958446,29676.60356,1.93E-7,1.23E-7,0.0,151.8798192,-18.41859792,72.66358226,9.999999988558965,19.99999997711793,30.000000022972678,-8615.750677,996.237383,9.01433E-4,639.0446697,412.9893512,-0.056732025,-0.16471383,-0.051505354,0.0,0.0,0.0,0.144138189,85.07821645
4.6,0.009970466,0.049102519,146.7743349,29662.08504,2.06E-7,1.26E-7,0.0,154.8497059,-20.6869721,72.68101824,9.999999988558965,19.99999997711793,30.000000022972678,-8806.460096,996.2996605,9.01904E-4,639.4582082,413.0409869,-0.066399653,-0.169845161,-0.053015785,0.0,0.0,0.0,0.147319476,86.96142077
4.7,0.009969163,0.051257408,149.9519936,29647.24872,2.2E-7,1.28E-7,0.0,157.8651913,-22.95375589,72.57150342,9.999999988558965,19.99999997711793,30.000000022972678,-8997.119617,996.3632921,9.02385E-4,639.8809081,413.0937488,-0.076643982,-0.174540155,-0.054807418,0.0,0.0,0.0,0.150499325,88.84413238
4.8,0.009967831,0.053458199,153.128802,29632.09467,2.34E-7,1.31E-7,0.0,160.9380197,-25.21261046,72.32886879,9.999999988558965,19.99999997711793,30.000000022972678,-9187.728118,996.4282859,9.02876E-4,640.3127354,413.1476436,-0.087439159,-0.178752694,-0.056919491,0.0,0.0,0.0,0.153677704,90.7263402
4.9,0.009966471,0.055704862,156.3047413,29616.62299,2.49E-7,1.34E-7,0.0,164.0807497,-27.45682948,71.94590099,9.999999988558965,19.99999997711793,30.000000022972678,-9378.284476,996.4946333,9.03378E-4,640.7537354,413.2026645,-0.098753943,-0.182438345,-0.059391943,0.0,0.0,0.0,0.156854584,92.60803314
5.0,0.009965083,0.057997365,159.4797928,29600.83376,2.64E-7,1.37E-7,0.0,167.3068144,-29.67924456,71.41428513,9.999999988558965,19.99999997711793,30.000000022972678,-9568.787567,996.5623341,9.03889E-4,641.2038135,413.2588115,-0.110551654,-0.185554662,-0.062265111,0.0,0.0,0.0,0.160029933,94.48920008
5.1,0.009963666,0.060335674,162.6539377,29584.72706,2.81E-7,1.39E-7,0.0,170.6305607,-31.87212135,70.7245713,9.999999988558965,19.99999997711793,30.000000022972678,-9759.236262,996.6313962,9.04411E-4,641.6630866,413.3160915,-0.122790241,-0.188061661,-0.065579478,0.0,0.0,0.0,0.163203718,96.3698299
5.2,0.00996222,0.062719756,165.8271572,29568.303,2.97E-7,1.42E-7,0.0,174.0672529,-34.02704664,69.86617978,9.999999988558965,19.99999997711793,30.000000022972678,-9949.62943,996.7018194,9.04944E-4,642.1315108,413.3745044,-0.135422311,-0.18992215,-0.069375359,0.0,0.0,0.0,0.166375907,98.24991143
5.3,0.009960746,0.065149577,168.9994323,29551.56166,3.15E-7,1.45E-7,0.0,177.6330171,-36.13480814,68.82746641,9.999999988558965,19.99999997711793,30.000000022972678,-10139.96594,996.7735869,9.05486E-4,642.609121,413.4340366,-0.148395307,-0.191102227,-0.073692655,0.0,0.0,0.0,0.169546472,100.1294335
5.4,0.009959243,0.067625102,172.1707443,29534.50314,3.33E-7,1.47E-7,0.0,-178.6553011,-38.18527053,67.59587738,9.999999988558965,19.99999997711793,30.000000022972678,-10330.24466,996.8467149,9.06039E-4,643.0958444,413.4947017,-0.161651594,-0.191571553,-0.078570527,0.0,0.0,0.0,0.172715379,102.0083848
5.5,0.009957712,0.070146295,175.3410738,29517.12755,3.52E-7,1.5E-7,0.0,-174.7804073,-40.16725414,66.15823229,9.999999988558965,19.99999997711793,30.000000022972678,-10520.46443,996.9211948,9.06618E-4,643.6030416,413.5564929,-0.175131243,-0.191306576,-0.084048366,0.0,0.0,0.0,0.175882596,103.8867542
5.6,0.009956152,0.072713119,178.5104015,29499.43496,3.71E-7,1.53E-7,0.0,-170.7250043,-42.0684268,64.50118358,9.999999988558965,19.99999997711793,30.000000022972678,-10710.62409,996.9970346,9.07219E-4,644.1272646,413.6194171,-0.188767797,-0.190285288,-0.090163362,0.0,0.0,0.0,0.179048092,105.7645299
5.7,0.009954563,0.075325537,181.6787079,29481.4255,3.92E-7,1.56E-7,0.0,-166.4724689,-43.87522499,62.61190764,9.999999988558965,19.99999997711793,30.000000022972678,-10900.72248,997.0742174,9.0783E-4,644.660957,413.6834605,-0.202487459,-0.188487465,-0.096949808,0.0,0.0,0.0,0.182211836,107.6417007
5.8,0.009952945,0.077983511,184.8459741,29463.09926,4.13E-7,1.58E-7,0.0,-162.0078165,-45.57282711,60.47908334,9.999999988558965,19.99999997711793,30.000000022972678,-11090.75844,997.1527595,9.08452E-4,645.2041978,413.7486369,-0.216214621,-0.185900529,-0.104441341,0.0,0.0,0.0,0.185373795,109.518255
5.9,0.009951299,0.080687003,188.0121807,29444.45634,4.34E-7,1.61E-7,0.0,-157.3189945,-47.14520955,58.09420018,9.999999988558965,19.99999997711793,30.000000022972678,-11280.73084,997.232644,9.09084E-4,645.7569726,413.8149326,-0.229869907,-0.182517103,-0.112669599,0.0,0.0,0.0,0.188533939,111.3941817
6.0,0.009949623,0.083435974,191.1773085,29425.49686,4.57E-7,1.64E-7,0.0,-152.3985111,-48.57532254,55.45320101,9.999999988558965,19.99999997711793,30.000000022972678,-11470.63851,997.3138871,9.09728E-4,646.3193102,413.8823611,-0.243370514,-0.178335231,-0.121663995,0.0,0.0,0.0,0.191692234,113.2694691
6.1,0.009947919,0.086230382,194.3413381,29406.22092,4.8E-7,1.66E-7,0.0,-147.2453322,-49.8454257,52.55839374,9.999999988558965,19.99999997711793,30.000000022972678,-11660.48029,997.396472,9.10382E-4,646.8911463,413.950909,-0.256630443,-0.173358491,-0.131451411,0.0,0.0,0.0,0.194848651,115.144106
6.2,0.009946186,0.089070189,197.5042503,29386.62863,5.04E-7,1.69E-7,0.0,-141.866875,-50.93761725,49.42045917,9.999999988558965,19.99999997711793,30.000000022972678,-11850.25502,997.4804149,9.11047E-4,647.4725604,414.0205898,-0.269560977,-0.167596268,-0.142055964,0.0,0.0,0.0,0.198003156,117.0180808
6.3,0.009944424,0.091955351,200.6660255,29366.7201,5.29E-7,1.72E-7,0.0,-136.280792,-51.83457142,46.0602483,9.999999988558965,19.99999997711793,30.000000022972678,-12039.96153,997.5656988,9.11722E-4,648.0634882,414.0913898,-0.282071053,-0.161063936,-0.153498658,0.0,0.0,0.0,0.20115572,118.891382
6.4,0.009942633,0.094885827,203.8266444,29346.49546,5.54E-7,1.75E-7,0.0,-130.5161162,-52.52046241,42.50994141,9.999999988558965,19.99999997711793,30.000000022972678,-12229.59866,997.6523318,9.12409E-4,648.6639484,414.1633159,-0.294067659,-0.153783079,-0.165796944,0.0,0.0,0.0,0.20430631,120.763998
6.5,0.009940812,0.097861574,206.9860873,29325.95481,5.8E-7,1.77E-7,0.0,-124.6132958,-52.98200159,38.81309548,9.999999988558965,19.99999997711793,30.000000022972678,-12419.16524,997.7403051,9.13106E-4,649.2740389,414.2363612,-0.305456312,-0.145781803,-0.178964239,0.0,0.0,0.0,0.207454895,122.6359174
6.6,0.009938963,0.100882548,210.1443347,29305.09828,6.08E-7,1.8E-7,0.0,-118.6227477,-53.20946085,35.02320994,9.999999988558965,19.99999997711793,30.000000022972678,-12608.66008,997.8296267,9.13814E-4,649.8936274,414.3105327,-0.31614167,-0.137095132,-0.193009448,0.0,0.0,0.0,0.210601443,124.5071285
6.7,0.009937085,0.103948705,213.301367,29283.92599,6.36E-7,1.83E-7,0.0,-112.6018436,-53.19751754,31.20072554,9.999999988558965,19.99999997711793,30.000000022972678,-12798.08202,997.9202963,9.14532E-4,650.5227724,414.3858302,-0.326028169,-0.127765397,-0.207936483,0.0,0.0,0.0,0.213745921,126.3776196
6.8,0.009935177,0.107059999,216.4571645,29262.43805,6.64E-7,1.86E-7,0.0,-106.6106552,-52.9457598,27.40878169,9.999999988558965,19.99999997711793,30.000000022972678,-12987.42987,998.0123052,9.15261E-4,651.1615218,414.462247,-0.335020794,-0.117842575,-0.22374392,0.0,0.0,0.0,0.216888299,128.2473792
6.9,0.00993324,0.110216386,219.6117075,29240.6346,6.94E-7,1.88E-7,0.0,-100.7071689,-52.4587446,23.70844408,9.999999988558965,19.99999997711793,30.000000022972678,-13176.70245,998.105653,9.16001E-4,651.8098338,414.539783,-0.343025823,-0.10738445,-0.240424725,0.0,0.0,0.0,0.220028546,130.1163955
7.0,0.009931274,0.113417817,222.764976,29218.51575,7.25E-7,1.91E-7,0.0,-94.9428642,-51.74559303,20.15429587,9.999999988558965,19.99999997711793,30.000000022972678,-13365.89856,998.2003476,9.16752E-4,652.4677276,414.6184451,-0.349951759,-0.096456599,-0.257966217,0.0,0.0,0.0,0.223166628,131.9846568
7.1,0.009929279,0.116664246,225.9169504,29196.08164,7.56E-7,1.94E-7,0.0,-89.359433,-50.81920653,16.79117045,9.999999988558965,19.99999997711793,30.000000022972678,-13555.01703,998.2963804,9.17513E-4,653.1352011,414.6982265,-0.355710158,-0.085132103,-0.27635007,0.0,0.0,0.0,0.226302514,133.8521513
7.2,0.009927255,0.119955625,229.0676107,29173.33241,7.89E-7,1.96E-7,0.0,-83.987061,-49.69525657,13.65244637,9.999999988558965,19.99999997711793,30.000000022972678,-13744.05664,998.3937592,9.18285E-4,653.812274,414.7791339,-0.360216452,-0.073491079,-0.295552374,0.0,0.0,0.0,0.229436172,135.7188672
7.3,0.009925201,0.123291904,232.2169369,29150.26817,8.22E-7,1.99E-7,0.0,-78.8442641,-48.39111919,10.75989637,9.999999988558965,19.99999997711793,30.000000022972678,-13933.01621,998.4924672,9.19068E-4,654.4989334,414.8611537,-0.363390709,-0.061620095,-0.315543691,0.0,0.0,0.0,0.232567573,137.5847927
7.4,0.009923117,0.126673034,235.364909,29126.88906,8.56E-7,2.02E-7,0.0,-73.9389408,-46.92489851,8.1247531,9.999999988558965,19.99999997711793,30.000000022972678,-14121.89454,998.5925204,9.19861E-4,655.1952101,414.9442996,-0.365158311,-0.049611553,-0.336289082,0.0,0.0,0.0,0.235696682,139.449916
7.5,0.009921004,0.130098965,238.5115069,29103.19523,8.91E-7,2.05E-7,0.0,-69.2701587,-45.31462965,5.749508675,9.999999988558965,19.99999997711793,30.000000022972678,-14310.69041,998.693902,9.20665E-4,655.9010916,415.0285579,-0.36545072,-0.037563115,-0.35774823,0.0,0.0,0.0,0.238823469,141.3142251
7.6,0.009918862,0.133569645,241.6567104,29079.18681,9.27E-7,2.07E-7,0.0,-64.8302143,-43.57769607,3.629987007,9.999999988558965,19.99999997711793,30.000000022972678,-14499.40263,998.796628,9.2148E-4,656.6165582,415.1139423,-0.364205885,-0.025577123,-0.379875309,0.0,0.0,0.0,0.241947901,143.1777081
7.7,0.00991669,0.137085023,244.8004994,29054.86394,9.64E-7,2.1E-7,0.0,-60.6066228,-41.73045323,1.757346816,9.999999988558965,19.99999997711793,30.000000022972678,-14688.02997,998.9006815,9.22305E-4,657.3416483,415.200439,-0.361369017,-0.01376012,-0.402619217,0.0,0.0,0.0,0.245069948,145.040353
7.8,0.009914489,0.140645045,247.9428536,29030.22676,1.0E-6,2.13E-7,0.0,-56.5838381,-39.78802606,0.119815102,9.999999988558965,19.99999997711793,30.000000022972678,-14876.57122,999.0060704,9.23141E-4,658.0763317,415.288055,-0.356892998,-0.002222336,-0.425923539,0.0,0.0,0.0,0.248189577,146.9021479
7.9,0.009912258,0.144249659,251.0837527,29005.27541,1.04E-6,2.15E-7,0.0,-52.7446227,-37.76423857,-1.295929375,9.999999988558965,19.99999997711793,30.000000022972678,-15065.02516,999.1127943,9.23988E-4,658.8206684,415.3767902,-0.350739018,0.008922789,-0.449726798,0.0,0.0,0.0,0.251306755,148.7630806
8.0,0.009909997,0.147898811,254.2231763,28980.01006,1.08E-6,2.18E-7,0.0,-49.0710669,-35.67163534,-2.503722778,9.999999988558965,19.99999997711793,30.000000022972678,-15253.39058,999.2208444,9.24845E-4,659.5746574,415.4666377,-0.342876991,0.019559126,-0.473962548,0.0,0.0,0.0,0.254421453,150.6231391
8.1,0.009907707,0.151592444,257.3611038,28954.43083,1.12E-6,2.21E-7,0.0,-45.545301,-33.52156131,-3.517189907,9.999999988558965,19.99999997711793,30.000000022972678,-15441.66623,999.3302285,9.25713E-4,660.3382688,415.5576045,-0.333286008,0.029568384,-0.498559542,0.0,0.0,0.0,0.257533637,152.4823113
8.2,0.009905387,0.155330504,260.4975149,28928.53789,1.16E-6,2.23E-7,0.0,-42.1499597,-31.32427427,-4.349265389,9.999999988558965,19.99999997711793,30.000000022972678,-15629.85089,999.4409463,9.26592E-4,661.1115127,415.6496906,-0.321954936,0.038830697,-0.523442222,0.0,0.0,0.0,0.260643275,154.3405851
8.3,0.009903037,0.159112933,263.6323889,28902.33138,1.21E-6,2.26E-7,0.0,-38.8684592,-29.08907228,-5.011902532,9.999999988558965,19.99999997711793,30.000000022972678,-15817.94334,999.5529891,9.27481E-4,661.8943883,415.7428889,-0.308882662,0.047225227,-0.548530798,0.0,0.0,0.0,0.263750336,156.1979482
8.4,0.009900657,0.162939675,266.7657052,28875.81146,1.25E-6,2.29E-7,0.0,-35.685139,-26.82442416,-5.515917713,9.999999988558965,19.99999997711793,30.000000022972678,-16005.94231,999.6663563,9.28381E-4,662.6869057,415.8371997,-0.294078465,0.054630798,-0.573741565,0.0,0.0,0.0,0.26685479,158.0543883
8.5,0.009898248,0.166810671,269.8974431,28848.97829,1.3E-6,2.32E-7,0.0,-32.5853116,-24.53809603,-5.87092851,9.999999988558965,19.99999997711793,30.000000022972678,-16193.84659,999.7810476,9.29292E-4,663.4891259,415.9326228,-0.277562477,0.060926599,-0.598987532,0.0,0.0,0.0,0.269956603,159.9098934
8.6,0.009895808,0.170725863,273.0275819,28821.83203,1.34E-6,2.34E-7,0.0,-29.555251,-22.23726999,-6.085353962,9.999999988558965,19.99999997711793,30.000000022972678,-16381.65491,999.8970708,9.30213E-4,664.300969,416.0291652,-0.259365757,0.065992854,-0.624178471,0.0,0.0,0.0,0.273055741,161.7644509
8.7,0.009893338,0.17468519,276.1561006,28794.37283,1.39E-6,2.37E-7,0.0,-26.582144,-19.92865323,-6.166454123,9.999999988558965,19.99999997711793,30.000000022972678,-16569.36603,1000.014417,9.31145E-4,665.1224853,416.1268199,-0.239530666,0.069711576,-0.649221663,0.0,0.0,0.0,0.276152175,163.6180487
8.8,0.009890839,0.178688592,279.2829784,28766.60086,1.44E-6,2.4E-7,0.0,-23.6540211,-17.61857702,-6.120393045,9.999999988558965,19.99999997711793,30.000000022972678,-16756.9787,1000.133086,9.32087E-4,665.953736,416.225587,-0.218110939,0.071967301,-0.674022222,0.0,0.0,0.0,0.279245872,165.4706743
8.9,0.009888309,0.182736009,282.4081943,28738.51629,1.49E-6,2.42E-7,0.0,-20.7596795,-15.31308612,-5.952314654,9.999999988558965,19.99999997711793,30.000000022972678,-16944.49166,1000.253069,9.3304E-4,666.7946198,416.3254596,-0.195171735,0.072647822,-0.698483429,0.0,0.0,0.0,0.282336803,167.3223152
9.0,0.009885749,0.186827377,285.5317272,28710.11928,1.54E-6,2.45E-7,0.0,-17.8886036,-13.01801911,-5.666424887,9.999999988558965,19.99999997711793,30.000000022972678,-17131.90363,1000.374382,9.34004E-4,667.6451696,416.4264514,-0.170789753,0.071644978,-0.72250748,0.0,0.0,0.0,0.285424931,169.1729591
9.1,0.009883159,0.190962634,288.6535562,28681.41,1.59E-6,2.48E-7,0.0,-15.030891,-10.7390806,-5.266076273,9.999999988558965,19.99999997711793,30.000000022972678,-17319.21337,1000.497008,9.34978E-4,668.5054249,416.5285487,-0.145053164,0.06885541,-0.745995982,0.0,0.0,0.0,0.288510228,171.0225934
9.2,0.009880539,0.195141716,291.77366,28652.38862,1.64E-6,2.51E-7,0.0,-12.1771866,-8.481906111,-4.753853174,9.999999988558965,19.99999997711793,30.000000022972678,-17506.4196,1000.620954,9.35963E-4,669.375408,416.6317584,-0.118061478,0.064181306,-0.768850394,0.0,0.0,0.0,0.29159266,172.8712056
9.3,0.009877889,0.199364559,294.8920173,28623.05533,1.7E-6,2.53E-7,0.0,-9.318627,-6.252120297,-4.131657261,9.999999988558965,19.99999997711793,30.000000022972678,-17693.52104,1000.746213,9.36958E-4,670.2550683,416.7360736,-0.089925372,0.057531154,-0.790972583,0.0,0.0,0.0,0.294672197,174.718783
9.4,0.009875208,0.203631097,298.0086069,28593.41028,1.75E-6,2.56E-7,0.0,-6.4467975,-4.055389033,-3.400793869,9.999999988558965,19.99999997711793,30.000000022972678,-17880.51641,1000.872791,9.37964E-4,671.1444791,416.8415012,-0.060766476,0.048820488,-0.812265583,0.0,0.0,0.0,0.297748804,176.5653131
9.5,0.009872497,0.207941264,301.1234073,28563.45366,1.81E-6,2.59E-7,0.0,-3.5537041,-1.897465584,-2.562060503,9.999999988558965,19.99999997711793,30.000000022972678,-18067.40444,1001.000681,9.38981E-4,672.04359,416.9480342,-0.030717023,0.037972582,-0.83263395,0.0,0.0,0.0,0.300822452,178.4107833
9.6,0.009869755,0.212294993,304.2363973,28533.18566,1.86E-6,2.61E-7,0.0,-0.6317605,0.215769151,-1.615839286,9.999999988558965,19.99999997711793,30.000000022972678,-18254.18384,1001.12988,9.40008E-4,672.9524127,417.0556728,8.05E-5,0.024919157,-0.851984542,0.0,0.0,0.0,0.303893109,180.2551807
9.7,0.009866983,0.216692217,307.3475551,28502.60645,1.92E-6,2.64E-7,0.0,2.3262078,2.278272635,-0.562195395,9.999999988558965,19.99999997711793,30.000000022972678,-18440.85331,1001.260399,9.41046E-4,673.8709699,417.1644237,0.031473872,0.009601032,-0.870227057,0.0,0.0,0.0,0.306960739,182.0984927
9.8,0.009864181,0.221132867,310.4568593,28471.71621,1.98E-6,2.67E-7,0.0,5.3269402,4.283813597,0.599016312,9.999999988558965,19.99999997711793,30.000000022972678,-18627.41156,1001.392226,9.42094E-4,674.7992624,417.2742801,0.06330154,-0.008031246,-0.887274646,0.0,0.0,0.0,0.310025313,183.9407065
9.9,0.009861348,0.225616873,313.5642881,28440.51514,2.04E-6,2.69E-7,0.0,8.3766997,6.225952797,1.868034406,9.999999988558965,19.99999997711793,30.000000022972678,-18813.85729,1001.525355,9.43153E-4,675.7372402,417.3852351,0.095393321,-0.028016822,-0.903044505,0.0,0.0,0.0,0.313086801,185.7818092
10.0,0.009858484,0.230144165,316.6698199,28409.00342,2.11E-6,2.72E-7,0.0,11.4812093,8.098032971,3.245061904,9.999999988558965,19.99999997711793,30.000000022972678,-19000.1892,1001.6598,9.44222E-4,676.6850392,417.4973026,0.127570994,-0.050383981,-0.917458476,0.0,0.0,0.0,0.316145166,187.6217879
10.1,0.009855589,0.234714671,319.7734329,28377.18124,2.17E-6,2.75E-7,0.0,14.6455696,9.893179559,4.730124015,9.999999988558965,19.99999997711793,30.000000022972678,-19186.40597,1001.795545,9.45302E-4,677.6425984,417.6104686,0.159649003,-0.075149646,-0.930443557,0.0,0.0,0.0,0.319200381,189.4606298
10.2,0.009852664,0.239328321,322.8751052,28345.04879,2.24E-6,2.78E-7,0.0,17.8741553,11.60431405,6.322912309,9.999999988558965,19.99999997711793,30.000000022972678,-19372.50631,1001.932597,9.46392E-4,678.6098906,417.7247401,0.191435277,-0.102318946,-0.941932749,0.0,0.0,0.0,0.32225241,191.2983219
10.3,0.009849708,0.243985041,325.9748147,28312.60628,2.3E-6,2.8E-7,0.0,21.1704934,13.22418194,8.022616414,9.999999988558965,19.99999997711793,30.000000022972678,-19558.48888,1002.070956,9.47493E-4,679.5869281,417.8401172,0.222731945,-0.131884768,-0.951865048,0.0,0.0,0.0,0.325301222,193.1348511
10.4,0.009846721,0.248684758,329.0725397,28279.8539,2.37E-6,2.83E-7,0.0,24.537128,14.7453973,9.827746084,9.999999988558965,19.99999997711793,30.000000022972678,-19744.35238,1002.210613,9.48605E-4,680.573763,417.9565929,0.253336366,-0.163827478,-0.96018675,0.0,0.0,0.0,0.328346786,194.9702045
10.5,0.009843704,0.253427396,332.1682578,28246.79184,2.44E-6,2.86E-7,0.0,27.9754746,16.16050554,11.73594869,9.999999988558965,19.99999997711793,30.000000022972678,-19930.09547,1002.351576,9.49727E-4,681.5704193,418.074174,0.283041863,-0.19811452,-0.966851107,0.0,0.0,0.0,0.331389068,196.804369
10.6,0.009840655,0.258212882,335.2619471,28213.42031,2.51E-6,2.88E-7,0.0,31.4856748,17.46206579,13.74382975,9.999999988558965,19.99999997711793,30.000000022972678,-20115.71683,1002.493836,9.50859E-4,682.5767966,418.1928539,0.31163888,-0.234700274,-0.971819594,0.0,0.0,0.0,0.334428038,198.6373314
10.7,0.009837575,0.263041137,338.3535852,28179.73952,2.58E-6,2.91E-7,0.0,35.0664603,18.64275285,15.84678664,9.999999988558965,19.99999997711793,30.000000022972678,-20301.21511,1002.637393,9.52002E-4,683.5930096,418.3126323,0.338915849,-0.273525761,-0.975061789,0.0,0.0,0.0,0.337463663,200.4690786
10.8,0.009834465,0.267912087,341.4431499,28145.74967,2.65E-6,2.94E-7,0.0,38.7150406,19.69547805,18.0388681,9.999999988558965,19.99999997711793,30.000000022972678,-20486.58899,1002.782245,9.53156E-4,684.6190203,418.4335094,0.364660316,-0.314518541,-0.976556098,0.0,0.0,0.0,0.340495912,202.2995973
10.9,0.009831323,0.272825652,344.5306187,28111.45096,2.72E-6,2.96E-7,0.0,42.4270272,20.61352621,20.31267362,9.999999988558965,19.99999997711793,30.000000022972678,-20671.83712,1002.928393,9.5432E-4,685.6548418,418.5554851,0.388660025,-0.357592595,-0.976290081,0.0,0.0,0.0,0.343524751,204.1288743
11.0,0.00982815,0.277781754,347.6159692,28076.84361,2.8E-6,2.99E-7,0.0,46.1964111,21.39070435,22.65930731,9.999999988558965,19.99999997711793,30.000000022972678,-20856.95815,1003.075835,9.55494E-4,686.7004872,418.6785594,0.410704048,-0.40264828,-0.974260836,0.0,0.0,0.0,0.346550149,205.9568962
11.1,0.009824946,0.282780313,350.6991789,28041.92784,2.88E-6,3.02E-7,0.0,50.0156054,22.02149581,25.06839913,9.999999988558965,19.99999997711793,30.000000022972678,-21041.95074,1003.224563,9.56679E-4,687.7559077,418.8027255,0.430583958,-0.449572337,-0.970475358,0.0,0.0,0.0,0.349572076,207.7836498
11.2,0.00982171,0.287821248,353.7802252,28006.70385,2.95E-6,3.04E-7,0.0,53.8755638,22.50121183,27.528203,9.999999988558965,19.99999997711793,30.000000022972678,-21226.81351,1003.374594,9.57874E-4,688.82119,418.9279971,0.448095006,-0.498237929,-0.964950792,0.0,0.0,0.0,0.352590493,209.6091216
11.3,0.009818444,0.292904479,356.8590854,27971.17187,3.03E-6,3.07E-7,0.0,57.7659783,22.8261312,30.02577532,9.999999988558965,19.99999997711793,30.000000022972678,-21411.54512,1003.525901,9.5908E-4,689.8963139,419.0543536,0.463037461,-0.548504899,-0.957714953,0.0,0.0,0.0,0.355605377,211.4332983
11.4,0.009815145,0.298029924,359.9357368,27935.33211,3.11E-6,3.1E-7,0.0,61.6755523,22.99361867,32.5472301,9.999999988558965,19.99999997711793,30.000000022972678,-21596.14421,1003.678508,9.60296E-4,690.9812759,419.1818156,0.475217751,-0.600219872,-0.948806303,0.0,0.0,0.0,0.358616686,213.2561663
11.5,0.009811816,0.303197498,363.0101564,27899.18479,3.2E-6,3.12E-7,0.0,65.5923383,23.00221316,35.07805859,9.999999988558965,19.99999997711793,30.000000022972678,-21780.60939,1003.832391,9.61523E-4,692.0760557,419.3103625,0.484449891,-0.653216753,-0.938274454,0.0,0.0,0.0,0.361624397,215.077712
11.6,0.009808455,0.308407117,366.0823199,27862.73015,3.28E-6,3.15E-7,0.0,69.5041198,22.85167876,37.60349387,9.999999988558965,19.99999997711793,30.000000022972678,-21964.93919,1003.987565,9.62798E-4,693.208486,419.4400081,0.490573361,-0.707341103,-0.926211601,0.0,0.0,0.0,0.36462847,216.897921
11.7,0.009805062,0.31365869,369.1521984,27825.96841,3.37E-6,3.18E-7,0.0,73.3988124,22.54301424,40.10889486,9.999999988558965,19.99999997711793,30.000000022972678,-22149.13191,1004.144014,9.64104E-4,694.3648602,419.5707385,0.493417421,-0.762402147,-0.912681011,0.0,0.0,0.0,0.367628873,218.7167763
11.8,0.009801637,0.318952132,372.2197684,27788.89979,3.45E-6,3.21E-7,0.0,77.2648572,22.07842026,42.58012195,9.999999988558965,19.99999997711793,30.000000022972678,-22333.1861,1004.301752,9.6542E-4,695.5314492,419.7025676,0.492813321,-0.818181836,-0.897741478,0.0,0.0,0.0,0.370625566,220.5342639
11.9,0.009798181,0.324287355,375.2850063,27751.52453,3.54E-6,3.23E-7,0.0,81.0915785,21.46122678,45.00387732,9.999999988558965,19.99999997711793,30.000000022972678,-22517.10038,1004.460764,9.66748E-4,696.7082961,419.8354816,0.48861753,-0.874468739,-0.881487357,0.0,0.0,0.0,0.373618523,222.3503697
12.0,0.009794692,0.32966427,378.3478886,27713.84287,3.63E-6,3.26E-7,0.0,84.8694853,20.69578651,47.36798732,9.999999988558965,19.99999997711793,30.000000022972678,-22700.87332,1004.621064,9.68086E-4,697.8953876,419.9694942,0.480700258,-0.931041728,-0.864023803,0.0,0.0,0.0,0.376607704,224.1650799
12.1,0.009791172,0.33508279,381.4083917,27675.85503,3.72E-6,3.29E-7,0.0,88.5904985,19.78734254,49.66161155,9.999999988558965,19.99999997711793,30.000000022972678,-22884.5035,1004.782629,9.69435E-4,699.0927554,420.1045848,0.468946886,-0.987671381,-0.845466979,0.0,0.0,0.0,0.379593086,225.9783806
12.2,0.009787619,0.340542824,384.4664919,27637.56127,3.81E-6,3.31E-7,0.0,92.2481005,18.74187951,51.87537123,9.999999988558965,19.99999997711793,30.000000022972678,-23067.98952,1004.945472,9.70795E-4,700.3004376,420.2407672,0.453258907,-1.044120732,-0.825943389,0.0,0.0,0.0,0.382574631,227.7902575
12.3,0.009784035,0.346044281,387.5221654,27598.96182,3.91E-6,3.34E-7,0.0,95.8374045,17.56596793,54.00139759,9.999999988558965,19.99999997711793,30.000000022972678,-23251.32993,1005.109594,9.72166E-4,701.5183984,420.3780414,0.433555099,-1.100146673,-0.805589696,0.0,0.0,0.0,0.385552304,229.6006968
12.4,0.009780418,0.351587069,390.5753884,27560.05692,4.0E-6,3.37E-7,0.0,99.3551536,16.26661049,56.03330766,9.999999988558965,19.99999997711793,30.000000022972678,-23434.52331,1005.274987,9.73547E-4,702.7465904,420.5164005,0.409772321,-1.155500755,-0.78455192,0.0,0.0,0.0,0.388526077,231.4096842
12.5,0.009776769,0.357171096,393.6261369,27520.84682,4.1E-6,3.39E-7,0.0,102.7996613,14.85109757,57.96611948,9.999999988558965,19.99999997711793,30.000000022972678,-23617.56822,1005.44164,9.7494E-4,703.98512,420.6558376,0.381866607,-1.209930973,-0.76298528,0.0,0.0,0.0,0.391495919,233.2172055
12.6,0.009773088,0.362796268,396.6743869,27481.33178,4.2E-6,3.42E-7,0.0,106.1707078,13.32687752,59.79612117,9.999999988558965,19.99999997711793,30.000000022972678,-23800.46322,1005.609571,9.76343E-4,705.2339744,420.7963664,0.3498137,-1.263182367,-0.741053102,0.0,0.0,0.0,0.394461792,235.0232465
12.7,0.009769374,0.368462491,399.7201143,27441.51203,4.3E-6,3.45E-7,0.0,109.4694079,11.70144503,61.52070867,9.999999988558965,19.99999997711793,30.000000022972678,-23983.20686,1005.778761,9.77757E-4,706.4930953,420.9379733,0.313609935,-1.314998906,-0.718926536,0.0,0.0,0.0,0.397423668,236.827793
12.8,0.009765628,0.374169668,402.7632949,27401.38784,4.4E-6,3.47E-7,0.0,112.6980643,9.982249488,63.13820562,9.999999988558965,19.99999997711793,30.000000022972678,-24165.7977,1005.949227,9.79182E-4,707.7626238,421.080672,0.27327271,-1.365124469,-0.696783603,0.0,0.0,0.0,0.400381509,238.6308305
12.9,0.009761849,0.379917705,405.8039045,27360.95946,4.5E-6,3.5E-7,0.0,115.8600184,8.1766234,64.64767694,9.999999988558965,19.99999997711793,30.000000022972678,-24348.23427,1006.120943,9.80618E-4,709.0423876,421.2244418,0.228840997,-1.413304268,-0.674808478,0.0,0.0,0.0,0.40333529,240.4323448
13.0,0.009758038,0.385706502,408.8419186,27320.22714,4.61E-6,3.53E-7,0.0,118.959508,6.291730102,66.04874472,9.999999988558965,19.99999997711793,30.000000022972678,-24530.51512,1006.293925,9.82065E-4,710.3325281,421.3692966,0.180375689,-1.459285996,-0.653190591,0.0,0.0,0.0,0.406284973,242.2323214
13.1,0.009754194,0.391535963,411.8773129,27279.19116,4.71E-6,3.55E-7,0.0,122.0015375,4.334529178,67.34141247,9.999999988558965,19.99999997711793,30.000000022972678,-24712.63878,1006.468173,9.83522E-4,711.6330615,421.5152362,0.12795997,-1.502821828,-0.632124056,0.0,0.0,0.0,0.409230525,244.0307458
13.2,0.009750318,0.397405987,414.9100629,27237.85177,4.82E-6,3.58E-7,0.0,124.9917678,2.311757627,68.5259015,9.999999988558965,19.99999997711793,30.000000022972678,-24894.60377,1006.64367,9.8499E-4,712.9438784,421.662247,0.07169936,-1.54366908,-0.611806452,0.0,0.0,0.0,0.412171919,245.8276035
13.3,0.009746409,0.403316474,417.9401439,27196.20924,4.93E-6,3.61E-7,0.0,127.9364246,0.229924694,69.60250092,9.999999988558965,19.99999997711793,30.000000022972678,-25076.40863,1006.82043,9.86469E-4,714.2650695,421.8103427,0.011721834,-1.581592134,-0.592438132,0.0,0.0,0.0,0.415109116,247.62288
13.4,0.009742467,0.409267324,420.9675312,27154.26383,5.04E-6,3.63E-7,0.0,130.84223,-1.90468158,70.57143127,9.999999988558965,19.99999997711793,30.000000022972678,-25258.05187,1006.998438,9.87959E-4,715.596628,421.9595096,-0.05182227,-1.616363266,-0.574221041,0.0,0.0,0.0,0.418042089,249.4165605
13.5,0.009738492,0.415258434,423.9922002,27112.01582,5.15E-6,3.66E-7,0.0,133.7163541,-4.085977886,71.43272093,9.999999988558965,19.99999997711793,30.000000022972678,-25439.53201,1007.1777,9.89459E-4,716.938582,422.1097545,-0.118760403,-1.647764593,-0.557357956,0.0,0.0,0.0,0.420970801,251.2086305
13.6,0.009734484,0.4212897,427.014126,27069.46548,5.27E-6,3.69E-7,0.0,136.5663882,-6.308060704,72.1860932,9.999999988558965,19.99999997711793,30.000000022972678,-25620.84756,1007.358217,9.9097E-4,718.2909482,422.2610774,-0.188898149,-1.675589456,-0.542051447,0.0,0.0,0.0,0.423895221,252.9990752
13.7,0.009730443,0.42736102,430.0332836,27026.61309,5.38E-6,3.71E-7,0.0,139.4003378,-8.565174018,72.83086194,9.999999988558965,19.99999997711793,30.000000022972678,-25801.99702,1007.539978,9.92492E-4,719.6536803,422.4134715,-0.262019563,-1.699642941,-0.528502565,0.0,0.0,0.0,0.426815318,254.7878799
13.8,0.009726369,0.433472287,433.0496481,26983.45892,5.5E-6,3.74E-7,0.0,142.2266338,-10.85167047,73.36583347,9.999999988558965,19.99999997711793,30.000000022972678,-25982.97888,1007.722992,9.94025E-4,721.0268068,422.5669437,-0.337887845,-1.719744504,-0.516910208,0.0,0.0,0.0,0.429731055,256.5750297
13.9,0.009722262,0.439623397,436.0631943,26940.00325,5.62E-6,3.77E-7,0.0,145.0541613,-13.16196634,73.78921197,9.999999988558965,19.99999997711793,30.000000022972678,-26163.79166,1007.907242,9.95568E-4,722.4103212,422.7214801,-0.416245806,-1.73572781,-0.50746958,0.0,0.0,0.0,0.432642408,258.3605098
14.0,0.009718122,0.445814241,439.0738971,26896.24638,5.74E-6,3.79E-7,0.0,147.8923052,-15.49049052,74.09850651,9.999999988558965,19.99999997711793,30.000000022972678,-26344.43383,1008.092743,9.97122E-4,723.8043154,422.8770946,-0.496816834,-1.747443181,-0.500371484,0.0,0.0,0.0,0.435549335,260.1443052
14.1,0.009713949,0.452044712,442.0817313,26852.18857,5.87E-6,3.82E-7,0.0,150.7510098,-17.83162719,74.29043757,9.999999988558965,19.99999997711793,30.000000022972678,-26524.90388,1008.279486,9.98687E-4,725.208692,423.0337802,-0.579305706,-1.754758175,-0.495801034,0.0,0.0,0.0,0.438451807,261.9264011
14.2,0.009709742,0.458314702,445.0866715,26807.83013,5.99E-6,3.85E-7,0.0,153.6408532,-20.1796516,74.36084192,9.999999988558965,19.99999997711793,30.000000022972678,-26705.20029,1008.467463,0.001000262,726.6235078,423.1915302,-0.663399623,-1.757558835,-0.493936602,0.0,0.0,0.0,0.441349794,263.7067824
14.3,0.009705502,0.464624099,448.0886924,26763.17133,6.12E-6,3.87E-7,0.0,156.573132,-22.52865838,74.30457508,9.999999988558965,19.99999997711793,30.000000022972678,-26885.32154,1008.656673,0.001001848,728.0487288,423.3503444,-0.74876935,-1.755750743,-0.494948735,0.0,0.0,0.0,0.444243265,265.485434
14.4,0.009701229,0.470972793,451.0877684,26718.21249,6.24E-6,3.9E-7,0.0,159.5599565,-24.87248114,74.11541234,9.999999988558965,19.99999997711793,30.000000022972678,-27065.2661,1008.847132,0.001003445,729.4844475,423.5102367,-0.835070348,-1.749259755,-0.498999018,0.0,0.0,0.0,0.447132177,267.2623409
14.5,0.009696922,0.477360673,454.083874,26672.95388,6.37E-6,3.93E-7,0.0,162.6143501,-27.20460235,73.78595036,9.999999988558965,19.99999997711793,30.000000022972678,-27245.03244,1009.038813,0.001005052,730.9305944,423.6711864,-0.921944524,-1.738033772,-0.506239279,0.0,0.0,0.0,0.45001651,269.0374879
14.6,0.009692581,0.483787625,457.0769835,26627.39581,6.51E-6,3.95E-7,0.0,165.7503472,-29.51805217,73.30751457,9.999999988558965,19.99999997711793,30.000000022972678,-27424.61901,1009.231725,0.00100667,732.3872506,423.8332004,-1.00902107,-1.722042185,-0.516810207,0.0,0.0,0.0,0.452896226,270.8108598
14.7,0.009688207,0.490253536,460.0670712,26581.53858,6.64E-6,3.98E-7,0.0,168.9830813,-31.80529526,72.67008058,9.999999988558965,19.99999997711793,30.000000022972678,-27604.02427,1009.425876,0.001008298,733.8543425,423.9962856,-1.095918607,-1.701277821,-0.530840748,0.0,0.0,0.0,0.455771289,272.5824414
14.8,0.009683799,0.496758291,463.0541113,26535.3825,6.77E-6,4.0E-7,0.0,172.3288466,-34.05810497,71.86222342,9.999999988558965,19.99999997711793,30.000000022972678,-27783.24668,1009.621248,0.001009938,735.3319159,424.1604282,-1.182246624,-1.675757048,-0.548447094,0.0,0.0,0.0,0.458641673,274.3522174
14.9,0.009679358,0.503301773,466.0380779,26488.92787,6.91E-6,4.03E-7,0.0,175.8051133,-36.26742499,70.87111533,9.999999988558965,19.99999997711793,30.000000022972678,-27962.28467,1009.817848,0.001011587,736.8200005,424.3256351,-1.267606937,-1.645519914,-0.569731763,0.0,0.0,0.0,0.461507341,276.1201724
15.0,0.009674882,0.509883866,469.0189451,26442.17499,7.05E-6,4.06E-7,0.0,179.4304655,-38.42322073,69.68260225,9.999999988558965,19.99999997711793,30.000000022972678,-28141.1367,1010.015668,0.001013248,738.3186025,424.4918994,-1.351595865,-1.610631096,-0.594783093,0.0,0.0,0.0,0.464368264,277.8862911
15.1,0.009670373,0.516504452,471.9966868,26395.12418,7.19E-6,4.08E-7,0.0,-176.7755818,-40.51432471,68.28140178,9.999999988558965,19.99999997711793,30.000000022972678,-28319.80121,1010.214715,0.001014919,739.8276487,424.6592281,-1.43380602,-1.571179993,-0.623674652,0.0,0.0,0.0,0.467224405,279.6505581
15.2,0.00966583,0.523163412,474.9712769,26347.77576,7.33E-6,4.11E-7,0.0,-172.7929434,-42.52828509,66.65147913,9.999999988558965,19.99999997711793,30.000000022972678,-28498.27661,1010.414973,0.0010166,741.3472367,424.8276073,-1.513827888,-1.527280442,-0.656464686,0.0,0.0,0.0,0.470075739,281.4129578
15.3,0.009661253,0.529860627,477.9426892,26300.13003,7.48E-6,4.14E-7,0.0,-168.6015736,-44.45123212,64.77667305,9.999999988558965,19.99999997711793,30.000000022972678,-28676.56135,1010.616456,0.001018292,742.877357,424.9970508,-1.591251961,-1.479070942,-0.693195991,0.0,0.0,0.0,0.472922225,283.1734747
15.4,0.009656641,0.536595975,480.9108974,26252.18733,7.62E-6,4.16E-7,0.0,-164.1824091,-46.26778601,62.64165407,9.999999988558965,19.99999997711793,30.000000022972678,-28854.65385,1010.819156,0.001019995,744.4180162,425.1675517,-1.66567049,-1.426714227,-0.733895765,0.0,0.0,0.0,0.475763834,284.9320934
15.5,0.009651996,0.543369326,483.8758683,26203.94796,7.77E-6,4.19E-7,0.0,-159.5187245,-47.96103992,60.23329654,9.999999988558965,19.99999997711793,30.000000022972678,-29032.5521,1011.023121,0.001021778,746.0204558,425.3391513,-1.736784826,-1.370480064,-0.778622972,0.0,0.0,0.0,0.478600502,286.688794
15.6,0.009647316,0.550180545,486.8375639,26155.41226,7.92E-6,4.22E-7,0.0,-154.5979575,-49.51266324,57.54251964,9.999999988558965,19.99999997711793,30.000000022972678,-29210.25383,1011.228301,0.001023581,747.6403429,425.5118083,-1.804128388,-1.310508996,-0.827346034,0.0,0.0,0.0,0.481432209,288.4435541
15.7,0.009642601,0.557029507,489.7959573,26106.58056,8.07E-6,4.24E-7,0.0,-149.41399,-50.90317944,54.56658399,9.999999988558965,19.99999997711793,30.000000022972678,-29387.75744,1011.434696,0.001025396,749.2711831,425.6855228,-1.867280694,-1.247008443,-0.880034529,0.0,0.0,0.0,0.48425892,290.1963577
15.8,0.009637852,0.563916084,492.7510213,26057.45318,8.22E-6,4.27E-7,0.0,-143.9697447,-52.11247366,51.31170427,9.999999988558965,19.99999997711793,30.000000022972678,-29565.06128,1011.642297,0.001027221,750.912984,425.8602878,-1.925856575,-1.180230554,-0.936654259,0.0,0.0,0.0,0.487080607,291.9471888
15.9,0.009633068,0.570840151,495.7027287,26008.03047,8.38E-6,4.3E-7,0.0,-138.2797744,-53.1205712,47.79565333,9.999999988558965,19.99999997711793,30.000000022972678,-29742.16372,1011.851103,0.001029057,752.5658172,426.0361034,-1.979480571,-1.11044835,-0.997154612,0.0,0.0,0.0,0.489897235,293.6960312
16.0,0.009628249,0.577801579,498.6510522,25958.31275,8.53E-6,4.32E-7,0.0,-132.3723081,-53.9086888,44.04982309,9.999999988558965,19.99999997711793,30.000000022972678,-29919.06313,1012.061113,0.001030904,754.229599,426.2129695,-2.027788169,-1.037955375,-1.061467102,0.0,0.0,0.0,0.492708771,295.4428687
16.1,0.009623395,0.584800238,501.5959645,25908.30037,8.69E-6,4.35E-7,0.0,-126.2900711,-54.46049603,40.12005801,9.999999988558965,19.99999997711793,30.000000022972678,-30095.75787,1012.272318,0.001032762,755.904337,426.3908794,-2.070427943,-0.963066413,-1.129503682,0.0,0.0,0.0,0.495515186,297.1876852
16.2,0.009618506,0.591835998,504.5374381,25857.99367,8.85E-6,4.37E-7,0.0,-120.0892268,-54.76344198,36.06561081,9.999999988558965,19.99999997711793,30.000000022972678,-30272.24629,1012.484726,0.001034631,757.5901155,426.5698398,-2.107063252,-0.886118452,-1.201154387,0.0,0.0,0.0,0.498316441,298.9304643
16.3,0.009613582,0.598908728,507.4754455,25807.393,9.02E-6,4.4E-7,0.0,-113.8361126,-54.80993183,31.95589076,9.999999988558965,19.99999997711793,30.000000022972678,-30448.52673,1012.698336,0.001036511,759.2869026,426.7498508,-2.137374687,-0.807472253,-1.276285346,0.0,0.0,0.0,0.501112504,300.6711898
16.4,0.009608624,0.606018295,510.4099592,25756.4987,9.18E-6,4.43E-7,0.0,-107.6020218,-54.5981165,27.86525887,9.999999988558965,19.99999997711793,30.000000022972678,-30624.59755,1012.913131,0.001038402,760.9946942,426.9308986,-2.161064053,-0.727513996,-1.354738287,0.0,0.0,0.0,0.503903349,302.4098454
16.5,0.00960363,0.613164566,513.3409513,25705.31113,9.35E-6,4.45E-7,0.0,-101.4569302,-54.13211284,23.86676788,9.999999988558965,19.99999997711793,30.000000022972678,-30800.45708,1013.129118,0.001040303,762.7135229,427.1129901,-2.177856645,-0.646654985,-1.436330073,0.0,0.0,0.0,0.506688939,304.1464145
16.6,0.0095986,0.620347407,516.2683942,25653.83063,9.52E-6,4.48E-7,0.0,-95.4634584,-53.42159788,20.02613795,9.999999988558965,19.99999997711793,30.000000022972678,-30976.10365,1013.346297,0.001042216,764.443357,427.2961253,-2.187505744,-0.565330466,-1.520854676,0.0,0.0,0.0,0.509469239,305.8808809
16.7,0.009593536,0.62756668,519.19226,25602.05757,9.69E-6,4.51E-7,0.0,-89.6722813,-52.48086974,16.39718069,9.999999988558965,19.99999997711793,30.000000022972678,-31151.5356,1013.564666,0.001044139,766.1842692,427.4803043,-2.189795211,-0.483996094,-1.608084836,0.0,0.0,0.0,0.512244217,307.6132279
16.8,0.009588436,0.63482225,522.1125209,25549.9923,9.86E-6,4.53E-7,0.0,-84.1196914,-51.32758117,13.01937648,9.999999988558965,19.99999997711793,30.000000022972678,-31326.75125,1013.784218,0.001046074,767.9362157,427.66552,-2.184542129,-0.403123441,-1.697774161,0.0,0.0,0.0,0.515013844,309.3434391
16.9,0.009583301,0.642113979,525.0291488,25497.63518,1.0E-5,4.56E-7,0.0,-78.827351,-49.98138844,9.917640778,9.999999988558965,19.99999997711793,30.000000022972678,-31501.74893,1014.00495,0.001048019,769.6992693,427.8517726,-2.171599118,-0.323195142,-1.789659159,0.0,0.0,0.0,0.517778085,311.0714979
17.0,0.00957813,0.649441728,527.9421157,25444.98659,1.02E-5,4.58E-7,0.0,-73.8037443,-48.46272042,7.103789685,9.999999988558965,19.99999997711793,30.000000022972678,-31676.52694,1014.226871,0.001049975,771.473359,428.0390689,-2.150855609,-0.244700267,-1.883460547,0.0,0.0,0.0,0.520536904,312.7973876
17.1,0.009572924,0.656805357,530.8513934,25392.04688,1.04E-5,4.61E-7,0.0,-69.0466115,-46.79179326,4.578988327,9.999999988558965,19.99999997711793,30.000000022972678,-31851.08361,1014.449964,0.001051941,773.2584811,428.2273952,-2.122238667,-0.168130458,-1.978884205,0.0,0.0,0.0,0.523290274,314.5210916
17.2,0.009567682,0.664204726,533.7569539,25338.81644,1.06E-5,4.64E-7,0.0,-64.5456974,-44.98791367,2.336511981,9.999999988558965,19.99999997711793,30.000000022972678,-32025.41723,1014.674227,0.001053919,775.0547604,428.4167514,-2.085714083,-0.093976896,-2.075622513,0.0,0.0,0.0,0.526038164,316.2425932
17.3,0.009562405,0.67163969,536.6587687,25285.29562,1.08E-5,4.66E-7,0.0,-60.2853344,-43.06905255,0.364344157,9.999999988558965,19.99999997711793,30.000000022972678,-32199.52612,1014.899668,0.001055907,776.8620743,428.6071445,-2.041286259,-0.022727813,-2.173354813,0.0,0.0,0.0,0.528780535,317.9618757
17.4,0.009557091,0.679110109,539.5568096,25231.48481,1.09E-5,4.69E-7,0.0,-56.2466083,-41.05163862,-1.352644331,9.999999988558965,19.99999997711793,30.000000022972678,-32373.40858,1015.126286,0.001057907,778.6805482,428.7985744,-1.988999118,0.045133521,-2.271749038,0.0,0.0,0.0,0.531517353,319.6789221
17.5,0.009551742,0.686615837,542.4510481,25177.38438,1.11E-5,4.72E-7,0.0,-52.4090207,-38.95051231,-2.831017296,9.999999988558965,19.99999997711793,30.000000022972678,-32547.06289,1015.354065,0.001059916,780.510074,428.9910274,-1.92893567,0.109130667,-2.370462229,0.0,0.0,0.0,0.534248595,321.3937158
17.6,0.009546358,0.694156729,545.3414558,25122.99473,1.13E-5,4.74E-7,0.0,-48.7516767,-36.77898538,-4.087570186,9.999999988558965,19.99999997711793,30.000000022972678,-32720.48735,1015.583019,0.001061937,782.3508025,429.1845172,-1.861219006,0.168795842,-2.469142811,0.0,0.0,0.0,0.536974218,323.1062398
17.7,0.009540937,0.701732639,548.228004,25068.31622,1.15E-5,4.77E-7,0.0,-45.254074,-34.54896279,-5.138524873,9.999999988558965,19.99999997711793,30.000000022972678,-32893.68024,1015.813124,0.001063968,784.2025608,429.3790233,-1.786011817,0.223671795,-2.567431505,0.0,0.0,0.0,0.539694202,324.8164772
17.8,0.00953548,0.709343419,551.1106643,25013.34926,1.17E-5,4.79E-7,0.0,-41.896585,-32.27109554,-5.999031352,9.999999988558965,19.99999997711793,30.000000022972678,-33066.63986,1016.044402,0.00106601,786.0655125,429.5745662,-1.703516389,0.27331374,-2.664962897,0.0,0.0,0.0,0.542408501,326.5244111
17.9,0.009529987,0.71698892,553.9894078,24958.09422,1.19E-5,4.82E-7,0.0,-38.6607153,-29.95494386,-6.682892076,9.999999988558965,19.99999997711793,30.000000022972678,-33239.36447,1016.27683,0.001068063,787.9395893,429.7711253,-1.613974661,0.317291423,-2.761367448,0.0,0.0,0.0,0.545117094,328.2300245
18.0,0.009524458,0.724668993,556.8642059,24902.55151,1.21E-5,4.85E-7,0.0,-35.5292101,-27.60913781,-7.202439708,9.999999988558965,19.99999997711793,30.000000022972678,-33411.85236,1016.510422,0.001070127,789.8248379,429.9687144,-1.51766777,0.355191214,-2.856273056,0.0,0.0,0.0,0.547819939,329.9333002
18.1,0.009518893,0.732383487,559.7350298,24846.72151,1.23E-5,4.87E-7,0.0,-32.4860593,-25.24152849,-7.568515459,9.999999988558965,19.99999997711793,30.000000022972678,-33584.10179,1016.745169,0.001072201,791.7212676,430.1673267,-1.414915458,0.386618239,-2.949306639,0.0,0.0,0.0,0.550517008,331.6342214
18.2,0.009513292,0.74013225,562.6018504,24790.60464,1.25E-5,4.9E-7,0.0,-29.5164424,-22.85932649,-7.790509886,9.999999988558965,19.99999997711793,30.000000022972678,-33756.11102,1016.981063,0.001074286,793.6288353,430.3669551,-1.306075683,0.411198616,-3.04009651,0.0,0.0,0.0,0.553208273,333.3327707
18.3,0.009507654,0.747915129,565.464639,24734.20128,1.27E-5,4.92E-7,0.0,-26.6066373,-20.46922658,-7.876439777,9.999999988558965,19.99999997711793,30.000000022972678,-33927.87834,1017.218103,0.001076381,795.5475627,430.5675998,-1.191543368,0.428581514,-3.128273437,0.0,0.0,0.0,0.555893699,335.0289312
18.4,0.009501981,0.755731971,568.3233664,24677.51184,1.29E-5,4.95E-7,0.0,-23.7439147,-18.07751917,-7.833043674,9.999999988558965,19.99999997711793,30.000000022972678,-34099.40199,1017.456296,0.001078487,797.4775369,430.7692676,-1.071749696,0.438441389,-3.213473279,0.0,0.0,0.0,0.558573249,336.7226855
18.5,0.00949627,0.763582619,571.1780037,24620.53674,1.31E-5,4.98E-7,0.0,-20.9164271,-15.69018945,-7.665885006,9.999999988558965,19.99999997711793,30.000000022972678,-34270.68022,1017.695632,0.001080604,799.4186626,430.9719516,-0.947160472,0.440479914,-3.295337818,0.0,0.0,0.0,0.561246895,338.4140166
18.6,0.009490523,0.771466907,574.0285131,24563.27638,1.33E-5,5.0E-7,0.0,-18.1131015,-13.31300575,-7.379456363,9.999999988558965,19.99999997711793,30.000000022972678,-34441.71078,1017.936161,0.001082804,801.4245688,431.1756931,-0.818322488,0.434453297,-3.373713154,0.0,0.0,0.0,0.563914569,340.1029019
18.7,0.00948474,0.779384647,576.8748433,24505.73118,1.35E-5,5.03E-7,0.0,-15.3235413,-10.95159833,-6.977281561,9.999999988558965,19.99999997711793,30.000000022972678,-34612.4906,1018.177849,0.001085038,803.4598965,431.3804645,-0.685725335,0.420109967,-3.448180163,0.0,0.0,0.0,0.566576233,341.7893113
18.8,0.009478919,0.787335677,579.7169637,24447.90155,1.37E-5,5.05E-7,0.0,-12.5379386,-8.611529936,-6.462014283,9.999999988558965,19.99999997711793,30.000000022972678,-34783.01782,1018.420678,0.001087284,805.5068787,431.5862521,-0.54989978,0.397229221,-3.518308185,0.0,0.0,0.0,0.569231862,343.4732264
18.9,0.00947306,0.795319835,582.5548442,24389.78793,1.4E-5,5.08E-7,0.0,-9.7470016,-6.298359246,-5.835533567,9.999999988558965,19.99999997711793,30.000000022972678,-34953.29065,1018.664639,0.001089541,807.5654733,431.7930492,-0.41143422,0.36563872,-3.583783274,0.0,0.0,0.0,0.571881427,345.1546295
19.0,0.009467165,0.803336961,585.3884546,24331.39073,1.42E-5,5.11E-7,0.0,-6.941896,-4.017697836,-5.099037359,9.999999988558965,19.99999997711793,30.000000022972678,-35123.30728,1018.909733,0.001091808,809.6357039,432.0008556,-0.270942874,0.32520221,-3.64430617,0.0,0.0,0.0,0.574524893,346.8335027
19.1,0.009461232,0.811386889,588.2177648,24272.71038,1.44E-5,5.13E-7,0.0,-4.1142035,-1.775261276,-4.253136104,9.999999988558965,19.99999997711793,30.000000022972678,-35293.06589,1019.15595,0.001094087,811.7176336,432.2096645,-0.129063687,0.275821102,-3.699595659,0.0,0.0,0.0,0.577162234,348.5098281
19.2,0.009455263,0.819469455,591.0427445,24213.74732,1.46E-5,5.16E-7,0.0,-1.2558979,0.423085554,-3.29794876,9.999999988558965,19.99999997711793,30.000000022972678,-35462.56467,1019.403297,0.001096377,813.8112464,432.4194827,0.013544297,0.217435591,-3.749388877,0.0,0.0,0.0,0.579793409,350.1835879
19.3,0.009449255,0.827584493,593.8633636,24154.50198,1.48E-5,5.18E-7,0.0,1.6406593,2.5712891,-2.233203983,9.999999988558965,19.99999997711793,30.000000022972678,-35631.80181,1019.651774,0.001098677,815.9165661,432.6303104,0.156203498,0.150025853,-3.793444379,0.0,0.0,0.0,0.582418386,351.854764
19.4,0.00944321,0.835731835,596.6795915,24094.9748,1.51E-5,5.21E-7,0.0,4.5827037,4.663074313,-1.058349386,9.999999988558965,19.99999997711793,30.000000022972678,-35800.77549,1019.901363,0.001100989,818.0335379,432.8421336,0.298220642,0.073612859,-3.831542767,0.0,0.0,0.0,0.585037141,353.5233386
19.5,0.009437128,0.843911315,599.491398,24035.16621,1.53E-5,5.23E-7,0.0,7.5770292,6.691919337,0.227328236,9.999999988558965,19.99999997711793,30.000000022972678,-35969.48388,1020.152071,0.001103311,820.1621986,433.0549594,0.438889611,-0.011740889,-3.86348817,0.0,0.0,0.0,0.587649635,355.1892935
19.6,0.009431008,0.852122761,602.2987525,23975.07666,1.55E-5,5.26E-7,0.0,10.6299273,8.651039098,1.624569018,9.999999988558965,19.99999997711793,30.000000022972678,-36137.92515,1020.403899,0.001105645,822.3026249,433.2687877,0.577494483,-0.105930821,-3.88911014,0.0,0.0,0.0,0.590255835,356.8526108
19.7,0.00942485,0.860366005,605.1016247,23914.70661,1.58E-5,5.29E-7,0.0,13.747101,10.53337956,3.133990303,9.999999988558965,19.99999997711793,30.000000022972678,-36306.09748,1020.656845,0.001107989,824.4547355,433.4836185,0.71331258,-0.208809971,-3.908264466,0.0,0.0,0.0,0.592855708,358.5132724
19.8,0.009418655,0.868640873,607.8999838,23854.05649,1.6E-5,5.31E-7,0.0,16.9335543,12.33162484,4.755919787,9.999999988558965,19.99999997711793,30.000000022972678,-36473.99903,1020.910892,0.001110344,826.6185282,433.699438,0.845617826,-0.320188882,-3.92083536,0.0,0.0,0.0,0.59544923,360.1712602
19.9,0.009412422,0.876947195,610.6937993,23793.12676,1.62E-5,5.34E-7,0.0,20.1934587,14.03821947,6.490211595,9.999999988558965,19.99999997711793,30.000000022972678,-36641.62796,1021.166047,0.00111271,828.794093,433.9162532,0.973683613,-0.439835547,-3.926734542,0.0,0.0,0.0,0.598036363,361.826556
