time,eiPosition_ft_X,eiPosition_ft_Y,eiPosition_ft_Z,gePosition_ft_X,gePosition_ft_Y,gePosition_ft_Z,eiVelocity_ft_s_X,eiVelocity_ft_s_Y,eiVelocity_ft_s_Z,feVelocity_ft_s_X,feVelocity_ft_s_Y,feVelocity_ft_s_Z,altitudeMsl_ft,longitude_deg,latitude_deg,localGravity_ft_s2,eulerAngle_deg_Yaw,eulerAngle_deg_Pitch,eulerAngle_deg_Roll,bodyAngularRateWrtEi_deg_s_Roll,bodyAngularRateWrtEi_deg_s_Pitch,bodyAngularRateWrtEi_deg_s_Yaw,altitudeRateWrtMsl_ft_min,speedOfSound_ft_s,airDensity_slug_ft3,ambientPressure_lbf_ft2,ambientTemperature_dgR,aero_bodyForce_lbf_X,aero_bodyForce_lbf_Y,aero_bodyForce_lbf_Z,aero_bodyMoment_ftlbf_L,aero_bodyMoment_ftlbf_M,aero_bodyMoment_ftlbf_N,mach,dynamicPressure_lbf_ft2,trueAirspeed_nmi_h,feVelocity_ft_s_Z
0.0,2.093225453051181E7,0.0,0.0,2.093225453051181E7,0.0,0.0,0.0,1526.4040724576314,0.0,0.0,0.0,0.0,30000.0,0.0,0.0,32.12631207052139,0.0,-0.0,0.0,10.0,20.0,30.000000000000004,-0.0,994.8487845641213,8.906867503799385E-4,629.6672472120785,411.8388730822483,0.0,0.0,0.0,0.0,0.0,0.0,0.0,0.0,0.0,0.0
0.009999999776482582,2.0932254528905496E7,15.26404072423897,2.4164013644180664E-28,2.0932254528911065E7,8.312923682751716E-10,2.416401364418067E-28,-0.3212631179955078,1526.4040723451828,-1.2627429038544423E-25,-1.9603536616572586E-17,2.3814277484596412E-7,0.32015004659216095,29999.998399253935,2.275413963546909E-15,6.6141752480405775E-34,32.12631207543496,0.3001754514841627,0.19973740344534568,0.1004817681067416,10.0,20.0,30.000000000000004,-19.209002795529656,994.8487914391492,8.906868027716545E-4,629.6672929529717,411.83887877437724,3.124405275875764E-9,-1.5724538201112243E-9,-8.96248935508922E-7,0.0,0.0,0.0,3.218077472411096E-4,4.5645942009286955E-5,0.1896837204694748,0.32015004659216095
0.019999999552965164,2.0932254524086546E7,30.528081446144625,5.8974358759263885E-27,2.093225452410881E7,6.3411071948848985E-9,5.8974358759263885E-27,-0.6425262181996538,1526.4040719937802,7.854855397761212E-25,-3.920707110568348E-17,9.385146315373926E-7,0.6403000753926195,29999.993596997112,1.735688237922443E-14,1.614246498151665E-32,32.12631209017573,0.6007060478843702,0.3989455447110268,0.2020104382438424,10.0,20.0,30.000000000000004,-38.418004523557165,994.8488120643127,8.906869599474258E-4,629.6674301761997,411.8388958508302,2.4961950824667257E-8,-1.2644808548205178E-8,-3.584914272352296E-6,0.0,0.0,0.0,6.436154362745583E-4,1.8258378258906305E-4,0.3793674111366272,0.6403000753926195
0.029999999329447746,2.093225451605497E7,45.792122163364915,4.109557360124883E-26,2.093225451610506E7,2.1189201504512312E-8,4.109557360124883E-26,-0.96378928274976,1526.4040714081088,8.45510417907053E-24,-5.881059665371365E-17,2.1058003777115926E-6,0.9604500685383583,29999.98559324816,5.799909496259615E-14,1.1248682850713438E-31,32.12631211474365,0.9015981167102344,0.5976183080878742,0.304585725515849,10.0,20.0,30.000000000000004,-57.6270041123015,994.8488464395311,8.906872219066858E-4,629.6676588812791,411.8389243115412,8.413303573679462E-8,-4.2895814695513764E-8,-8.065751608911056E-6,0.0,0.0,0.0,9.65423125308007E-4,4.1081360541284084E-4,0.5690510869026184,0.9604500685383583
0.03999999910593033,2.093225450481076E7,61.056162873557156,1.3697568105598368E-25,2.0932254504899815E7,5.004475411851672E-8,1.369756810559837E-25,-1.2850522938187845,1526.4040705881687,1.4141428036309102E-24,-7.841413363748966E-17,3.7400002414563675E-6,1.2806000082019964,29999.97438800335,1.369825308157687E-13,3.7492991586744E-31,32.12631214913872,1.2028579379209599,0.795749561613706,0.408207355610217,10.0,20.0,30.000000000000004,-76.83600049211978,994.8488945648189,8.906875886496269E-4,629.6679790683968,411.8389641565232,1.9915448991683088E-7,-1.0219809566499886E-7,-1.4338353637929113E-5,0.0,0.0,0.0,0.001287230639718473,7.303354796022177E-4,0.7587347626686096,1.2806000082019964
0.05000000074505806,2.0932254490353923E7,76.32020357437864,2.371968323451976E-25,2.093225449049306E7,9.757683017141972E-8,2.371968323451976E-25,-1.6063152335796596,1526.4040695339597,1.3696120536140697E-23,-9.80176469318784E-17,5.841113996397813E-6,1.6007498765561248,29999.959981247783,2.670873579158101E-13,6.49255311386761E-31,32.12631219336099,1.5044917434929153,0.9933331569361895,0.5128750636791792,10.0,20.0,30.000000000000004,-96.04499259336748,994.848956440238,8.906880601768367E-4,629.6683907380923,411.83901538582944,3.884369474708328E-7,-2.00616769695064E-7,-2.2402150189687604E-5,0.0,0.0,0.0,0.001609038095921278,0.0011411496670916677,0.948418378829956,1.6007498765561248
0.05999999865889549,2.0932254472684454E7,91.58424426348671,4.825782549325219E-25,2.0932254472884815E7,1.6845469019699522E-7,4.82578254932522E-25,-1.9275780842052832,1526.404068245482,3.270142228495361E-23,-1.176211480448791E-16,8.409140506952985E-6,1.920899655773303,29999.94237300381,4.610942791649263E-13,1.3209134891914594E-30,32.1263122474104,1.8065057169699388,1.1903629291843534,0.6185885932118004,10.0,20.0,30.000000000000004,-115.25397934639817,994.8490320656902,8.906886364877107E-4,629.6688938898722,411.8390779993804,6.702822311527917E-7,-3.484080514344161E-7,-3.225640829239348E-5,0.0,0.0,0.0,0.0019308454357087612,0.0016432561678811908,1.1381019353866577,1.920899655773303
0.07000000029802322,2.0932254451802358E7,106.84828493853864,6.51197316603147E-25,2.0932254452075068E7,2.673473176173502E-7,6.511973166031472E-25,-2.2488408278685093,1526.4040667227355,4.519515824812765E-23,-1.3722464911976284E-16,1.144408045681397E-5,2.241049328026044,29999.921563256532,7.317832390528382E-13,1.782457687824737E-30,32.12631231128697,2.1089059929963394,1.3868326968492273,0.7253476948961189,10.0,20.0,30.000000000000004,-134.46295968156264,994.8491214412361,8.906893175828931E-4,629.6694885243404,411.8391519972291,1.0628807481020985E-6,-5.560178333343366E-7,-4.390023224990774E-5,0.0,0.0,0.0,0.0022526525426656008,0.0022366554476320744,1.3277853727340698,2.241049328026044
0.07999999821186066,2.0932254427707635E7,122.11232559719177,8.1304011459386825E-25,2.093225442806382E7,3.9892391612283973E-7,8.130401145938684E-25,-2.570103446742141,1526.4040649657202,1.533724684585576E-23,-1.5682818490498935E-16,1.4945932938342795E-5,2.561198875486811,29999.897552009672,1.0919347851049293E-12,2.2254538946653892E-30,32.126312384990726,2.4116986568325744,1.5827362616729808,0.8331521254712748,10.0,20.0,30.000000000000004,-153.67193252920868,994.8492245668564,8.906901034624478E-4,629.670174641602,411.83923737936254,1.5843088971035589E-6,-8.340802468350167E-7,-5.733256373663388E-5,0.0,0.0,0.0,0.0025744594167917967,0.0029213475063443184,1.517468810081482,2.561198875486811
0.09000000357627869,2.093225440040029E7,137.3763662371034,7.826064334354166E-25,2.0932254400851082E7,5.678535899278359E-7,7.826064334354166E-25,-2.89136592299892,1526.404062974436,-3.061429055515323E-23,-1.7643172805091174E-16,1.8914697498934473E-5,2.881348280328006,29999.87033927068,1.5543291926976908E-12,2.1421508069294355E-30,32.12631246852162,2.7148897438535635,1.778067408547289,0.9420016465695156,10.0,20.0,30.000000000000004,-172.88089681968037,994.8493414425146,8.90690994126341E-4,629.6709522416849,411.8393341457541,2.252526487597181E-6,-1.1934162036446712E-6,-7.255218190968466E-5,0.0,0.0,0.0,0.002896266058087349,0.0036973331589251757,1.7071521282196045,2.881348280328006
0.10000000149011612,2.093225436988032E7,152.64040685593085,8.432287939865768E-25,2.093225437043686E7,7.788054290358559E-7,8.43228793986577E-25,-3.2126282388115173,1526.4040607488832,1.8937136847212283E-23,-1.9603516586930934E-16,2.335037323152231E-5,3.2014975247219613,29999.83992504701,2.1317466984660293E-12,2.3080863725586824E-30,32.12631256187964,3.01848523902966,1.9728199054208262,1.0518960235480246,10.0,20.0,30.000000000000004,-192.0898514833177,994.8494720681742,8.906919895745724E-4,629.6718213246526,411.83944229637746,3.085374170669732E-6,-1.6450319171103463E-6,-8.955770353828499E-5,0.0,0.0,0.0,0.003218072233721614,0.0045646121725440025,1.896835446357727,3.2014975247219613
0.10999999940395355,2.0932254336147726E7,167.9044474513314,1.0054951080797176E-24,2.093225433682114E7,1.0364486229264003E-6,1.0054951080797177E-24,-3.5338903763525282,1526.4040582890616,2.4442850990655456E-23,-2.156386368172258E-16,2.8252960138819975E-5,3.5216465908409313,29999.806309327483,2.8369678115064964E-12,2.752241831529713E-30,32.1263126650648,3.3224910763902136,2.1669875032158146,1.162835024310448,10.0,20.0,30.000000000000004,-211.29879545045588,994.8496164438778,8.906930898077765E-4,629.6727818911313,411.83956183127236,4.100570882254481E-6,-2.2001174039139676E-6,-1.083475831504663E-4,0.0,0.0,0.0,0.003539878409355879,0.005523185711354017,2.0865185260772705,3.5216465908409313
0.11999999731779099,2.093225429920251E7,183.16848802096243,1.8665636034967833E-24,2.093225430000392E7,1.3454522331812768E-6,1.8665636034967833E-24,-3.8551523177944604,1526.4040555949712,8.627625611941456E-23,-2.3524203942961677E-16,3.3622457769079415E-5,3.8417954608570835,29999.769492108375,3.682772691029471E-12,5.109159058567146E-30,32.12631277807714,3.626913138469781,2.3605639357544246,1.2748184181180862,10.0,20.0,30.000000000000004,-230.507727651425,994.8497745696357,8.90694294826374E-4,629.6738339415682,411.8396927504523,5.315711298765622E-6,-2.8700449660976014E-6,-1.2892011319684825E-4,0.0,0.0,0.0,0.0038616841193288565,0.006573053076863289,2.2762014865875244,3.8417954608570835
0.12999999523162842,2.0932254259044677E7,198.43252856248117,2.2820927683769572E-24,2.0932254259985223E7,1.710485349804003E-6,2.2820927683769576E-24,-4.176414045309727,1526.404052666612,-9.160066283871602E-23,-2.548456686528519E-16,3.945886453396984E-5,4.161944116942492,29999.729473412037,4.681941574256266E-12,6.246545759540096E-30,32.126312900916574,3.931757255736949,2.553542919694316,1.3878459743906495,10.0,20.0,30.000000000000004,-249.71664701654953,994.8499464453452,8.906956046299596E-4,629.6749774756967,411.8398350538379,6.74826330539057E-6,-3.666367653620435E-6,-1.5127342423154982E-4,0.0,0.0,0.0,0.004183489363640547,0.007714216131716967,2.4658844470977783,4.161944116942492
0.14000000059604645,2.093225421567423E7,213.696569073545,9.290171390586998E-25,2.0932254216765042E7,2.1362171196415147E-6,9.290171390587E-25,-4.497675541070635,1526.404049503984,-1.390345079105423E-22,-2.744491532418807E-16,4.576217975494082E-5,4.482092541269122,29999.68625323102,5.847254854234598E-12,2.5429063020240734E-30,32.12631303358314,4.237029206005789,2.745918154473913,1.501917461496526,10.0,20.0,30.000000000000004,-268.9255524761473,994.8501320710316,8.906970192191316E-4,629.6762124941338,411.8399887414557,8.415565477277191E-6,-4.600817707685153E-6,-1.754054851106564E-4,0.0,0.0,0.0,0.0045052943751215935,0.00894667487591505,2.655567169189453,4.482092541269122
0.15000000596046448,2.093225416909117E7,228.96060955181122,-1.728489229156661E-24,2.093225417034338E7,2.6273164905887825E-6,-1.7284892291566614E-24,-4.81893678724938,1526.4040461070872,-2.084912095810695E-22,-2.940526445709751E-16,5.253240252635384E-5,4.802240716008833,29999.639831569046,7.191492379694848E-12,-4.731221824394324E-30,32.126313176076806,4.542734713829956,2.937683322267823,1.6170326455325195,10.0,20.0,30.000000000000004,-288.13444296052995,994.8503314466711,8.906985385941513E-4,629.67753899721,411.84015381329266,1.033482457382143E-5,-5.685304984757455E-6,-2.0131410320743694E-4,0.0,0.0,0.0,0.0048270984552800655,0.010270428843796253,2.845249891281128,4.802240716008833
0.1599999964237213,2.0932254119295493E7,244.22464999493712,-3.992972309598963E-24,2.0932254120720226E7,3.1884526947578706E-6,-3.992972309598963E-24,-5.140197766018038,1526.4040424759216,-2.542309886882927E-22,-3.1365609580868933E-16,5.9769532852350795E-5,5.122388623333356,29999.590208414942,8.727434777600263E-12,-1.0929566387509228E-29,32.126313328397615,4.848879449879483,3.1288320879517455,1.7331912890929833,10.0,20.0,30.000000000000004,-307.3433174000014,994.850544572304,8.907001627557967E-4,629.6789569857149,411.8403302693887,1.252311304629636E-5,-6.9319153616142215E-6,-2.2899692464505353E-4,0.0,0.0,0.0,0.005148902535438538,0.011685480363667011,3.0349323749542236,5.122388623333356
0.17000000178813934,2.0932254066287212E7,259.48869040058,-6.657254940520617E-24,2.0932254067895606E7,3.824294765308878E-6,-6.657254940520619E-24,-5.461458459548554,1526.4040386104873,-2.7625384523597156E-22,-3.3325950586334915E-16,6.747356891836978E-5,5.442536245414302,29999.537383794785,1.0467862130635837E-11,-1.822224257345803E-29,32.1263134905455,5.155469030300252,3.3193580990777614,1.8503931500283355,10.0,20.0,30.000000000000004,-326.5521747248581,994.8507714478093,8.907018917036541E-4,629.6804664594044,411.84051810965116,1.4997366559019829E-5,-8.352909121286913E-6,-2.5845143454582525E-4,0.0,0.0,0.0,0.005470706149935722,0.013191829435527325,3.2246146202087402,5.442536245414302
0.18000000715255737,2.0932254010066323E7,274.7527307663972,-1.067340215422395E-23,2.0932254011869505E7,4.539511621715064E-6,-1.0673402154223952E-23,-5.782718850012733,1526.4040345107842,-3.0335889941855303E-22,-3.528629024423917E-16,7.56445095922555E-5,5.76268356442313,29999.481357693672,1.2425554210615634E-11,-2.92152434294034E-29,32.12631366252049,5.462509016056249,3.5092549858600104,1.968637980192924,10.0,20.0,30.000000000000004,-345.7610138653878,994.8510120732419,8.907037254386795E-4,629.6820674192387,411.8407173341332,1.77743815243375E-5,-9.960719320468652E-6,-2.8967495729864304E-4,0.0,0.0,0.0,0.00579250929877162,0.014789476990699768,3.4142966270446777,5.76268356442313
0.1899999976158142,2.0932253950632837E7,290.016771090046,-1.3239428960636995E-23,2.0932253952641938E7,5.338772439245076E-6,-1.3239428960636998E-23,-6.103978919582232,1526.4040301768123,-2.220437362975856E-22,-3.724661709517104E-16,8.428235396951204E-5,6.0828305625311625,29999.422130126506,1.461329148984929E-11,-3.623897380205599E-29,32.126313844322546,5.770004912254566,3.6985163611702343,2.0879255241821784,10.0,20.0,30.000000000000004,-364.96983375186977,994.8512664485282,8.907056639608819E-4,629.6837598653584,411.8409279427822,2.087081265154187E-5,-1.1767950138126594E-5,-3.226646568422511E-4,0.0,0.0,0.0,0.006114311516284943,0.01647842302918434,3.6039786338806152,6.0828305625311625
0.20000000298023224,2.0932253887986753E7,305.28081136918377,-1.5276907205933588E-23,2.0932253890212897E7,6.226746108950465E-6,-1.527690720593359E-23,-6.425238650428557,1526.4040256085716,-2.627013175454427E-22,-3.920695406925653E-16,9.338710114592904E-5,6.402977221909561,29999.359701085836,1.704385366303908E-11,-4.1815960741917367E-29,32.12631403595169,6.077962167453308,3.887135820544445,2.2082555180590973,10.0,20.0,30.000000000000004,-384.17863331457363,994.8515345736898,8.907077072710301E-4,629.6855437985748,411.84114993562457,2.430317051007075E-5,-1.3787375205654725E-5,-3.5741753696670673E-4,0.0,0.0,0.0,0.006436113268136978,0.01825867034494877,3.7936604022979736,6.402977221909561
0.20999999344348907,2.0932253822128072E7,320.54485160146777,-1.740247687538622E-23,2.09322538245824E7,7.208101862943295E-6,-1.7402476875386222E-23,-6.746498024723041,1526.4040208060615,-4.924901458510456E-23,-4.1167263449061645E-16,1.0295874794384514E-4,6.723123524729325,29999.294070590287,1.9730021358809707E-11,-4.7634071628860284E-29,32.12631423740787,6.3863861729523945,4.075106942199938,2.3296276880700226,10.0,20.0,30.000000000000004,-403.3874114837595,994.8518164486358,8.907098553690686E-4,629.6874192189877,411.8413833125945,2.80878191070865E-5,-1.603193591851083E-5,-3.9393044163083137E-4,0.0,0.0,0.0,0.006757914554327726,0.0201302170753479,3.983341693878174,6.723123524729325
0.2199999988079071,2.0932253753056794E7,335.8088917845553,-1.6607476940078995E-23,2.093225375575043E7,8.287508535431698E-6,-1.6607476940078995E-23,-7.067757024636852,1526.404015769282,9.982878439590617E-23,-4.3127576973852974E-16,1.1299729527861058E-4,7.043269453161273,29999.22523861751,2.2684574117033924E-11,-4.545799741062103E-29,32.12631444869114,6.69528226206732,4.262423287063211,2.4520417493497026,10.0,20.0,30.000000000000004,-422.5961671896764,994.8521120734506,8.907121082563107E-4,629.689386127899,411.8416280737716,3.224097347974789E-5,-1.8514739730188958E-5,-4.3220005529811265E-4,0.0,0.0,0.0,0.0070797149091959,0.022093065083026886,4.173023223876953,7.043269453161273
0.23000000417232513,2.093225368077293E7,351.07293191610376,-1.4782484938342244E-23,2.0932253683717005E7,9.46963530168432E-6,-1.478248493834224E-23,-7.389015632340971,1526.404010498234,4.7252328143471305E-22,-4.508786573533699E-16,1.2350274065525628E-4,7.363414989376054,29999.15320519358,2.5920292411545997E-11,-4.0462628175654595E-29,32.12631466980144,7.0046557093860535,4.4490783988089415,2.5754974046156858,10.0,20.0,30.000000000000004,-441.8048993625632,994.8524214480105,8.907144659325136E-4,629.6914445252598,411.84188421906333,3.677869730228169E-5,-2.124905842726265E-5,-4.722229032874835E-4,0.0,0.0,0.0,0.007401514798402786,0.024147216230630875,4.362704277038574,7.363414989376054
0.23999999463558197,2.093225360527648E7,366.3369719937703,-1.3404726330474877E-23,2.093225360848213E7,1.0759150825379038E-5,-1.3404726330474877E-23,-7.710273830006193,1526.404004992917,1.1737358340602038E-23,-4.704823533405104E-16,1.3447508317071427E-4,7.683560115544121,29999.077970318496,2.944995531628361E-11,-3.669142647654891E-29,32.126314900738755,7.3145117300090705,4.635065803909972,2.6999943428520607,10.0,20.0,30.000000000000004,-461.01360693264724,994.852744572303,8.907169283983155E-4,629.6935944117982,411.84215174847003,4.171690050821873E-5,-2.4248326387316136E-5,-5.139953521433566E-4,0.0,0.0,0.0,0.007723313756287098,0.026292670518159866,4.552384853363037,7.683560115544121
0.25,2.093225352656745E7,381.6010120152124,-1.2176045519264529E-23,2.0932253530045807E7,1.2160724452314753E-5,-1.2176045519264531E-23,-8.031531599803108,1526.4039992533312,4.115369096449084E-22,-4.900851625422996E-16,1.4591432146745514E-4,8.003704813835727,29998.999533995986,3.3286343772736164E-11,-3.3328280608280393E-29,32.12631514150309,7.624855478772675,4.820379011698787,2.825532237982553,10.0,20.0,30.000000000000004,-480.2222888301436,994.8530814462987,8.90719495654262E-4,629.6958357881687,411.8424306619786,4.707133692786501E-5,-2.7526138818645615E-5,-5.575136100211446E-4,0.0,0.0,0.0,0.00804511271417141,0.02852942980825901,4.7420654296875,8.003704813835727
0.25999999046325684,2.0932253444645848E7,396.8650519780873,-6.000692294285628E-24,2.093225344840803E7,1.3679024789325922E-5,-6.000692294285628E-24,-8.352788923902102,1526.4039932794767,6.012722899743914E-22,-5.096881545166126E-16,1.5782045350611374E-4,8.323849066420909,29998.917896218598,3.744223670016819E-11,-1.6425099355243554E-29,32.126315392094455,7.935692049455699,5.005011514440268,2.952110747533052,10.0,20.0,30.000000000000004,-499.43094398525454,994.8534320700161,8.907221677012918E-4,629.6981686553769,411.84272095961586,5.2857601941321825E-5,-3.1096249982476595E-5,-6.027737270904046E-4,0.0,0.0,0.0,0.008366909809410572,0.030857494100928307,4.931745529174805,8.323849066420909
0.27000001072883606,2.0932253359511673E7,412.1290918800523,2.072014733485052E-24,2.093225336356882E7,1.5318720784307516E-5,2.0720147334850524E-24,-8.674045784473341,1526.4039870713534,6.419298714817109E-22,-5.292912671852944E-16,1.7019347815710542E-4,8.643992855469504,29998.833057008684,4.193041395188391E-11,5.6715202733136115E-30,32.12631565251279,8.24702647396972,5.188956787416118,3.0797295112836194,10.0,20.0,30.000000000000004,-518.6395713281703,994.8537964433449,8.907249445393976E-4,629.7005930136095,411.84302264130247,5.9091130147101965E-5,-3.497257139779393E-5,-6.497715959536774E-4,0.0,0.0,0.0,0.008688706904649734,0.033276867121458054,5.121425628662109,8.643992855469504
0.2800000011920929,2.093225327116493E7,427.39313171876466,9.358675185961279E-24,2.0932253275528174E7,1.70844816693716E-5,9.358675185961279E-24,-8.995302163686768,1526.4039806289613,1.0214006317671854E-21,-5.488940115655704E-16,1.830333929268892E-4,8.964136163151109,29998.745016362518,4.6763656159655E-11,2.56165728042416E-29,32.12631592275809,8.558863721532953,5.372208289021026,3.208388149910017,10.0,20.0,30.000000000000004,-537.8481697890666,994.8541745662866,8.907278261694546E-4,629.7031088638319,411.8433357070522,6.5787193046884E-5,-3.9169170028695175E-5,-6.98502952084233E-4,0.0,0.0,0.0,0.009010503068566322,0.03578754514455795,5.311105251312256,8.964136163151109
0.28999999165534973,2.093225317960563E7,442.65717149188174,1.824453384137672E-23,2.09322531842861E7,1.898097593766579E-5,1.8244533841376723E-23,-9.316558043712094,1526.4039739523005,6.554823983352225E-22,-5.684974707678018E-16,1.963401966864514E-4,9.284278971635098,29998.65377428755,5.195474193308686E-11,4.9938952060795126E-29,32.126316202830346,8.871208697827905,5.554759460870768,3.338086263614896,10.0,20.0,30.000000000000004,-557.0567382981059,994.8545664387935,8.907308125919985E-4,629.7057162067205,411.8436601568386,7.296089674618055E-5,-4.370026645485873E-5,-7.489633742786456E-4,0.0,0.0,0.0,0.009332297369837761,0.03838953375816345,5.500784873962402,9.284278971635098
0.30000001192092896,2.0932253084833775E7,457.921211197061,2.2847793912718888E-23,2.09322530898426E7,2.1012872821302153E-5,2.2847793912718894E-23,-9.637813406718784,1526.4039670413708,6.690349251718353E-22,-5.881005188404086E-16,2.1011388717019595E-4,9.604421263090595,29998.55933078751,5.751645190502622E-11,6.25389993501808E-29,32.12631649272956,9.184066244143011,5.736603727922492,3.468823430748664,10.0,20.0,30.000000000000004,-576.2652757854357,994.8549720608341,8.907339038077168E-4,629.7084150430916,411.8439959906489,8.062717967150361E-5,-4.8580233024687E-5,-8.011482851272943E-4,0.0,0.0,0.0,0.0096540916711092,0.04108283296227455,5.690464019775391,9.604421263090595
0.3100000023841858,2.0932252986849368E7,473.1852508319596,2.6014486101993414E-23,2.0932252992197677E7,2.3184840927115147E-5,2.6014486101993414E-23,-9.959068234876053,1526.4039598961724,1.269338385469229E-22,-6.077040898159229E-16,2.2435446279493306E-4,9.924563019686472,29998.461685866117,6.346156499737626E-11,7.120687201714684E-29,32.12631679245569,9.497441136498418,5.91773449860706,3.6005992064201973,10.0,20.0,30.000000000000004,-595.4737811811883,994.8553914323757,8.907370998173244E-4,629.7112053737933,411.84434320847004,8.880081030398974E-5,-5.3823591991921646E-5,-8.550529515011684E-4,0.0,0.0,0.0,0.009975885041058064,0.04386744275689125,5.880142688751221,9.924563019686472
0.3199999928474426,2.093225288565241E7,488.4492903942348,2.4410688728417957E-23,2.093225289135134E7,2.550154920299974E-5,2.4410688728417957E-23,-10.280322510352857,1526.4039525167052,-8.591433398849767E-24,-6.273072203730593E-16,2.3906192152301138E-4,10.24470422359135,29998.3608395271,6.980286106617768E-11,6.68169568944868E-29,32.12631710200875,9.81133808475601,6.098145164973863,3.7334131210974686,10.0,20.0,30.000000000000004,-614.682253415481,994.8558245533851,8.907404006215659E-4,629.7140871997069,411.84470181028905,9.749638492981932E-5,-5.9445013635355687E-5,-9.106724850554681E-4,0.0,0.0,0.0,0.010297677479684353,0.04674336686730385,6.069821357727051,10.24470422359135
0.33000001311302185,2.093225278124292E7,503.71332988154404,2.0801117332026112E-23,2.0932252787303593E7,2.7967666596850904E-5,2.0801117332026118E-23,-10.60157621531788,1526.4039449029692,-1.9832681393812632E-22,-6.46910370205867E-16,2.5423626154443885E-4,10.564844856973572,29998.256791781634,7.655311996807703E-11,5.693683543724528E-29,32.12631742138869,10.125761731714032,6.277829102848242,3.867264679198247,10.0,20.0,30.000000000000004,-633.8906914184143,994.8562714237972,8.907438062209697E-4,629.7170605215331,411.8450717960667,1.067283254075398E-4,-6.545931436216E-5,-9.68001842749591E-4,0.0,0.0,0.0,0.010619468986988068,0.049710605293512344,6.259499549865723,10.564844856973572
0.3400000035762787,2.093225267362089E7,518.9773692915445,2.1690984948139374E-23,2.093225268005445E7,3.058786148812942E-5,2.169098494813938E-23,-10.922829331939534,1526.403937054964,7.272372886166334E-23,-6.665130232264237E-16,2.698774796852667E-4,10.88498490200121,29998.14954263717,8.372512000442785E-11,5.937258211078258E-29,32.126317750595504,10.440716652186396,6.456779672001516,4.002153357671016,10.0,20.0,30.000000000000004,-653.0990941200727,994.8567320435616,8.907473166162148E-4,629.7201253401109,411.8454531657767,1.1651087695264461E-4,-7.188145479469443E-5,-0.0010270358273843595,0.0,0.0,0.0,0.010941258631646633,0.05276916176080704,6.449177265167236,10.88498490200121
0.3499999940395355,2.0932252562786337E7,534.2414086218937,2.4478206362765784E-23,2.09322525696039E7,3.336680322263419E-5,2.4478206362765784E-23,-11.244081842385938,1526.4039289726893,3.7087932594241944E-22,-6.861156120236892E-16,2.859855739087004E-4,11.205124340842042,29998.03909208998,9.133164212229021E-11,6.700176724760857E-29,32.12631808962919,10.756207352066893,6.634990216333939,4.138078604566226,10.0,20.0,30.000000000000004,-672.3074604505225,994.8572064126757,8.907509318083736E-4,629.7232816566308,411.84584591943263,1.2685810593945188E-4,-7.8726537841502E-5,-0.0010877690881557986,0.0,0.0,0.0,0.011263048276305199,0.05591903254389763,6.638854503631592,11.205124340842042
0.36000001430511475,2.0932252448739257E7,549.5054478702489,2.4229661690764027E-23,2.0932252455951963E7,3.630916035035625E-5,2.4229661690764033E-23,-11.565333728824926,1526.4039206561458,2.8956416264046503E-22,-7.057185420815527E-16,3.0256054286035194E-4,11.525263155663565,29997.925440151244,9.93854650911027E-11,6.63214509203882E-29,32.126318438489726,11.072238267378644,6.812454064070818,4.27503983759813,10.0,20.0,30.000000000000004,-691.5157893398139,994.8576945310723,8.907546517980601E-4,629.7265294718908,411.84625005699525,1.3778389772043466E-4,-8.600980675193496E-5,-0.0011501961212241588,0.0,0.0,0.0,0.011584836058318615,0.059160225093364716,6.828531742095947,11.525263155663565
0.3700000047683716,2.093225233147966E7,564.7694870342671,3.2925784937953465E-23,2.093225233909864E7,3.941960142128664E-5,3.292578493795347E-23,-11.88658497342402,1526.4039121053336,1.102715791577471E-21,-7.253205383705161E-16,3.1960238404925024E-4,11.845401328632956,29997.80858682841,1.0789936768098803E-10,9.01244874913152E-29,32.12631879717707,11.388813763308955,6.9891645279715275,4.413036442697296,10.0,20.0,30.000000000000004,-710.7240797179774,994.8581963986995,8.907584765860381E-4,629.7298687868268,411.8466655784383,1.4930195446351448E-4,-9.374664315488744E-5,-0.0012143112703010591,0.0,0.0,0.0,0.011906622909009457,0.062492735683918,7.0182085037231445,11.845401328632956
0.3799999952316284,2.0932252211007554E7,580.033526111606,4.763923023732517E-23,2.0932252219043933E7,4.270279509910324E-5,4.763923023732518E-23,-12.207835558350434,1526.4039033202525,1.8887623660192855E-21,-7.449225213704622E-16,3.3711109543945735E-4,12.165538841917092,29997.68853212148,1.1688612897395627E-10,1.303981436535269E-28,32.12631916569125,11.705938133229816,7.165114905552115,4.552067772554042,10.0,20.0,30.000000000000004,-729.9323305150256,994.8587120155371,8.907624061733436E-4,629.7332996026207,411.84709248376225,1.6142579300721017E-4,-1.019525650821401E-4,-0.001280108727252629,0.0,0.0,0.0,0.012228408828377724,0.06591656804084778,7.207884788513184,12.165538841917092
0.38999998569488525,2.0932252087322943E7,595.2975650999226,5.985901053271525E-23,2.0932252095787857E7,4.616341050223127E-5,5.985901053271527E-23,-12.529085465771061,1526.4038943009027,1.048505681504862E-21,-7.64526089187612E-16,3.5508667385845277E-4,12.485675677682531,29997.565276045352,1.2635852929747546E-10,1.6384613818232533E-28,32.12631954403219,12.02361559770449,7.340298479321317,4.692133145153067,10.0,20.0,30.000000000000004,-749.1405406609518,994.8592413815002,8.907664405605539E-4,629.7368219200606,411.84753077291447,1.7416874273383886E-4,-1.1064322497576945E-4,-0.001347582532717821,0.0,0.0,0.0,0.012550192885100842,0.06943172216415405,7.3975605964660645,12.485675677682531
0.4000000059604645,2.0932251960425846E7,610.5616039968745,7.310878288266889E-23,2.0932251969330415E7,4.9806115612227586E-5,7.310878288266888E-23,-12.850334677852464,1526.4038850472841,1.1027157891001888E-21,-7.8412871995991E-16,3.7352911727086917E-4,12.805811818095483,29997.438818603754,1.363293458679192E-10,2.0011342834266462E-28,32.126319932199905,12.341850303480228,7.514708517030285,4.833231842299364,10.0,20.0,30.000000000000004,-768.348709085729,994.859784496551,8.907705797486392E-4,629.7404357402859,411.84798044588206,1.8754394346124747E-4,-1.1983440768077274E-4,-0.0014167265767452396,0.0,0.0,0.0,0.01287197694182396,0.07303820550441742,7.587235927581787,12.805811818095483
0.4099999964237213,2.0932251830316257E7,625.8256428001189,8.370225989879251E-23,2.0932251839671623E7,5.363557954751741E-5,8.370225989879251E-23,-13.171583176760866,1526.4038755593956,9.9828778341924E-23,-8.037323641592426E-16,3.924384220500098E-4,13.125947245321846,29997.309159811586,1.468113590142605E-10,2.2910990487983553E-28,32.12632033019434,12.66064632246765,7.688338271935843,4.975363108135793,10.0,20.0,30.000000000000004,-787.5568347193108,994.860341360604,8.907748237382347E-4,629.7441410641507,411.84844150261256,2.0156434335290833E-4,-1.2954202842181052E-4,-0.0014875345994440567,0.0,0.0,0.0,0.013193758204579353,0.07673601806163788,7.77691125869751,13.125947245321846
0.41999998688697815,2.0932251696994185E7,641.0896815073129,7.965900757377681E-23,2.093225170681148E7,5.765647085809178E-5,7.965900757377683E-23,-13.49283094466215,1526.4038658372383,4.521944831425205E-22,-8.233346083437302E-16,4.1181458616107886E-4,13.446081941527162,29997.17629966885,1.578173475103356E-10,2.180427121795444E-28,32.126320738015494,12.98000765070703,7.861180983078399,5.118526147652562,10.0,20.0,30.000000000000004,-806.7649164916297,994.8609119736362,8.907791725304883E-4,629.7479378929646,411.8489139431063,2.1624269684692872E-4,-1.397821307657757E-4,-0.0015600001916535452,0.0,0.0,0.0,0.013515539467334747,0.08052515238523483,7.966585636138916,13.446081941527162
0.4300000071525574,2.093225156045964E7,656.353720116114,8.461463326797606E-23,2.0932251570749987E7,6.187345786656806E-5,8.461463326797606E-23,-13.814077963721838,1526.4038558808122,7.503500793172486E-22,-8.429368608841288E-16,4.3165760779693957E-4,13.766215888876598,29997.04023817554,1.6936008950841474E-10,2.3160725710352116E-28,32.12632115566336,13.299938207321736,8.03322987557299,5.2627201251887685,10.0,20.0,30.000000000000004,-825.9729533325959,994.8614963356248,8.907836261265794E-4,629.7518262280722,411.84939776736377,2.315915626037998E-4,-1.5057088456887693E-4,-0.0016341167956268076,0.0,0.0,0.0,0.013837318867444992,0.08440562337636948,8.156259536743164,13.766215888876598
0.4399999976158142,2.0932251420712627E7,671.6177586241796,9.385285753039296E-23,2.093225143148716E7,6.62912094639978E-5,9.385285753039298E-23,-14.135324216105086,1526.4038456901174,7.503500779422191E-22,-8.625393646338382E-16,4.5196748378649915E-4,14.086349069534988,29996.90097535029,1.8145236471750737E-10,2.568941353172004E-28,32.12632158313791,13.620441833459417,8.204478160915503,5.407944162926508,10.0,20.0,30.000000000000004,-845.1809441720993,994.8620944464659,8.907881845271043E-4,629.7558060703166,411.84989297531916,2.476233014732035E-4,-1.619245839089613E-4,-0.0017098777057301822,0.0,0.0,0.0,0.014159097336232662,0.08837742358446121,8.34593391418457,14.086349069534988
0.44999998807907104,2.0932251277753156E7,686.8817970291668,8.086493724265037E-23,2.093225128902301E7,7.091439397299837E-5,8.08649372426504E-23,-14.456569683976687,1526.4038352651535,-3.3154080702830842E-21,-8.821458861032946E-16,4.727442109589498E-4,14.406481465666777,29996.758511196822,1.9410695129154497E-10,2.2134358844735552E-28,32.1263220204391,13.941522291220952,8.374919037302694,5.554197339377646,10.0,20.0,30.000000000000004,-864.3888879400066,994.8627063061192,8.907928477331764E-4,629.7598774209996,411.85039956695965,2.6435007448046433E-4,-1.738596450039715E-4,-0.001787276069161809,0.0,0.0,0.0,0.014480873942375183,0.09244056046009064,8.53560733795166,14.406481465666777
0.46000000834465027,2.0932251131581236E7,702.145835328733,4.2940366975529253E-23,2.0932251143357538E7,7.57476799435608E-5,4.2940366975529265E-23,-14.777814349501044,1526.40382460592,-4.6706607868586684E-21,-9.017496479367842E-16,4.939877856890222E-4,14.726613059436032,29996.61284572631,2.0733662800768626E-10,1.17536416966863E-28,32.12632246756691,14.263183262578023,8.544545689967224,5.701478687863775,10.0,20.0,30.000000000000004,-883.5967835661619,994.8633319145122,8.907976157456926E-4,629.7640402812426,411.85091754224607,2.817838408320754E-4,-1.863926041155971E-4,-0.0018663048866829825,0.0,0.0,0.0,0.01480264961719513,0.09659503400325775,8.725279808044434,14.726613059436032
0.4699999988079071,2.093225098219687E7,717.4098735205355,-1.2725758986124847E-24,2.0932250994490746E7,8.079573558461561E-5,-1.2725758986124847E-24,-15.099058194842177,1526.4038137124176,-4.833291113065724E-21,-9.213521669251877E-16,5.156982063980953E-4,15.046743833006424,29996.463978935033,2.211541727104185E-10,-3.483296092701826E-30,32.126322924521354,14.58542834827919,8.713351291526942,5.849787194989508,10.0,20.0,30.000000000000004,-902.8046299803855,994.8639712716353,8.908024885660676E-4,629.7682946526253,411.85144690119205,2.999363559411957E-4,-1.9954011543943376E-4,-0.0019469570133682761,0.0,0.0,0.0,0.015124423429369926,0.10084084421396255,8.914952278137207,15.046743833006424
0.47999998927116394,2.0932250829600073E7,732.6739116022317,-5.025600833155237E-23,2.093225084242266E7,8.606323024196172E-5,-5.025600833155238E-23,-15.420301202163698,1526.4038025846464,-5.10434165581414E-21,-9.409547430189283E-16,5.378754699162187E-4,15.366873768541238,29996.311910849065,2.3557236635696486E-10,-1.3756080004241868E-28,32.12632339130235,14.908261066745393,8.881329002349304,5.999121799109684,10.0,20.0,30.000000000000004,-922.0124261124743,994.8646243773505,8.908074661947671E-4,629.7726405359073,411.85198764370534,3.1881916947249374E-4,-2.1331894897997538E-4,-0.002029225159367006,0.0,0.0,0.0,0.015446195378899574,0.10517799854278564,9.104623794555664,15.366873768541238
0.49000000953674316,2.093225067379085E7,747.9379495714787,-1.124667072610593E-22,2.0932250687153276E7,9.155483144240861E-5,-1.1246670726105932E-22,-15.741543353628817,1526.4037912226063,-8.302738063431275E-21,-9.605601940514446E-16,5.605195723916054E-4,15.687002848203333,29996.15664146468,2.506039849265278E-10,-3.0784399432722333E-28,32.12632386790991,15.231684852954913,9.048471970930732,6.149481388790703,10.0,20.0,30.000000000000004,-941.2201708922,994.8652912316475,8.908125486332607E-4,629.7770779327324,411.85253976979965,3.384436234079941E-4,-2.2774598841312073E-4,-0.002113101890687814,0.0,0.0,0.0,0.015767967328429222,0.10960648953914642,9.294295310974121,15.687002848203333
0.5,2.0932250514769215E7,763.2019874259341,-2.0438454569895227E-22,2.0932250528682612E7,9.727520750857366E-5,-2.0438454569895232E-22,-16.06278463140033,1526.4037796262965,-9.874831211118919E-21,-9.801639652813776E-16,5.836305102001276E-4,16.00713105415517,29995.998170800507,2.6626180657753367E-10,-5.594416066348157E-28,32.12632435434398,15.55570305731854,9.214773334291039,6.3008648012664565,10.0,20.0,30.000000000000004,-960.4278632493102,994.8659718344193,8.908177358823177E-4,629.7816068441398,411.8531032794094,3.588208501319071E-4,-2.4283822893430112E-4,-0.002198579629991129,0.0,0.0,0.0,0.01608973555266857,0.11412633210420609,9.483965873718262,16.00713105415517
0.5099999904632568,2.093225035253517E7,778.4660251632549,-3.1083069321647774E-22,2.0932250367010664E7,1.0322902676307422E-4,-3.1083069321647774E-22,-16.384025017640614,1526.4037677957178,-1.0362722184772545E-20,-9.997665977175525E-16,6.072082813095592E-4,16.327258368558788,29995.83649885282,2.8255860946936676E-10,-8.508061270133369E-28,32.12632485060457,15.880318944545301,9.380226218383164,6.453270820889315,10.0,20.0,30.000000000000004,-979.6355021135273,994.8666661856541,8.908230279434634E-4,629.7862272718371,411.85367817254826,3.799617705369374E-4,-2.586127750940267E-4,-0.0022856506574044665,0.0,0.0,0.0,0.01641150377690792,0.11873751878738403,9.673636436462402,16.327258368558788
0.5199999809265137,2.093225018708872E7,793.7300627810987,-4.060011380925129E-22,2.0932250202137448E7,1.0942095866539603E-4,-4.06001138092513E-22,-16.705264494511596,1526.4037557308704,-9.874831201635378E-21,-1.0193681986878997E-15,6.312528832332132E-4,16.647384773575777,29995.671625636518,2.9950717487422565E-10,-1.1113067857288346E-27,32.12632535669164,16.20553569249921,9.544823738518106,6.606698177576499,10.0,20.0,30.000000000000004,-998.8430864145466,994.86737428526,8.908284248176447E-4,629.7909392170343,411.8542644491638,4.0187709215021663E-4,-2.750868386190488E-4,-0.002374307111346843,0.0,0.0,0.0,0.01673327013850212,0.12344005703926086,9.863306045532227,16.647384773575777
0.5299999713897705,2.0932250018429883E7,808.9941002771226,-4.947747900886069E-22,2.0932250034062978E7,1.158556701739144E-4,-4.94774790088607E-22,-17.02650304417477,1526.4037434317531,-8.573788587726013E-21,-1.03896892973043E-15,6.557643096193334E-4,16.967510251367283,29995.503551166505,3.171202772192634E-10,-1.3542981397325651E-27,32.12632587260513,16.531356391047666,9.7085589998056,6.761145545252447,10.0,20.0,30.000000000000004,-1018.050615082037,994.8680961331441,8.908339265058359E-4,629.7957426809725,411.8548621092035,4.2457730728078994E-4,-2.9227773622075745E-4,-0.0024645409893733956,0.0,0.0,0.0,0.017055034637451172,0.12823393940925598,10.052974700927734,16.967510251367283
0.5400000214576721,2.0932249846558664E7,824.2581376489841,-5.904873359125181E-22,2.093224986278725E7,1.225378301796809E-4,-5.9048733591251815E-22,-17.34774064879118,1526.403730898367,-1.0850613141642025E-20,-1.0585731807716006E-15,6.807425602555398E-4,17.287634784094017,29995.332275439054,3.3541069622277325E-10,-1.616282646418116E-27,32.126326398345064,16.85778404090193,9.871425097610324,6.916611540287499,10.0,20.0,30.000000000000004,-1037.258087045641,994.8688317292933,8.908395330096495E-4,629.800637665458,411.8554711526813,4.480726911875551E-4,-3.1020288739268796E-4,-0.002556344149035776,0.0,0.0,0.0,0.017376797273755074,0.13311918079853058,10.242643356323242,17.287634784094017
0.550000011920929,2.093224967147507E7,839.5221748943403,-7.198101489924033E-22,2.0932249688310277E7,1.2947210666425235E-4,-7.198101489924033E-22,-17.668977290521422,1526.4037181307122,-1.2043235521353625E-20,-1.0781762886497003E-15,7.061876303822639E-4,17.60775835391623,29995.15779846534,3.543912091146139E-10,-1.9702652224227735E-27,32.126326933911415,17.18482155245031,10.033415118023703,7.073094719933488,10.0,20.0,30.000000000000004,-1056.4655012349738,994.8695810736297,8.908452443302372E-4,629.8056241719025,411.8560915795578,4.72373300268296E-4,-3.2887981219191384E-4,-0.002649708308753491,0.0,0.0,0.0,0.017698559910058975,0.13809578120708466,10.43231201171875,17.60775835391623
0.5600000023841858,2.093224949317912E7,854.7862120108487,-8.452298341410555E-22,2.0932249510632087E7,1.3666316806393297E-4,-8.452298341410557E-22,-17.990212951525603,1526.4037051287874,-1.2802177030083215E-20,-1.097778902793633E-15,7.320995156949703E-4,17.927880942993692,29994.98012027517,3.740745943704342E-10,-2.3135641580340927E-27,32.126327479304074,17.51247174458458,10.19452213835176,7.230593580756785,10.0,20.0,30.000000000000004,-1075.6728565796216,994.8703441659948,8.908510604681723E-4,629.8107022012199,411.8567233897278,4.97488970269729E-4,-3.4832612901041166E-4,-0.002744625048702857,0.0,0.0,0.0,0.01802031882107258,0.1431637406349182,10.621978759765625,17.927880942993692
0.5699999928474426,2.0932249311670817E7,870.0502489961664,-9.686979552495053E-22,2.093224932975267E7,1.4411568179184542E-4,-9.686979552495054E-22,-18.311447613963367,1526.4036918925938,-1.2151655712667716E-20,-1.117380046329016E-15,7.584782137083975E-4,18.248002533485714,29994.799240857363,3.9447362766630457E-10,-2.651521276304478E-27,32.126328034523084,17.84073734352028,10.354739227618776,7.389106557069215,10.0,20.0,30.000000000000004,-1094.8801520091429,994.8711210064059,8.908569814253953E-4,629.8158717555258,411.85736658323157,5.234293145202736E-4,-3.685595523344864E-4,-0.0028410858117277767,0.0,0.0,0.0,0.01834207773208618,0.14832305908203125,10.8116455078125,18.248002533485714
0.5799999833106995,2.093224912695017E7,885.3142858479509,-1.1017070553271261E-21,2.0932249145672034E7,1.5183431696641492E-4,-1.1017070553271261E-21,-18.632681259993866,1526.403678422131,-1.5187421779790002E-20,-1.1369848139136022E-15,7.853237201185816E-4,18.56812310755109,29994.615160223097,4.15601089347146E-10,-3.015593980882919E-27,32.126328599568424,18.16962098161132,10.51405944708711,7.548632019357489,10.0,20.0,30.000000000000004,-1114.0873864530654,994.8719115947833,8.908630072031449E-4,629.82113283633,411.85802116002986,5.502037221825134E-4,-3.895978904898711E-4,-0.002939081904253879,0.0,0.0,0.0,0.018663832917809486,0.15357373654842377,11.001312255859375,18.56812310755109
0.5899999737739563,2.093224893901719E7,900.5783225638596,-1.2442571343534488E-21,2.0932248958390202E7,1.5982374134182464E-4,-1.244257134353449E-21,-18.953913871775764,1526.4036647173987,-1.3452698285778591E-20,-1.1565847476779588E-15,8.126360317587115E-4,18.88824264734816,29994.427878390998,4.3746975602478805E-10,-3.40578227256941E-27,32.12632917444002,18.499125196159905,10.672475850793035,7.709168272711766,10.0,20.0,30.000000000000004,-1133.2945588408897,994.8727159310153,8.90869137802444E-4,629.8264854449623,411.8586871200572,5.778213565283979E-4,-4.114590433767978E-4,-0.0030386044972251164,0.0,0.0,0.0,0.018985586240887642,0.15891578793525696,11.190978050231934,18.88824264734816
0.6000000238418579,2.0932248747871894E7,915.8423591415494,-1.4136954270660084E-21,2.0932248767907184E7,1.6808862210382358E-4,-1.4136954270660087E-21,-19.275145431467216,1526.4036507783976,-1.9307389996876046E-20,-1.1761922064343332E-15,8.404151440980187E-4,19.208361135034746,29994.23739537224,4.600924027562749E-10,-3.869569026525815E-27,32.126329759137846,18.829252428221984,10.829981486099127,7.870713555253832,10.0,20.0,30.000000000000004,-1152.5016681020847,994.8735340150208,8.908753732245865E-4,629.8319295829962,411.85936446327435,6.062911532367141E-4,-4.341610001926013E-4,-0.003139644627055857,0.0,0.0,0.0,0.019307339563965797,0.16434919834136963,11.380642890930176,19.208361135034746
0.6100000143051147,2.0932248553514287E7,931.106395578678,-1.6095882525699873E-21,2.093224857422299E7,1.7663362780240277E-4,-1.6095882525699877E-21,-19.596375921225874,1526.4036366051266,-2.1475794318667693E-20,-1.195795913387581E-15,8.686610530607691E-4,19.528478552768142,29994.043711178005,4.834818083340092E-10,-4.405767173033908E-27,32.12633035366187,19.16000502140921,10.98656939426252,8.033266036565575,10.0,20.0,30.000000000000004,-1171.7087131660885,994.874365846719,8.908817134708963E-4,629.837465252039,411.8600531896422,6.356218187119842E-4,-4.5772183714316514E-4,-0.003242193196595638,0.0,0.0,0.0,0.019629091024398804,0.16987398266792297,11.570306777954102,19.528478552768142
0.6200000047683716,2.093224835594438E7,946.3704318729024,-1.8262977595383164E-21,2.0932248377337616E7,1.8546342698755325E-4,-1.8262977595383168E-21,-19.91760532320887,1526.4036221975869,-2.321051776828623E-20,-1.2153991200516378E-15,8.973737559357555E-4,19.848594882705147,29993.84682580456,5.076507515515662E-10,-4.998944779817902E-27,32.126330958012105,19.491385220687967,11.142232611019956,8.196823816118421,10.0,20.0,30.000000000000004,-1190.9156929623089,994.875211426092,8.908881585432134E-4,629.8430924541564,411.86075329917463,6.658218284261513E-4,-4.821597151432874E-4,-0.003346240976111472,0.0,0.0,0.0,0.01995083875954151,0.175490140914917,11.759970664978027,19.848594882705147
0.6299999952316284,2.0932248155162185E7,961.6344680218799,-2.064257628806754E-21,2.0932248177251093E7,1.94582686845024E-4,-2.0642576288067544E-21,-20.238833619572798,1526.4036075557774,-2.5162081648936747E-20,-1.2350024758551934E-15,9.265532475109451E-4,20.168710107002017,29993.646739281714,5.326120074695073E-10,-5.650288920558845E-27,32.126331572188455,19.82339517117618,11.296964167189136,8.361384921704312,10.0,20.0,30.000000000000004,-1210.122606420121,994.8760707529776,8.908947084423077E-4,629.8488111904871,411.86146479176637,6.968994252814063E-4,-5.074928775040386E-4,-0.0034517786042773924,0.0,0.0,0.0,0.02027258463203907,0.18119767308235168,11.949633598327637,20.168710107002017
0.6399999856948853,2.0932247951167714E7,976.8985040232682,-2.349705552912694E-21,2.0932247973963417E7,2.0399607524268504E-4,-2.349705552912694E-21,-20.56006079247372,1526.403592679699,-2.98241509568377E-20,-1.254608473370597E-15,9.561995248483276E-4,20.488824207814478,29993.443451605737,5.583783530167089E-10,-6.431617447290337E-27,32.12633219619093,20.156036916938692,11.450757089286713,8.526947307868996,10.0,20.0,30.000000000000004,-1229.3294524688686,994.8769438273572,8.909013631700763E-4,629.8546214631621,411.86218766743133,7.288626179978618E-4,-5.337396476125905E-4,-0.0035587965891926993,0.0,0.0,0.0,0.02059433050453663,0.18699659407138824,12.139296531677246,20.488824207814478
0.6499999761581421,2.0932247743960977E7,992.1625398747243,-2.6514165092455163E-21,2.0932247767474618E7,2.1370826061684056E-4,-2.651416509245517E-21,-20.881286824067153,1526.4035775693508,-3.3076757435974424E-20,-1.2742129915369122E-15,9.863125827364418E-4,20.808937167297703,29993.236962806433,5.849625666791965E-10,-7.25746118613832E-27,32.12633283001945,20.48931239978193,11.603604400162718,8.693508854348247,10.0,20.0,30.000000000000004,-1248.5362300378622,994.8778306490669,8.90908122727345E-4,629.8605232733838,411.862921926064,7.617191795211615E-4,-5.609184265974009E-4,-0.0036672853093985113,0.0,0.0,0.0,0.02091607265174389,0.19288688898086548,12.328958511352539,20.808937167297703
0.6600000262260437,2.0932247533541985E7,1007.4265755739056,-2.985436689911083E-21,2.0932247557784684E7,2.2372390992586588E-4,-2.985436689911083E-21,-21.202511696508058,1526.4035622247336,-3.49199010859532E-20,-1.2938160292614236E-15,0.0010168924175557262,21.129048967606305,29993.027272872627,6.123774228988582E-10,-8.171741799976815E-27,32.126333473674045,20.823223458048535,11.755499119652017,8.861067364507807,10.0,20.0,30.000000000000004,-1267.7429380563783,994.8787312181192,8.909149871163121E-4,629.8665166235614,411.8636675677051,7.954766454561605E-4,-5.890476909869326E-4,-0.0037772350149269532,0.0,0.0,0.0,0.021237812936306,0.19886857271194458,12.518619537353516,21.129048967606305
0.6700000166893005,2.0932247319910746E7,1022.6906111184693,-3.337020945312395E-21,2.093224734489364E7,2.3404769149237836E-4,-3.3370209453123956E-21,-21.523735391950837,1526.4035466458467,-3.752198625141957E-20,-1.3134197538557283E-15,0.0010479390250047855,21.449159590894364,29992.814381830394,6.406356998530566E-10,-9.134098845807808E-27,32.126334127154635,21.15777182541301,11.906434265241971,9.02962056378771,10.0,20.0,30.000000000000004,-1286.949575453662,994.8796455343654,8.909219563379825E-4,629.8726015150693,411.86442459226237,8.301423125198334E-4,-6.181459903539979E-4,-0.0038886358283449227,0.0,0.0,0.0,0.02155955135822296,0.20494164526462555,12.708279609680176,21.449159590894364
0.6800000071525574,2.093224710306728E7,1037.954646506073,-3.7334911701417224E-21,2.0932247128801495E7,2.4468427272950066E-4,-3.7334911701417224E-21,-21.844957892549314,1526.4035308326909,-4.088301293191259E-20,-1.3330241642270411E-15,0.0010794524012372555,21.76926901931535,29992.59828968346,6.697501732309746E-10,-1.0219317858336778E-26,32.12633479046121,21.4929591296788,12.05640285275724,9.199166098151805,10.0,20.0,30.000000000000004,-1306.156141158921,994.8805735977526,8.909290303941232E-4,629.8787779499548,411.8651929997233,8.657232370209776E-4,-6.482319449533329E-4,-0.00400147774583066,0.0,0.0,0.0,0.021881287917494774,0.2111061066389084,12.897939682006836,21.76926901931535
0.6899999976158142,2.093224688301159E7,1053.2186817343738,-4.152729640020008E-21,2.0932246909508258E7,2.5563832195985015E-4,-4.152729640020007E-21,-22.166179180456734,1526.403514785265,-4.326825765088205E-20,-1.3526275245590667E-15,0.0011114325408154433,22.089377235022173,29992.37899644673,6.99733621212574E-10,-1.1366858171539579E-26,32.12633546359371,21.82878689157802,12.20539789706129,9.369701532543294,10.0,20.0,30.000000000000004,-1325.3626341013303,994.8815154081789,8.909362092861621E-4,629.8850459299769,411.8659727900357,9.022262333607995E-4,-6.793242433467494E-4,-0.004115750638252157,0.0,0.0,0.0,0.022203022614121437,0.21736197173595428,13.087597846984863,22.089377235022173
0.699999988079071,2.09322466597437E7,1068.482716801029,-4.594953195317288E-21,2.0932246687013954E7,2.669145058007416E-4,-4.594953195317288E-21,-22.487399237825755,1526.4034985035703,-4.4135619321755043E-20,-1.3722292916578635E-15,0.001143879439666181,22.409484220167162,29992.15650214255,7.305988173113884E-10,-1.2577313323713217E-26,32.126336146552106,22.165256523574524,12.353412412774434,9.541224349346967,10.0,20.0,30.000000000000004,-1344.5690532100298,994.8824709655104,8.909434930153123E-4,629.8914054567146,411.8667639631207,9.396578725576455E-4,-7.114416400201754E-4,-0.004231444252264723,0.0,0.0,0.0,0.02252475544810295,0.22370922565460205,13.27725601196289,22.409484220167162
0.7099999785423279,2.093224643326361E7,1083.746751703696,-5.056258708144862E-21,2.0932246461318586E7,2.785174924611056E-4,-5.056258708144863E-21,-22.808618046808437,1526.4034819876058,-4.5436661854711956E-20,-1.3918314159944492E-15,0.001176793093716588,22.729589956902025,29991.930806774646,7.623585393988733E-10,-1.3839999669329392E-26,32.126336839336346,22.502369328670994,12.500439415009017,9.713731946859065,10.0,20.0,30.000000000000004,-1363.7753974141215,994.8834402696922,8.909508815834249E-4,629.8978565323115,411.8675665189658,9.780244807964702E-4,-7.446029529910538E-4,-0.004348548211426537,0.0,0.0,0.0,0.022846484556794167,0.23014786839485168,13.466914176940918,22.729589956902025
0.7200000286102295,2.0932246203571342E7,1099.0107864400318,-5.5357788166941145E-21,2.0932246232422158E7,2.904519490130042E-4,-5.5357788166941145E-21,-23.129835589556237,1526.4034652373718,-4.933978959441694E-20,-1.4114360648802397E-15,0.0012101734982119475,23.04969442737788,29991.701910346746,7.950255622360142E-10,-1.515254306645885E-26,32.12633754194645,22.8401264992213,12.646471920121254,9.88722163776555,10.0,20.0,30.000000000000004,-1382.9816656426729,994.884423320669,8.90958374992379E-4,629.9043991589434,411.8683804575585,0.0010173321380005714,-7.788270614054329E-4,-0.004467052017321642,0.0,0.0,0.0,0.023168213665485382,0.23667792975902557,13.656570434570312,23.04969442737788
0.7300000190734863,2.0932245970666904E7,1114.2748210076938,-6.053029159996076E-21,2.09322460003247E7,3.0272254321062064E-4,-6.0530291599960775E-21,-23.45105184821999,1526.4034482528687,-5.692920471302271E-20,-1.4310443214244403E-15,0.001244020648625201,23.369797613745227,29991.469812888652,8.286126624522857E-10,-1.6568361757835897E-26,32.126338254382304,23.178529115748745,12.791502946479772,10.061690647629671,10.0,20.0,30.000000000000004,-1402.1878568247137,994.8854201182731,8.909659732432309E-4,629.9110333380751,411.8692057787936,0.0010575866764266503,-8.141329031258683E-4,-0.0045869450506952425,0.0,0.0,0.0,0.0234899390488863,0.24329939484596252,13.846226692199707,23.369797613745227
0.7400000095367432,2.0932245734550312E7,1129.5388554043395,-6.631428504896504E-21,2.0932245765026215E7,3.1533394212601706E-4,-6.631428504896505E-21,-23.772266804949908,1526.4034310340955,-5.692920461567896E-20,-1.4506449088314508E-15,0.001278334539065334,23.689899498153935,29991.23451440409,8.631326148114671E-10,-1.8151557636885193E-26,32.126338976643915,23.51757814577133,12.93552551525126,10.237136113389733,10.0,20.0,30.000000000000004,-1421.3939698892361,994.8864306624481,8.909736763379145E-4,629.9177590719454,411.8700424826586,0.001098793679287029,-8.505394723121758E-4,-0.004708216572615769,0.0,0.0,0.0,0.023811662569642067,0.25001227855682373,14.035881996154785,23.689899498153935
0.75,2.093224549522157E7,1144.8028896276262,-7.230210849621674E-21,2.0932245526526716E7,3.282908137407503E-4,-7.230210849621676E-21,-24.09348044189558,1526.403413581053,-6.104917276482441E-20,-1.4702495353916912E-15,0.0013131151663701014,24.010000062753257,29990.99601490423,8.985981965682347E-10,-1.9790545937751444E-26,32.12633970873124,23.857274442634726,13.07853265120244,10.41355508186782,10.0,20.0,30.000000000000004,-1440.6000037651954,994.887454953105,8.909814842781522E-4,629.924576362616,411.8708905691146,0.0011409584793924683,-8.880658169921792E-4,-0.004830855725637036,0.0,0.0,0.0,0.024133382365107536,0.2568165361881256,14.225536346435547,24.010000062753257
0.7599999904632568,2.09322452526807E7,1160.066923675211,-7.838100491485866E-21,2.0932245284826208E7,3.415978255816299E-4,-7.838100491485868E-21,-24.414692741205947,1526.403395893741,-6.061549178012911E-20,-1.4898495263946972E-15,0.0013483625253311806,24.33009928969179,29990.75431439653,9.350221837339757E-10,-2.1454462789383707E-26,32.126340450644264,24.19761874435423,13.220517383519132,10.590944508290658,10.0,20.0,30.000000000000004,-1459.8059573815074,994.8884929901701,8.909893970658142E-4,629.9314852122852,411.8717500381357,0.0011840861578216206,-9.267310366235144E-4,-0.004954851534981384,0.0,0.0,0.0,0.024455102160573006,0.2637122571468353,14.415189743041992,24.33009928969179
0.7699999809265137,2.0932245006927717E7,1175.3309575447513,-8.470709941678981E-21,2.0932245039924733E7,3.5525964426597056E-4,-8.470709941678983E-21,-24.735903685029292,1526.4033779721592,-6.386809817246093E-20,-1.5094531206838573E-15,0.0013840766096036643,24.65019716111748,29990.509412921965,9.724173498320706E-10,-2.3186042787671214E-26,32.12634120238285,24.5386116724664,13.36147274664189,10.769301254823244,10.0,20.0,30.000000000000004,-1479.0118296670487,994.8895447734257,8.909974147017034E-4,629.9384856222268,411.87262088957715,0.0012281815426124457,-9.665542796465867E-4,-0.005080192909727832,0.0,0.0,0.0,0.024776818230748177,0.2706993818283081,14.604842185974121,24.65019716111748
0.7799999713897705,2.0932244757962633E7,1190.5949912339045,-9.13627913661531E-21,2.0932244791822273E7,3.6928093663846084E-4,-9.13627913661531E-21,-25.05711325551325,1526.4033598163078,-6.755438542387746E-20,-1.52905706455949E-15,0.0014202574157987891,24.97029365917762,29990.26131046191,1.0107964690097544E-9,-2.5007840305115878E-26,32.12634196394707,24.880253730891493,13.50139178111813,10.948622089116396,10.0,20.0,30.000000000000004,-1498.2176195506572,994.8906103029088,8.910055371886008E-4,629.9455775954501,411.8735031235059,0.001273249207483598,-0.001007554741034557,-0.005206868644037551,0.0,0.0,0.0,0.025098532438278198,0.27777791023254395,14.79449462890625,24.97029365917762
0.7900000214576721,2.0932244505785458E7,1205.8590247403276,-9.808787224053248E-21,2.0932244540518858E7,3.8366637068065756E-4,-9.80878722405325E-21,-25.37832143480479,1526.403341426187,-6.863858745092006E-20,-1.548658321162309E-15,0.001456904938936462,25.290388766018843,29990.010007046163,1.050172318527604E-9,-2.684863101958407E-26,32.12634273533683,25.222545304807877,13.64026753447102,11.12890368286918,10.0,20.0,30.000000000000004,-1517.4233259611306,994.8916895784484,8.910137645277311E-4,629.9527611336121,411.8743967398168,0.0013192934705724675,-0.0010497516598268653,-0.005334867418356211,0.0,0.0,0.0,0.02542024292051792,0.28494787216186523,14.984146118164062,25.290388766018843
0.800000011920929,2.0932244250396207E7,1221.1230580616784,-1.0465249117832603E-20,2.0932244286014497E7,3.984206130098755E-4,-1.0465249117832603E-20,-25.6995282050502,1526.4033228017965,-6.473545947430767E-20,-1.5682545041542888E-15,0.001494019173127379,25.610482463787097,29989.755502685905,1.090557671913514E-9,-2.8645500110345926E-26,32.12634351655209,25.565486659539054,13.778093062084723,11.31014261040711,10.0,20.0,30.000000000000004,-1536.6289478272258,994.8927825999529,8.910220967209575E-4,629.9600362389355,411.8753017384709,0.0013663183932053078,-0.0010931643166621173,-0.005464177800661733,0.0,0.0,0.0,0.025741951540112495,0.292209267616272,15.173795700073242,25.610482463787097
0.8100000023841858,2.09322439917949E7,1236.3870911956142,-1.1126915180433337E-20,2.0932244028309215E7,4.135483311529242E-4,-1.1126915180433337E-20,-26.020733548395086,1526.4033039431363,-6.820490626060002E-20,-1.5878579723469098E-15,0.0015316001129372704,25.93057473462765,29989.497797403485,1.1319653051863932E-9,-3.045661411058816E-26,32.12634430759279,25.90907793945465,13.914861428105981,11.4923353472771,10.0,20.0,30.000000000000004,-1555.834484077659,994.8938893672818,8.910305337698053E-4,629.9674029133556,411.8762181193897,0.0014143277786879097,-0.001137812031300232,-0.005594788247707277,0.0,0.0,0.0,0.02606365829706192,0.29956209659576416,15.363445281982422,25.93057473462765
0.8199999928474426,2.0932243729981538E7,1251.6511241397918,-1.1763427750925013E-20,2.093224376740301E7,4.290541921818658E-4,-1.1763427750925016E-20,-26.341937446984357,1526.4032848502063,-6.343441652593528E-20,-1.6074531121355578E-15,0.0015696477540690188,26.250665560685075,29989.236891198903,1.1744079931219796E-9,-3.2198877971441365E-26,32.12634510845893,26.2533191668865,14.050565706362228,11.675478268860479,10.0,20.0,30.000000000000004,-1575.0399336411044,994.8950098803901,8.910390756765595E-4,629.9748611594783,411.8771458825738,0.0014633251711245045,-0.001183714160139694,-0.005726687106289944,0.0,0.0,0.0,0.026385363191366196,0.3070063889026642,15.553093910217285,26.250665560685075
0.8299999833106995,2.0932243464956153E7,1266.9151568918687,-1.2416420192632588E-20,2.093224350329591E7,4.4494286271401506E-4,-1.2416420192632591E-20,-26.663139882962227,1526.4032655230067,-6.300073547142219E-20,-1.6270524991720617E-15,0.001608162090406803,26.570754924103237,29988.972784098238,1.217898509252856E-9,-3.398625061794472E-26,32.126345919150424,26.598210241060478,14.185198981295578,11.859567649004603,10.0,20.0,30.000000000000004,-1594.2452954461942,994.8961441391209,8.910477224426814E-4,629.9824109791982,411.8780850279316,0.001513313854258049,-0.0012308900937236399,-0.005859862614515987,0.0,0.0,0.0,0.026707064360380173,0.31454208493232727,15.742741584777832,26.570754924103237
0.8399999737739563,2.093224319671875E7,1282.1791894495022,-1.3076785207207596E-20,2.0932243235987917E7,4.612190093666868E-4,-1.3076785207207599E-20,-26.9843408384722,1526.4032459615373,-6.842174613825226E-20,-1.6466576502460466E-15,0.001647143117881449,26.890842807025304,29988.705476105213,1.262449627113209E-9,-3.5793803536735075E-26,32.12634673966727,26.94375093704568,14.318754348913084,12.044599658674603,10.0,20.0,30.000000000000004,-1613.4505684215183,994.8972921434116,8.91056474070389E-4,629.9900523750783,411.87903555545046,0.0015642968503401956,-0.0012793592542445725,-0.005994302903098721,0.0,0.0,0.0,0.027028763666749,0.3221692442893982,15.932389259338379,26.890842807025304
0.8500000238418579,2.093224292526934E7,1297.4432218103495,-1.3740619666727433E-20,2.0932242965479054E7,4.7788729943931685E-4,-1.3740619666727433E-20,-27.305540295657053,1526.4032261657983,-6.950594810491198E-20,-1.6662583727636303E-15,0.0016865908290134648,27.210929191593706,29988.43496724218,1.3080741221059495E-9,-3.7610853079447816E-26,32.1263475700094,27.289940904721664,14.45122491775273,12.230570364625988,10.0,20.0,30.000000000000004,-1632.6557514956223,994.8984538931203,8.910653305613236E-4,629.997785349185,411.87999746505193,0.001616276919022899,-0.00132914109303668,-0.006129995996650916,0.0,0.0,0.0,0.02735045924782753,0.32988783717155457,16.122034072875977,27.210929191593706
