time,eiPosition_ft_X,eiPosition_ft_Y,eiPosition_ft_Z,gePosition_ft_X,gePosition_ft_Y,gePosition_ft_Z,eiVelocity_ft_s_X,eiVelocity_ft_s_Y,eiVelocity_ft_s_Z,feVelocity_ft_s_X,feVelocity_ft_s_Y,feVelocity_ft_s_Z,altitudeMsl_ft,longitude_deg,latitude_deg,localGravity_ft_s2,eulerAngle_deg_Yaw,eulerAngle_deg_Pitch,eulerAngle_deg_Roll,bodyAngularRateWrtEi_deg_s_Roll,bodyAngularRateWrtEi_deg_s_Pitch,bodyAngularRateWrtEi_deg_s_Yaw,altitudeRateWrtMsl_ft_min,speedOfSound_ft_s,airDensity_slug_ft3,ambientPressure_lbf_ft2,ambientTemperature_dgR,aero_bodyForce_lbf_X,aero_bodyForce_lbf_Y,aero_bodyForce_lbf_Z,aero_bodyMoment_ftlbf_L,aero_bodyMoment_ftlbf_M,aero_bodyMoment_ftlbf_N,mach,dynamicPressure_lbf_ft2,trueAirspeed_nmi_h
0.0,2.09322545305E7,0.0,0.0,2.09322545305E7,0.0,0.0,0.0,1526.4040724567699,0.0,0.0,0.0,0.0,30000.0,0.0,0.0,32.126312070546,0.0,1.2722218725854067E-14,0.0,10.00000000111787,19.999999999971262,29.999999999956895,-0.0,994.8490287717719,8.907042526447538E-4,629.6799295021158,411.83887294861233,0.0,0.0,-0.0,0.0,0.0,0.0,0.0,0.0,0.0
0.10000000000000007,2.0932254369871188E7,152.64040685524847,4.2813466097881766E-27,2.0932254370427724E7,7.78190021311076E-7,4.2813466097881766E-27,-3.2126282358188805,1526.404060743526,1.560206211479958E-23,2.6156377411212794E-18,2.3345681853623267E-5,3.201497521728376,29999.839927725494,2.130062204064892E-12,-1.3127467805652925E-30,32.12631256189602,3.018485238896519,1.9728199053311632,1.0518960236121297,10.00000000111787,19.999999999971262,29.999999999956895,-192.08985130370255,994.8497162644909,8.907094917471645E-4,629.6845035542786,411.83944215321765,3.085434799535014E-6,-1.6450641080132844E-6,-8.955946318941434E-5,0.0,0.0,0.0,0.0032180715031363202,0.004564701938545665,1.896812455790785
0.20000000000000015,2.093225388797763E7,305.2808113678093,-6.441354339651201E-24,2.093225389020377E7,6.2255043453141035E-6,-6.441354339651201E-24,-6.425238644055062,1526.4040256032088,-2.5266649143724126E-22,-8.917562868693274E-18,9.3382403130259E-5,6.402977215534162,29999.35970377177,1.7040454706780762E-11,1.9750484935102582E-27,32.12631403596806,6.07796216732375,3.8871358204482482,2.2082555182316765,10.00000000111787,19.999999999971262,29.999999999956895,-384.1786329320497,994.8517787704841,8.907252094297032E-4,629.6982260763648,411.8411497924405,2.4303648039411264E-5,-1.3787645835923063E-5,-3.5742455941841503E-4,0.0,0.0,0.0,0.006436111743328694,0.018259028278573636,3.7936143492567016
0.3000000000000002,2.0932253084824655E7,457.9212111949944,-1.1094456069429806E-23,2.0932253089833476E7,2.1011007919985447E-5,-1.1094456069429806E-23,-9.63781339625933,1526.4039670360105,1.604721076106034E-22,-1.8323016715005025E-17,2.101091916399796E-4,9.604421252628294,29998.55933347717,5.7511347295710044E-11,3.401782853546545E-27,32.126316492745914,9.18406624402021,5.736603727813787,3.4688234310295387,10.00000000111787,19.999999999971262,29.999999999956895,-576.2652751576976,994.8552162584616,8.907514059434619E-4,629.7210974013925,411.84399584745506,8.062876380996657E-5,-4.858118709256969E-5,-8.01164025256618E-4,0.0,0.0,0.0,0.009654089457407878,0.041083640586668774,5.690395117559497
0.4000000000000003,2.0932251960416723E7,610.5616039941146,6.270673869082787E-23,2.0932251969321296E7,4.980362711143327E-5,6.270673869082787E-23,-12.850334662249438,1526.4038850419229,1.8338182288589088E-21,-1.1254018550399536E-16,3.735244208640607E-4,12.805811802488657,29997.43882129714,1.3632253434129534E-10,-1.9227144363396006E-26,32.12631993221624,12.341850303366991,7.514708516902944,4.8332318426881455,10.00000000111787,19.999999999971262,29.999999999956895,-768.3487081493195,994.8600286953515,8.90788081852307E-4,629.7531182113255,411.84798030268,1.8754762802710847E-4,-1.198367614243818E-4,-0.0014167544095513988,0.0,0.0,0.0,0.012871973381754692,0.07303964145180665,7.587144196834131
0.5000000000000003,2.093225051476008E7,763.2019874224824,2.1264315631163656E-22,2.0932250528673474E7,9.727209155507843E-5,2.1264315631163656E-22,-16.062784609243657,1526.403779620936,2.6886591896197633E-21,-3.0205872525446154E-16,5.836258150884029E-4,16.007131031993744,29995.998173475266,2.6625327758626455E-10,-6.520065864771322E-26,32.126324354360385,15.55570305721729,9.214773334138968,6.3008648017625095,10.00000000111787,19.999999999971262,29.999999999956895,-960.4278619196247,994.8662160348284,8.908352379454631E-4,629.7942894607643,411.85310313628,3.588278991271401E-4,-2.4284299873696428E-4,-0.0021986228198505897,0.0,0.0,0.0,0.016089732252075547,0.11412857445230731,9.48385102167543
0.6000000000000004,2.093224874786276E7,915.8423591374052,6.3591128508413535E-22,2.093224876789805E7,1.680848759704756E-4,6.3591128508413535E-22,-19.275145400994436,1526.4036507730368,6.2321409522751826E-21,-1.721713049906981E-16,8.40410447908745E-4,19.208361104556236,29994.237398050725,4.6008214883523146E-10,-1.949831602773779E-25,32.12632975915424,18.82925242813464,10.82998148591596,7.87071355585618,10.00000000111787,19.999999999971262,29.999999999956895,-1152.5016662733742,994.8737782172822,8.908928752372665E-4,629.8446123767488,411.8593643201395,6.063030626638139E-4,-4.34169527568294E-4,-0.003139706298163441,0.0,0.0,0.0,0.01930733480317859,0.16435242410948367,11.380505024624807
0.7000000000000005,2.0932246659734562E7,1068.4827167961914,1.4926084038648114E-21,2.0932246687004816E7,2.6691012834834105E-4,1.4926084038648114E-21,-22.487399196922087,1526.4034984982097,1.089334545356888E-20,6.418476861114186E-16,0.0011438747436460356,22.40948417925678,29992.156504817307,7.305868353419112E-10,-4.57663687480602E-25,32.126336146568505,22.1652565235024,12.353412412553766,9.541224350054168,10.00000000111787,19.999999999971262,29.999999999956895,-1344.5690507554068,994.8827151699957,8.909609949685151E-4,629.9040884599585,411.8667638200083,9.396763283623884E-4,-7.114556123895807E-4,-0.004231527360600853,0.0,0.0,0.0,0.02252474976874578,0.2237136158283109,13.27709563565698
0.8000000000000006,2.0932244250387076E7,1221.1230580561485,2.703456772723475E-21,2.0932244286005367E7,3.984156046926701E-4,2.703456772723475E-21,-25.699528151248625,1526.4033227964367,1.331492851142806E-20,1.9168694409543718E-16,0.0014940144757796393,25.610482409977827,29989.755505368114,1.0905439631384561E-9,-8.289340943983429E-25,32.12634351656847,25.565486659482847,13.778093061820076,11.310142611217218,10.00000000111787,19.999999999971262,29.999999999956895,-1536.6289445986697,994.8930268069539,8.910395986050132E-4,629.9727194834663,411.8753015953428,0.0013663452257616723,-0.001093185783654474,-0.0054642851077778285,0.0,0.0,0.0,0.025741945881111145,0.2922150158244505,15.173612281666808
0.9000000000000007,2.093224151983367E7,1373.76338057458,4.083154975724816E-21,2.093224156491307E7,5.672686103418423E-4,4.083154975724816E-21,-28.911514412131925,1526.403123667695,9.635037460490382E-21,1.0269562977782698E-15,0.0018908247657863475,28.811337944537755,29987.034413073212,1.5527289383722429E-9,-1.2519772486248444E-24,32.1263518691141,29.030608675016875,15.097065580981313,13.174359218802188,10.00000000111787,19.999999999971262,29.999999999956895,-1728.6802766722653,994.9047130289415,8.911286878383043E-4,630.0505074934109,411.884977599385,0.001891248558864002,-0.001598454365969211,-0.006826961189215535,0.0,0.0,0.0,0.02895889187103459,0.36985993103825227,17.070044385956276
1.0000000000000007,2.093223846808954E7,1526.403682008787,5.316730914539184E-21,2.0932238523743123E7,7.781359128813392E-4,5.316730914539184E-21,-32.12334012079979,1526.402901111962,1.9243399104037575E-20,-5.238864897449957E-16,0.002334300083305519,32.01203292382496,29983.993243124336,2.129915710882493E-9,-1.630216384545094E-24,32.126361204159934,32.56007069052854,16.303471577155516,15.12976652714626,10.00000000111787,19.999999999971262,29.999999999956895,-1920.7219754294977,994.9177737233534,8.912282645842192E-4,630.137454807764,411.895791779004,0.00251673721221319,-0.0022467209040577998,-0.008307439786078539,0.0,0.0,0.0,0.03217555646748296,0.4566521090346217,18.966381367721468
1.0999999999999897,2.0932235095171608E7,1679.0439600160703,7.438208934919916E-21,2.0932235162512448E7,0.0010356836966123328,7.438208934919916E-21,-35.33498741068437,1526.4026551292095,1.8379600980973784E-20,1.4059933772792022E-15,0.0028244342476508033,35.21254948093243,29980.632012449205,2.8348766515229514E-9,-2.2807041154211102E-24,32.12637152165528,36.1520072243311,17.39065224909666,17.171133609339023,10.00000000111787,19.999999999971262,29.999999999956895,-2112.7529688559457,994.932208764565,8.913383309856898E-4,630.2335640188273,411.9077440750005,0.003242470121661563,-0.0030575585665185,-0.009892640663385634,0.0,0.0,0.0,0.03539190839739526,0.5525957378912274,20.86261264153974
1.1999999999999786,2.093223140109861E7,1831.6842122537264,9.913168330283186E-21,2.093223148123978E7,0.001344577493972765,9.913168330283186E-21,-38.54643840655682,1526.4023857194086,3.619035557376985E-20,2.3245294578089215E-15,0.0033612204262925176,38.41286974029226,29976.950739782304,3.6803823663980165E-9,-3.0395763288655858E-24,32.126382821544055,39.80317085646284,18.35226248742948,19.29201151238285,10.00000000111787,19.999999999971262,29.999999999956895,-2304.7721844175353,994.9480180136301,8.914588894104386E-4,630.3388379912611,411.92083442185486,0.004065336533865254,-0.004050397673077987,-0.011568664235827955,0.0,0.0,0.0,0.03860791638546676,0.657695446071269,22.75872761685701
1.2999999999999676,2.093222738589106E7,1984.3244363790482,1.4130066799777444E-20,2.0932227479945634E7,0.0017094821185288378,1.4130066799777444E-20,-41.75767522366233,1526.4020928825269,4.812721850759408E-20,7.45931094670027E-17,0.003944651134004698,41.612975816810554,29972.94944563508,4.6792015153964656E-9,-4.332562016392806E-24,32.12639510376485,43.50890304422204,19.18239564258926,21.48467976620125,10.00000000111787,19.999999999971262,29.999999999956895,-2496.778549008633,994.9652013184125,8.915899424519706E-4,630.453279862999,411.9350627478334,0.004979405480607092,-0.005244266541767808,-0.013320947491675488,0.0,0.0,0.0,0.041823549153921086,0.7719563022840557,24.65471569747524
1.3999999999999566,2.093222304957129E7,2136.964630049324,2.043176424871725E-20,2.0932223158652343E7,0.0021350615967523634,2.043176424871725E-20,-44.96867996685512,1526.4017766185289,7.344667179642E-20,4.163336342344337E-17,0.0045747182306364615,44.81284981500291,29968.628152344376,5.8441006274007605E-9,-6.264788904839366E-24,32.12640836825079,47.26315487357042,19.87571419652016,23.740144602564566,10.00000000111787,19.999999999971262,29.999999999956895,-2688.770988900175,994.9837585133808,8.917314929279924E-4,630.5768930439232,411.95042897481585,0.0059759031885476465,-0.00665753188766522,-0.01513442952714617,0.0,0.0,0.0,0.045038775422295084,0.8953838153301336,26.55056628104005
1.4999999999999456,2.0932218392163407E7,2289.6047909218455,2.856121990367214E-20,2.093221851738401E7,0.0026259791104110697,2.856121990367214E-20,-48.17943472973398,1526.4014369273764,1.0619375589651704E-19,-9.08995101411847E-16,0.0052514129228782925,48.01247382812938,29963.98688401282,7.1878439445450634E-9,-8.757443135261124E-24,32.12642261492973,51.05856620426538,20.42758022763499,26.048197042622647,10.00000000111787,19.999999999971262,29.999999999956895,-2880.748429687763,995.0036894198678,8.918835438823839E-4,630.7096812176442,411.96693301850746,0.007043218933437573,-0.00830764102441342,-0.016993725360195333,0.0,0.0,0.0,0.04825356390720523,1.0279839339354748,28.44626875852842
1.5999999999999346,2.0932213413693286E7,2442.244916653893,3.962421475413033E-20,2.093221355616652E7,0.0031868969231751976,3.962421475413033E-20,-51.389921593778254,1526.4010738090294,1.3304808323257513E-19,1.0651202142497596E-15,0.005974725765581325,51.211829937331004,29959.02566652,8.723193223268776E-9,-1.2149579347766452E-23,32.12643784372417,54.8866077694323,20.834178548307825,28.39753513897244,10.00000000111787,19.999999999971262,29.999999999956895,-3072.70979623986,995.024993846026,8.920460985848403E-4,630.8516483412535,411.98457478839913,0.008166939631397373,-0.010210868123288157,-0.018883306618000587,0.0,0.0,0.0,0.05146788332212539,1.1697630465705822,30.341812513736883
1.6999999999999236,2.0932208114188604E7,2594.8850049027446,5.308968251645811E-20,2.0932208275027543E7,0.003822476316486023,5.308968251645811E-20,-54.60012262748404,1526.4006872634438,1.368421837459426E-19,-8.118505867571457E-16,0.006744646657331647,54.41090021076572,29953.744527544826,1.0462907560720517E-8,-1.62783619633548E-23,32.12645405455127,58.737785553426505,21.092624941993744,30.7759494413608,10.00000000111787,19.999999999971262,29.999999999956895,-3264.654012645943,995.0476715867359,8.922191605301587E-4,631.0027986447689,412.003354187688,0.00932991324017955,-0.012382066772196304,-0.020787687627530832,0.0,0.0,0.0,0.05468170237716796,1.320727981254972,32.23718692276969
1.7999999999999126,2.0932202493678868E7,2747.5250533256744,6.965533415506117E-20,2.0932202673996583E7,0.004537377521033781,6.965533415506117E-20,-57.81001988550061,1526.400277290575,1.898177324861342E-19,-1.4276774207289122E-15,0.007561164840351428,57.6096667027448,29948.143496584147,1.2419743209142692E-8,-2.1357723164063157E-23,32.12647124732268,62.6019007556462,21.20105220850169,33.17056475481911,10.00000000111787,19.999999999971262,29.999999999956895,-3456.5800021646883,995.07172242353,8.9240273343764E-4,631.1631366306855,412.02327111321097,0.01051234082170699,-0.014834431048593789,-0.022691615383645242,0.0,0.0,0.0,0.05789498977886601,1.480886005347222,34.132381353527165
1.8999999999999015,2.0932196552195366E7,2900.1650595799506,8.614084111854178E-20,2.093219675310494E7,0.005336259653520248,8.614084111854178E-20,-61.019595407767625,1526.3998438903736,1.0682931449411904E-19,-4.310787837802366E-15,0.008424268899562245,60.808111452870314,29942.222604941577,1.4606453404719745E-8,-2.6412510399186505E-23,32.1264894219447,66.46835268854886,21.15866782030164,35.568125311534935,10.00000000111787,19.999999999971262,29.999999999956895,-3648.486687172219,995.097146124645,8.925968212514731E-4,631.3326670743895,412.04432545548457,0.011691896895144152,-0.017579267276027072,-0.02458026182470058,0.0,0.0,0.0,0.06110771422994971,1.65024482532211,36.027385165194566
1.9999999999998905,2.093219028977116E7,3052.8050213228385,9.830369862823578E-20,2.0932190512385666E7,0.006223780658514366,9.830369862823578E-20,-64.22883121865257,1526.3993870627892,1.4475167133506806E-19,-6.267555918704204E-15,0.009333946766839775,64.00621648517222,29935.98188566789,1.7035788210365556E-8,-3.014188657298691E-23,32.126508578318365,70.32646701917157,20.965778846714148,37.95530554692089,10.00000000111787,19.999999999971262,29.999999999956895,-3840.372989110333,995.1239424452831,8.928014281427089E-4,631.5113950259647,412.06651709891673,0.012843877488746621,-0.02062577857404927,-0.026439416811962616,0.0,0.0,0.0,0.0643198444291083,1.8288125865371996,37.922187707730956
2.0999999999998797,2.0932183706441063E7,3205.4449362115947,1.1209057520013742E-19,2.0932183951873586E7,0.007204597236420085,1.1209057520013742E-19,-67.43770932608878,1526.3989068077683,1.0232525712714753E-19,1.3818807209631245E-14,0.010290185718078423,67.20396380724664,29929.4213735871,1.9720494320495373E-8,-3.436921957901755E-23,32.12652871633943,74.16582872157473,20.623782222379113,40.31902563286365,10.00000000111787,19.999999999971262,29.999999999956895,-4032.2378284347983,995.1521111275042,8.930165585084165E-4,631.6993258095447,412.0898459217141,0.013941375080163186,-0.02398086423580477,-0.028255680186363884,0.0,0.0,0.0,0.06753134907077248,2.0165978729812495,39.816778321358534
2.1999999999998687,2.0932176802241817E7,3358.0848019034756,1.2413665646599634E-19,2.093217707160543E7,0.008283364764888335,1.2413665646599634E-19,-70.64621172071368,1526.3984031252537,1.0601562037338472E-19,1.2646134139870924E-14,0.01129297236125461,70.40133540939405,29922.541105430573,2.267331484785097E-8,-3.8062789813212286E-23,32.126549835897904,77.97659853234353,20.135121114553247,42.64675034661707,10.00000000111787,19.999999999971262,29.999999999956895,-4224.080124563643,995.1816518996563,8.932422169673148E-4,631.8964650195878,412.1143117954051,0.01495547940034689,-0.027648935877257575,-0.03001665126489349,0.0,0.0,0.0,0.07074219684493178,2.2136097069986476,41.7111463360521
2.2999999999998577,2.0932169577211846E7,3510.7246160557265,1.3491427065954298E-19,2.0932169871619627E7,0.009464737254882172,1.3491427065954298E-19,-73.8543203750083,1526.3978760151879,1.4520760325692745E-19,-4.989064716909297E-15,0.012342292655315827,73.59831326375897,29915.3411196284,2.5906989205177193E-8,-4.1367422589826736E-23,32.12657193687873,81.74979370262469,19.50321071989826,44.92675185228217,10.00000000111787,19.999999999971262,29.999999999956895,-4415.898795825538,995.2125644772761,8.934784083666254E-4,632.1028185269614,412.1399145855817,0.01585550286736263,-0.03163175219777782,-0.031711114139589575,0.0,0.0,0.0,0.07395235643685509,2.419857549023879,43.60528107102925
2.3999999999998467,2.0932162031391434E7,3663.364376325592,1.4396686441344874E-19,2.0932162351956468E7,0.01075336727186671,1.4396686441344874E-19,-77.06201724243616,1526.39732547751,6.608814001899516E-20,1.3811868315727338E-14,0.013438131893738426,76.79487932346902,29907.821456469595,2.9434252891435432E-8,-4.414312948518442E-23,32.126595019161265,85.47751803850714,18.732338956174196,47.14832116361103,10.00000000111787,19.999999999971262,29.999999999956895,-4607.692759408141,995.2448485624071,8.937251377768434E-4,632.3183924744749,412.16665415132957,0.01660922921355942,-0.03592827407214581,-0.03332921715255663,0.0,0.0,0.0,0.07716179652691521,2.6353512972750184,45.49917183424024
2.4999999999998357,2.0932154164822716E7,3816.0040803703055,1.436502970895816E-19,2.0932154512658082E7,0.012153905856143732,1.436502970895816E-19,-80.26928425658416,1526.3967515121572,-9.05788138118682E-20,7.844419558367122E-15,0.014580474705892174,79.99101552177464,29899.98215808347,3.326783727567386E-8,-4.4046063591409623E-23,32.126619082619385,89.15313185071199,17.827548958335743,49.301918675729475,10.00000000111787,19.999999999971262,29.999999999956895,-4799.460931306478,995.2785038436859,8.93982410492369E-4,632.5431932775381,412.1945303452944,0.01718318367606729,-0.0405345415632858,-0.03486264494487955,0.0,0.0,0.0,0.0803704857903662,2.860101287443915,47.39280792185859
2.5999999999998247,2.0932145977549523E7,3968.643725847099,1.2068576045810195E-19,2.09321463537683E7,0.013671002497715135,1.2068576045810195E-19,-83.47610333030265,1526.396154119063,-3.6516799878873057E-19,1.0373646386341306E-15,0.015769305066468994,83.18670377119061,29891.823268301785,3.742046953015272E-8,-3.700467585110701E-23,32.12664412712183,92.77135854075439,16.79451092558084,51.37926024536368,10.00000000111787,19.999999999971262,29.999999999956895,-4991.202226271436,995.3135299969402,8.942502320360531E-4,632.7772276282437,412.22354301417204,0.017542922935826714,-0.045443574300479544,-0.03630478151138639,0.0,0.0,0.0,0.08357839289707612,3.09411829238572,49.286178617772116
2.6999999999998137,2.093213746961757E7,4121.283310413194,7.490776919047426E-20,2.0932137875332847E7,0.01530930502548733,7.490776919047426E-20,-86.68245635484742,1526.395533298161,-5.449868265758068E-19,6.938893903907228E-17,0.017004606282169075,86.38192596263788,29883.344832848758,4.190487232899985E-8,-2.2968225141899525E-23,32.12667015253169,96.32833021843288,15.639390719911672,53.37334094856592,10.00000000111787,19.999999999971262,29.999999999956895,-5182.915557758272,995.3499266843797,8.94528608152985E-4,633.0205024900561,412.25369199803265,0.01765334281641956,-0.0506452965113088,-0.03765086273857383,0.0,0.0,0.0,0.08678548651137188,3.337413521760458,51.17927319307444
2.7999999999998026,2.093212864107438E7,4273.922831725802,4.282465223434119E-21,2.0932129077399243E7,0.01707345955581996,4.282465223434119E-21,-89.88832519902166,1526.3948890493791,-8.265520195783435E-19,-2.1996293675385914E-15,0.01828636099446588,89.57666396458441,29874.54689924419,4.673376370930214E-8,-1.3130897699553714E-24,32.12669715870667,99.82157928056266,14.368721826633585,55.27840315741678,10.00000000111787,19.999999999971262,29.999999999956895,-5374.599837875065,995.3876935550189,8.948175448136946E-4,633.2730251007283,412.28497713066514,0.01747900159298945,-0.056126487830733755,-0.038898116961391796,0.0,0.0,0.0,0.08999173529178771,3.5899986216871396,53.072080905556334
2.8999999999997916,2.093211949196927E7,4426.562287442137,-1.0516286480525418E-19,2.0932119960016795E7,0.018968110443833286,-1.0516286480525418E-19,-93.09369170831873,1526.3942213726466,-1.2746003249678847E-18,-5.0306980803327406E-15,0.01961455118286008,92.7708996221891,29865.429516796023,5.191985693974563E-8,3.2245044559695386E-23,32.12672514549914,103.24998590664022,12.989286060742895,57.089858575958694,10.00000000111787,19.999999999971262,29.999999999956895,-5566.2539773313465,995.4268302447164,8.951170482144261E-4,633.5348029726674,412.3173982396036,0.016984456612593263,-0.061870760833437906,-0.04004589214121483,0.0,0.0,0.0,0.09319710789084294,3.8518856743751466,54.96459099919816
2.9999999999997806,2.0932110022353385E7,4579.201675219396,-2.5103512418623446E-19,2.0932110523236662E7,0.020997900186169982,-2.5103512418623446E-19,-96.29853770406574,1526.3935302678892,-1.554508405781308E-18,6.071532165918825E-16,0.02098915815772537,95.96461475644548,29855.99273666367,5.7475860256373024E-8,7.697240637580432E-23,32.12675411275588,106.61369288695715,11.508006966039337,58.804175303544916,10.00000000111787,19.999999999971262,29.999999999956895,-5757.87688538673,995.4673363759101,8.954271247750768E-4,633.805843891263,412.35095514590205,0.016134611793496123,-0.0678585660514783,-0.04109576834608063,0.0,0.0,0.0,0.09640157295484869,4.123087197729877,56.856792703662414
3.0999999999997696,2.0932100232279673E7,4731.840992714775,-4.333011404853374E-19,2.093210076711179E7,0.02316746938002545,-4.333011404853374E-19,-99.50284498256805,1526.3928157350306,-1.9432369018354365E-18,-3.6012859361278515E-15,0.022410162564010776,99.15779116332476,29846.236611790955,6.341447675235794E-8,1.3285882434441316E-22,32.12678406031838,109.91399928511846,9.9318584083932,60.418741044057555,10.00000000111787,19.999999999971262,29.999999999956895,-5949.467469799485,995.5092115579131,8.957477811414301E-4,634.0861559169729,412.3856476643727,0.014895073452278817,-0.07406722504789894,-0.04205165430292797,0.0,0.0,0.0,0.09960509912366353,4.403616144960006,58.74867523378662
3.1999999999997586,2.093209012180293E7,4884.480237585467,-6.488287949308902E-19,2.0932090691696968E7,0.025481456646669454,-6.488287949308902E-19,-102.70659531425422,1526.3920777739918,-2.409846941217527E-18,-6.897260540483785E-15,0.02387754437419344,102.35041061292227,29836.16119696945,6.974840417058113E-8,1.9894392800066365E-22,32.12681498802254,113.15324349198332,8.267789562260718,61.931712593043926,10.00000000111787,19.999999999971262,29.999999999956895,-6141.024636775336,995.5524553866495,8.960790241831002E-4,634.3757473836664,412.4214756033607,0.013232511804848034,-0.080470991917858,-0.04291986688878257,0.0,0.0,0.0,0.10280765503050267,4.6934859041505925,60.64022778907694
3.2999999999997476,2.093207969097976E7,5037.119407488636,-9.008737091927262E-19,2.093208029704882E7,0.02794449854173653,-9.008737091927262E-19,-105.90977044282216,1526.3913163846928,-2.6326200169530423E-18,-9.620776397767372E-15,0.025391282892824586,105.54245484860348,29825.76654881984,7.649033465998712E-8,2.7622595627621377E-22,32.126846895698804,116.33468463727213,6.522666423898175,63.34186009870774,10.00000000111787,19.999999999971262,29.999999999956895,-6332.547290916209,995.5970674447428,8.964208609941729E-4,634.6746268993269,412.4584387648103,0.011115025402237124,-0.08704114338677355,-0.04370919253543626,0.0,0.0,0.0,0.10600920930171526,4.992710297831176,62.5314395532024
3.3999999999997366,2.093206893986861E7,5189.758500081459,-1.154242450073781E-18,2.093206958322577E7,0.030561229496882003,-1.154242450073781E-18,-109.11235208438593,1526.390531567052,-2.460917951521504E-18,2.994132719535969E-15,0.026951356751710877,108.73390558614993,29815.052725773305,8.365295461779245E-8,3.5391389635727686E-22,32.12687978317221,119.46238944467409,4.703229193787442,64.6484126631301,10.00000000111787,19.999999999971262,29.999999999956895,-6524.034335168996,995.6430473016047,8.967732988938413E-4,634.9828033467579,412.4965369443311,0.00851250569423053,-0.09374609746758979,-0.04443092963701558,0.0,0.0,0.0,0.10920973055655954,5.301303582528659,64.42229969348905
3.4999999999997256,2.0932057868529726E7,5342.397513021094,-1.3964055903691593E-18,2.093205855028808E7,0.03333628179389825,-1.3964055903691593E-18,-112.31432192662342,1526.3897233209848,-2.3800573083164525E-18,1.0609568779074152E-14,0.02855774391091823,111.92474451290789,29804.01978808269,9.124894462054174E-8,4.281659744458732E-22,32.12691365026228,122.54112972512537,2.81606435075472,65.85090990773537,10.00000000111787,19.999999999971262,29.999999999956895,-6715.484670774474,995.690394513395,8.97136345426071E-4,635.3002858834417,412.53576993115803,0.005396998864547958,-0.10055156043013798,-0.045098911172929246,0.0,0.0,0.0,0.11240918740699281,5.619280448299057,66.31279736041537
3.5999999999997145,2.093204647702522E7,5495.036443964697,-1.6279574102262952E-18,2.0932047198297862E7,0.03627428549121614,-1.6279574102262952E-18,-115.5156616279252,1526.3888916464061,-2.20454676726469E-18,7.681355551625302E-15,0.03021042165458033,115.11495328693641,29792.667797863483,9.929097922482843E-8,4.991644087601014E-22,32.12694849678302,125.57629398895789,0.8675899595984154,66.9490623622533,10.00000000111787,19.999999999971262,29.999999999956895,-6906.897197216184,995.7391086228555,8.975100083582801E-4,635.6270839405437,412.57613750800556,0.0017430620509597955,-0.10742070162537339,-0.04572950688873476,0.0,0.0,0.0,0.11560754845747634,5.946656018235279,68.20292168710762
3.6999999999997035,2.0932034765419018E7,5647.675290569418,-1.854993849051949E-18,2.093203552731904E7,0.03937986830935403,-1.854993849051949E-18,-118.7163528165441,1526.3880365432258,-2.3249310577361562E-18,4.749672877224498E-15,0.03190936658940887,118.30451353615751,29780.99681904167,1.0779172665564224E-7,5.687783366439109E-22,32.126984322542974,128.5738152230808,-1.13594733261149,67.94262205560729,10.00000000111787,19.999999999971262,29.999999999956895,-7098.27081216945,995.7891891595432,8.978942956830806E-4,635.9632072245976,412.6176394512533,-0.0024718889474415334,-0.11431435549784127,-0.046341604513938844,0.0,0.0,0.0,0.11880478230473746,6.2834458479765845,70.0926617888362
3.7999999999996925,2.093202273377687E7,5800.314050492385,-2.0786445753853416E-18,2.093202353741737E7,0.04265765557805823,-2.0786445753853416E-18,-121.91637708974591,1526.387158011359,-2.1030206876115615E-18,-8.083811398051921E-15,0.03365455465281043,121.49340685750629,29769.006917372346,1.1676384866357686E-7,6.373541371394882E-22,32.12702112734521,131.54011575790915,-3.1884650976713114,68.8312635303542,10.00000000111787,19.999999999971262,29.999999999956895,-7289.6044114503775,995.8406356397596,8.982892156177014E-4,636.3086657171672,412.6602755308793,-0.0072672433652391,-0.1211912499103938,-0.0469565696369493,0.0,0.0,0.0,0.12200085753756422,6.6296659251875925,71.98200676251227
3.8999999999996815,2.0932010382166427E7,5952.9527213907295,-2.271470089218164E-18,2.0932011228660498E7,0.046112270175533876,-2.271470089218164E-18,-125.11571601296099,1526.3862560507134,-1.7805208878709258E-18,4.440892098500626E-15,0.035445961092947974,124.68161481608392,29756.698160499334,1.2622000036038309E-7,6.96478308940054E-22,32.12705891098712,134.48206932572603,-5.284029051820468,69.61447466468809,10.00000000111787,19.999999999971262,29.999999999956895,-7480.896888965035,995.8934475663046,8.986947766020506E-4,636.6634696733232,412.70404551024814,-0.012658873429083405,-0.12800825970048588,-0.04759818400391952,0.0,0.0,0.0,0.12519574273662545,6.985332669008214,73.87094568618564
3.9999999999996705,2.0931997710657123E7,6105.591300921564,-2.4483185576514673E-18,2.093199860111786E7,0.04974833246179644,-2.4483185576514673E-18,-128.31435111893722,1526.3853306611966,-1.8300389188594487E-18,-5.9657140338842396E-15,0.0372835604827472,127.86911894430855,29744.070617862046,1.3617283003842655E-7,7.507035980238564E-22,32.127097673260735,137.4069798430067,-7.416829211039928,70.29145613781576,10.00000000111787,19.999999999971262,29.999999999956895,-7672.147136658513,995.9476244288871,8.991109873018139E-4,637.02762962453,412.74894914644227,-0.01865882939289799,-0.134720684187302,-0.0482925621584933,0.0,0.0,0.0,0.12838940647420985,7.3504629295223705,75.7594676185421
4.099999999999704,2.093198471932029E7,6258.229786741997,-2.626328873434139E-18,2.09319856548608E7,0.053570460207708503,-2.626328873434139E-18,-131.5122639068936,1526.3843818427156,-1.723478678808611E-18,-5.405398351143731E-15,0.039167326711189845,131.0559007410709,29731.12436079979,1.4663497897832993E-7,8.052851328187406E-22,32.12713741395238,140.32257607349118,-9.581149126444645,70.8610280771539,10.00000000111787,19.999999999971262,29.999999999956895,-7863.354044464254,996.0031657036868,8.995378566050527E-4,637.4011563758489,412.7949861898905,-0.025275054395474006,-0.1412825471513582,-0.0490680464911239,0.0,0.0,0.0,0.13158181731407187,7.7250739871606875,77.64756159840262
4.199999999999737,2.0931971408229038E7,6410.868176509135,-2.7837343551060836E-18,2.0931972389962412E7,0.05758326854964135,-2.7837343551060836E-18,-134.70943584167537,1526.3834095951756,-1.4045524297355432E-18,-2.345346139520643E-15,0.041097232987735155,134.24194167088783,29717.859462413937,1.576190813267542E-7,8.535488120162533E-22,32.12717813284312,143.23702107904646,-11.771328783722087,71.32154234381537,10.00000000111787,19.999999999971262,29.999999999956895,-8054.516500253269,996.0600708539566,8.999753936267715E-4,637.7840610101215,412.84215638485824,-0.0325111217993393,-0.14764691762359874,-0.04995508092253594,0.0,0.0,0.0,0.13477294381114469,8.109183552148382,79.53521664422239
4.299999999999771,2.0931957777458407E7,6563.506467880066,-2.909828630790569E-18,2.093195880649775E7,0.061791369870067836,-2.909828630790569E-18,-137.90584835291043,1526.3824139184808,-1.1045952500655312E-18,3.722716579446228E-15,0.043073251831456785,137.4272231630604,29704.27599775046,1.6913776377143023E-7,8.922118471636717E-22,32.127219829708146,146.15893517136234,-13.981721488143505,71.67079902221685,10.00000000111787,19.999999999971262,29.999999999956895,-8245.633389783625,996.1183393292511,9.004236077029382E-4,638.1763548829257,412.8904594687985,-0.04036599756292796,-0.15376624963636085,-0.050986063599412206,0.0,0.0,0.0,0.13796275451143433,8.502809763847015,81.42242175359134
4.399999999999804,2.0931943827085294E7,6716.144658511861,-3.005321798883168E-18,2.093194490454371E7,0.06619937375134155,-3.005321798883168E-18,-141.10148283416663,1526.3813948125342,-7.828563186368949E-19,2.1978946440626146E-15,0.045095355074267825,140.61172661082895,29690.37404371053,1.8120364541651638E-7,9.214919686779963E-22,32.1272625043171,149.0974308665469,-16.206644809776364,71.905965973539,10.00000000111787,19.999999999971262,29.999999999956895,-8436.703596649737,996.1779705658201,9.008825083934559E-4,638.5780496253708,412.93989517266925,-0.04883383007402452,-0.15959273892397027,-0.05219517913764411,0.0,0.0,0.0,0.14115121795176216,8.905971190150488,83.30916590273434
4.4999999999998375,2.0931929557188384E7,6868.782746061593,-3.069644357779819E-18,2.093193068417897E7,0.07081188694698115,-3.069644357779819E-18,-144.29632064211,1526.3803522772373,-5.537330163940207E-19,-7.53043460921532E-15,0.04716351386389634,143.79543337053397,29676.153678972274,1.938293377058679E-7,9.412145559397357E-22,32.12730615643434,152.0621580387242,-18.44032544217864,72.02350080616623,10.00000000111787,19.999999999971262,29.999999999956895,-8627.726002232039,996.2389639869567,9.013521054847824E-4,638.9891571465895,412.9904632212119,-0.057903769728893294,-0.16507869439699166,-0.053618211100963535,0.0,0.0,0.0,0.14433830265950956,9.318686826866404,85.19543804601318
4.599999999999871,2.0931914967848323E7,7021.420728186322,-3.126739429251632E-18,2.093191614548419E7,0.07563351324502499,-3.126739429251632E-18,-147.49034309566528,1526.3792863124909,-5.203060090557562E-19,2.1441182163073336E-15,0.04927769865081436,146.97832476077363,29661.614984191954,2.070274440508706E-7,9.58721050529408E-22,32.127350785818216,155.06335697960986,-20.676837643410924,72.019075349971,10.00000000111787,19.999999999971262,29.999999999956895,-8818.699485646417,996.3013190021455,9.018324089833196E-4,639.4096896281544,413.04216333223553,-0.06755982038039685,-0.1701769220661116,-0.05529233555461592,0.0,0.0,0.0,0.1475239771525324,9.740976096985701,87.08122711542835
4.699999999999904,2.0931900059147567E7,7174.058602543102,-3.1797915380340605E-18,2.093190128854182E7,0.08066885345638442,-3.1797915380340605E-18,-150.68353147517698,1526.3781969181964,-5.32531034018873E-19,2.779027008514845E-15,0.0514378791987506,150.16038206156801,29646.75804182142,2.208105598004247E-7,9.749878916319503E-22,32.127396392221755,158.11191629396384,-22.91003479660063,71.88750376639797,10.00000000111787,19.999999999971262,29.999999999956895,-9009.622923694082,996.3650350078581,9.023234291214704E-4,639.8396595295882,413.09499521726605,-0.07778072460311966,-0.17484111896261484,-0.057255896684391926,0.0,0.0,0.0,0.15070820993884634,10.172858850057692,88.96652202012282
4.799999999999938,2.0931884831170447E7,7326.6963667889695,-3.204097652949202E-18,2.0931886113436196E7,0.08592250530845114,-3.204097652949202E-18,-153.87586702157168,1526.3770840942514,6.887636717729467E-21,3.5110803153770576E-15,0.053644024573476994,153.34158651351925,29631.58293619752,2.3519127195157943E-7,9.824406341942913E-22,32.12744297539231,161.2194313676493,-25.133473572998426,71.62267688809233,10.00000000111787,19.999999999971262,29.999999999956895,-9200.495190811154,996.4301113871809,9.028251763547214E-4,640.2790795860227,413.14895858122804,-0.08853988452818685,-0.1790262744741586,-0.05954816561341254,0.0,0.0,0.0,0.15389096951647505,10.614355361456566,90.85131164588526
4.899999999999971,2.0931869284003213E7,7479.334018580956,-3.1662079206682787E-18,2.093187062025357E7,0.0913990633832702,-3.1662079206682787E-18,-157.06733093552268,1526.3759478405561,6.045537268060842E-19,2.7745167274773053E-14,0.05589610314506448,156.52191931697757,29616.089753571898,2.5018215898215056E-7,9.70822881977139E-22,32.127490535071466,164.39825737886838,-27.340330241375145,71.2175074028234,10.00000000111787,19.999999999971262,29.999999999956895,-9391.315159018654,996.4965475097013,9.033376613606857E-4,640.7279628075764,413.2040531223387,-0.0998053197945123,-0.18268907641465146,-0.062209083690636185,0.0,0.0,0.0,0.15707222437326876,11.065486331643998,92.73558485465529
5.000000000000004,2.093185341773395E7,7631.9715555760795,-3.0798751797597767E-18,2.0931854809082024E7,0.0971031190608076,-3.0798751797597767E-18,-160.257904376615,1526.3747881570075,1.3233376134666654E-18,9.23046361567259E-15,0.058194082585680984,159.70136163120458,29600.27858202532,2.6579579069727973E-7,9.443515312516669E-22,32.12753907099538,167.66154829797532,-29.523308901052193,70.66389325451046,10.00000000111787,19.999999999971262,29.999999999956895,-9582.081697872274,996.5643427318863,9.038608950419697E-4,641.1863224820876,413.2602785324123,-0.1115396639417477,-0.18578831905586615,-0.06527899165813617,0.0,0.0,0.0,0.16025194298664427,11.526272885457077,94.61933048402854
5.100000000000038,2.093183723245264E7,7784.608975431351,-2.934882556845974E-18,2.0931838680011544E7,0.10303926044124934,-2.934882556845974E-18,-163.44756846251255,1526.3736050435034,1.6875484080677616E-18,4.028027911218146E-15,0.060537929867201884,162.87989457354197,29584.149511545897,2.820447280185914E-7,8.998938836272836E-22,32.12758858289441,171.0232698328879,-31.67454190566839,69.9527103296015,10.00000000111787,19.999999999971262,29.999999999956895,-9772.793674412518,996.6334963967614,9.043948885236152E-4,641.6541721730991,413.3176344965819,-0.12370020033521112,-0.18828531027299034,-0.06879834623011666,0.0,0.0,0.0,0.16343009382343554,11.996736571312569,96.50253734676326
5.200000000000071,2.093182072825118E7,7937.246275803771,-2.70799446762059E-18,2.0931822233134035E7,0.10921207226268947,-2.70799446762059E-18,-166.63630426812665,1526.3723984999406,2.73365401428318E-18,2.7509244882040207E-14,0.06292761125685523,166.05749921858046,29567.70263403654,2.989415227607241E-7,8.303254427077173E-22,32.127639070493224,174.49816963712595,-33.78548360840922,69.07385031734597,10.00000000111787,19.999999999971262,29.999999999956895,-9963.449953114829,996.7040078338915,9.049396531528866E-4,642.1315257199029,413.37612069327287,-0.13623893846980342,-0.19014427490385613,-0.07280742573655176,0.0,0.0,0.0,0.16660664533970082,12.476899360414931,98.38519423028833
5.300000000000105,2.0931803905223355E7,8089.8834543503335,-2.407395505803262E-18,2.0931805468543272E7,0.1156261358488746,-2.407395505803262E-18,-169.82409282478557,1526.3711685262172,3.4446300761270184E-18,-6.4791921827733745E-16,0.06536309232006249,169.23415659732706,29550.938043273985,3.164987174901294E-7,7.381557691604289E-22,32.127690533510844,178.10168220871472,-35.84679995272509,68.0163256757034,10.00000000111787,19.999999999971262,29.999999999956895,-10154.049395839624,996.7758763595698,9.054952005006571E-4,642.6183972389877,413.43573679434803,-0.1491027312447263,-0.1913327513820466,-0.07734602659399019,0.0,0.0,0.0,0.1697815659804932,12.966783645964892,100.26728989621004
5.400000000000138,2.0931786763464816E7,8242.520508728008,-2.031972413592574E-18,2.0931788386334915E7,0.12228602902302566,-2.031972413592574E-18,-173.0109151194073,1526.3699151222293,3.976454805983489E-18,-2.6353919047039653E-14,0.06784433791443228,172.40984769637993,29533.855834916234,3.3472884529101016E-7,6.23043515804742E-22,32.127742971660666,-178.15026109103633,-37.84825854689326,66.76847076433089,10.00000000111787,19.999999999971262,29.999999999956895,-10344.590861782795,996.8491012768002,9.060615423611897E-4,643.1148011240883,413.49648246508144,-0.16223343353743047,-0.1918219786840251,-0.08245315246646946,0.0,0.0,0.0,0.17295482417966934,13.46641224232774,102.14881307982303
5.500000000000171,2.093176930307317E7,8395.157436593763,-1.567346456523854E-18,2.0931770986606576E7,0.12919632603957343,-1.567346456523854E-18,-176.1967520936717,1526.3686382878732,5.099628218511969E-18,-1.7025443554974373E-14,0.07037131218610045,175.58455345710007,29516.45610657707,3.5364442958028756E-7,4.805798741284127E-22,32.12779638465019,-174.24155395894124,-39.77862690231197,65.31827580418417,10.00000000111787,19.999999999971262,29.999999999956895,-10535.073207426005,996.923681874992,9.06638690749706E-4,643.6207520442972,413.5583573638932,-0.1755681021356489,-0.1915872706301695,-0.08816669807001119,0.0,0.0,0.0,0.17612638835974603,13.975808384144512,104.02975248961927
5.600000000000205,2.093175152414787E7,8547.794235604564,-1.0857152933128288E-18,2.0931753269457694E7,0.13636159754593802,-1.0857152933128288E-18,-179.38158464319648,1526.3673380230452,4.705497602854674E-18,1.4131924797045059E-14,0.07294397857526862,178.7582547747865,29498.738957695663,3.7325798400480346E-7,3.329020950203877E-22,32.12785077218145,-170.1564125720095,-41.6255906502823,63.65389691390757,10.00000000111787,19.999999999971262,29.999999999956895,-10725.49528648719,996.999617430533,9.072266579067318E-4,644.136264948122,413.6213611428127,-0.18903923681342724,-0.19060837459999422,-0.09452312965454097,0.0,0.0,0.0,0.1792962269316086,14.49499572552156,105.91009680679996
5.700000000000238,2.093173342679034E7,8700.430903417351,-6.178343941772555E-19,2.0931735234989718E7,0.14378641044070317,-6.178343941772555E-19,-182.56539361671338,1526.3660143276436,4.588920200700408E-18,7.788041045397875E-15,0.07556229980405726,181.93093249785366,29480.704489719123,3.935820120549186E-7,1.894404227923111E-22,32.12790613395046,-165.88009475693306,-43.37570879393084,61.764388233516414,10.00000000111787,19.999999999971262,29.999999999956895,-10915.85594987122,997.0769072060217,9.07825456292075E-4,644.6613550584589,413.68549344682964,-0.20257506205381964,-0.18886981175384887,-0.10155716426239264,0.0,0.0,0.0,0.1824643082944539,15.023998339040586,107.78983468478746
5.800000000000272,2.093171501110392E7,8853.067437689066,-1.854387566650764E-19,2.093171688330597E7,0.15147532786259355,-1.854387566650764E-19,-185.7481598152467,1526.3646672015643,4.133941402066682E-18,-4.9682480351975755E-15,0.07822623787859957,185.1025674270093,29462.3528059721,4.146290070361521E-7,5.685924382939736E-23,32.127962469647585,-161.39988138182787,-45.01442906835184,59.64069643429244,10.00000000111787,19.999999999971262,29.999999999956895,-11106.154045620557,997.1555504508415,9.084350985891819E-4,645.1960378766676,413.7507539143573,-0.2160998486475578,-0.1863611959181787,-0.10930144992176724,0.0,0.0,0.0,0.18563060083549962,15.562840714903134,109.66895474873873
5.900000000000305,2.093169627719379E7,9005.703836076636,2.3639609686414415E-19,2.0931698214511644E7,0.159432909128002,2.3639609686414415E-19,-188.929863991294,1526.3632966447092,4.2625361843631934E-18,5.900011382231618E-15,0.08093575409769452,188.27314031443467,29443.684011645615,4.364114518999823E-7,-7.248378685040875E-23,32.12801977895759,-156.7063396577216,-46.52619231299785,57.27693717528075,10.00000000111787,19.999999999971262,29.999999999956895,-11296.38841886608,997.235546401223,9.090555977055364E-4,645.7403291831841,413.81714217727233,-0.2295342741100182,-0.18307752836003297,-0.11778624897306285,0.0,0.0,0.0,0.18879507292978082,16.11154775999672,111.5474455950595
6.000000000000338,2.093167722516714E7,9158.340096236987,6.667725470032424E-19,2.0931679228713926E7,0.16766370959497667,6.667725470032424E-19,-192.11048684800858,1526.3619026569695,4.39449392458689E-18,-1.656487447210253E-14,0.08369080902206835,191.4426318629695,29424.698213927448,4.589418188733385E-7,-2.0444584244748478E-22,32.12807806155925,-151.7948447425064,-47.89465850236243,54.67192981123619,10.00000000111787,19.999999999971262,29.999999999956895,-11486.55791177817,997.3168942797014,9.096869667683593E-4,646.294245034014,413.8846578604506,-0.24279582058175178,-0.17901946577453887,-0.12703912675655082,0.0,0.0,0.0,0.19195769294006482,16.670144796853357,113.42529579092073
6.100000000000372,2.0931657855133094E7,9310.976215826991,1.1408660932902175E-18,2.0931659926021945E7,0.17617228059554702,1.1408660932902175E-18,-195.29000903838266,1526.3604852382475,4.695372495194009E-18,2.8893771056304196E-14,0.08649136250063502,194.6110227252904,29405.39552194625,4.822325692751536E-7,-3.49812436955889E-22,32.128137317125486,-146.66726483391983,-49.103085710067674,51.830895482043914,10.00000000111787,19.999999999971262,29.999999999956895,-11676.661363517425,997.3995932953711,9.103292191264871E-4,646.8578017626496,413.9533005819662,-0.2557992086051827,-0.17419355892512972,-0.1370846479077289,0.0,0.0,0.0,0.19511842921661673,17.238657562684814,115.3024938737733
6.200000000000405,2.0931638167202666E7,9463.612192503591,1.614651763621854E-18,2.0931640306546718E7,0.1849631694834697,1.614651763621854E-18,-198.468411164435,1526.3590443884425,4.7493044597462576E-18,-9.967721092962734E-15,0.08933737365620421,197.77829350310353,29385.776046719402,5.06296153648846E-7,-4.950846305185113E-22,32.12819754532361,-141.33361826446097,-50.13488295745275,48.76712706481848,10.00000000111787,19.999999999971262,29.999999999956895,-11866.697610186211,997.4836426441258,9.109823683521355E-4,647.4310159818913,414.0230699532762,-0.2684568648956209,-0.16861245950495465,-0.14794408250670738,0.0,0.0,0.0,0.19827725009697225,17.81711220839945,117.17902835086808
6.300000000000439,2.0931618161488842E7,9616.248023923648,2.1050286456560055E-18,2.0931620370401226E7,0.19404091939565848,2.1050286456560055E-18,-201.64567377639798,1526.3575801074553,5.3465437883326725E-18,-1.1446572856232962E-14,0.0922288008828103,200.94442474632922,29365.839901227504,5.311450111110685E-7,-6.454440225103286E-22,32.128258745814954,-135.813406817648,-50.974335197328536,45.50333519591219,10.00000000111787,19.999999999971262,29.999999999956895,-12056.665484779753,997.5690415083546,9.116464282384483E-4,648.0139045819757,414.09396557895593,-0.2806794219605247,-0.16229509293833275,-0.1596351243161161,0.0,0.0,0.0,0.20143412390581045,18.405535297514824,119.0548876987737
6.400000000000472,2.093159783810654E7,9768.883707744031,2.6667228347912455E-18,2.0931600117700394E7,0.2034100692739509,2.6667228347912455E-18,-204.82177737190847,1526.3560923951877,5.443246562393631E-18,1.3114509478384662E-15,0.0951656018448763,204.10939695229268,29345.587200395763,5.567915694130646E-7,-8.176707319208055E-22,32.12832091825506,-130.13625580371266,-51.60746298844347,42.072300903939116,10.00000000111787,19.999999999971262,29.999999999956895,-12246.563817137561,997.6557890570396,9.123214128001408E-4,648.6064847314229,414.16598705676483,-0.2923762471686946,-0.1552667950105054,-0.17217162331744598,0.0,0.0,0.0,0.20458901895475476,19.003953805101226,120.93006036289684
6.500000000000505,2.0931577197172657E7,9921.519241621634,3.2088309311739977E-18,2.0931579548561126E7,0.21307515379426167,3.2088309311739977E-18,-207.99670239519952,1526.3545812515417,5.3951685212788816E-18,9.516692989208764E-15,0.09814773347128733,207.27319056491675,29325.018061127514,5.832482447485118E-7,-9.838919522765307E-22,32.12838406229354,-124.3415013564092,-52.02293584511829,38.516475330140004,10.00000000111787,19.999999999971262,29.999999999956895,-12436.391433895005,997.7438844456273,9.130073362724067E-4,649.2087738763636,414.23913397752705,-0.3034559986223507,-0.14755941039509127,-0.18556333471343292,0.0,0.0,0.0,0.20774190354221986,19.612395116664803,122.80453475700403
6.600000000000539,2.0931556238805998E7,10074.154623213304,3.718310724077241E-18,2.0931558663102217E7,0.22304070326120495,3.718310724077241E-18,-211.17042923629617,1526.3530466764216,4.992492196268442E-18,1.1428358259735205E-14,0.10117515196008614,210.43578597391686,29304.13260221854,6.105274414668378E-7,-1.1401086800620663E-21,32.12844817757427,-118.47650352880552,-52.21291918569461,34.88630513730559,10.00000000111787,19.999999999971262,29.999999999956895,-12626.147158435011,997.8333268164142,9.137042131137962E-4,649.8207897433575,414.31340592543603,-0.3138272049545407,-0.13921135134968812,-0.19981568651105605,0.0,0.0,0.0,0.2108927459531552,20.230887027088833,124.67829926274464
6.700000000000572,2.0931534963127393E7,10226.789850175874,4.2223075365165405E-18,2.0931537461444516E7,0.23331124351537724,4.2223075365165405E-18,-214.34293823021133,1526.3514886697335,4.778391586109046E-18,-3.707104068162437E-15,0.10424781276716638,213.59716351399751,29282.930944517255,6.386415518211812E-7,-1.294644216015226E-21,32.128513263734995,-112.5937300993267,-52.17371735262335,31.23732854813426,10.00000000111787,19.999999999971262,29.999999999956895,-12815.82981083985,997.9241152978774,9.144120580008994E-4,650.44255033502,414.38880247748466,-0.32339886594830286,-0.13026761506084658,-0.21492956772705119,0.0,0.0,0.0,0.21404151445900718,20.85945773937307,126.55134222917462
6.800000000000606,2.0931513370259598E7,10379.424920166204,4.701767202403639E-18,2.0931515943710763E7,0.2438912960401387,4.701767202403639E-18,-217.5142096561449,1526.3499072313843,5.026563084620228E-18,1.0179357357031904E-14,0.10736567061052363,216.7573034640517,29261.413210764527,6.676029562624388E-7,-1.4416561704702145E-21,32.128579320407766,-106.74698027266126,-51.90609344724212,27.626411231399373,10.00000000111787,19.999999999971262,29.999999999956895,-13005.4382078431,998.0162490053779,9.15130885833707E-4,651.0740739350298,414.4653232040345,-0.3320810706789538,-0.1207797583520199,-0.23090113918107627,0.0,0.0,0.0,0.21718817731739845,21.49813586357634,128.42365197228224
6.900000000000639,2.0931491460327365E7,10532.059830841108,5.215593873784264E-18,2.0931494110025726E7,0.25478537748197816,5.215593873784264E-18,-220.68422373668548,1526.3483023612837,5.301696271795909E-18,-3.354955202539145E-15,0.11052867946302238,219.9161860463609,29239.579525731504,6.974240221281045E-7,-1.5992057384218896E-21,32.12864634721851,-100.98737463986737,-51.415202253263836,24.107748436338007,10.00000000111787,19.999999999971262,29.999999999956895,-13194.971162781654,998.1097270405883,9.158607117310306E-4,651.7153791044104,414.5429676683258,-0.33978562967886544,-0.11080582870152347,-0.24772166873653353,0.0,0.0,0.0,0.22033270277207606,22.146950415513377,130.29521677451459
7.000000000000672,2.093146923345743E7,10684.694579857405,5.741745026396458E-18,2.0931471960516136E7,0.2659979999425124,5.741745026396458E-18,-223.8529606370143,1526.346674059342,5.3316002116885145E-18,-1.9598905831585967E-14,0.11373679255093025,223.0737914258014,29217.430016141385,7.281171044432972E-7,-1.7605342396236525E-21,32.128714343787344,-95.35981140381205,-50.710149853555556,20.729333417994447,10.00000000111787,19.999999999971262,29.999999999956895,-13384.427485548083,998.2045484918464,9.166015510331346E-4,652.3664846841498,414.6217354267551,-0.34642671746586545,-0.10041025077433968,-0.2653773927469172,0.0,0.0,0.0,0.22347505905266668,22.80593081558534,132.16602488430644
7.100000000000706,2.0931446689778477E7,10837.329164871911,6.27262913331722E-18,2.093144949531068E7,0.277533670818336,6.27262913331722E-18,-227.0204004641113,1526.345022325473,5.1093945950391734E-18,3.760880495917718E-15,0.11698996235571854,226.2300997090485,29194.964810680598,7.596945454841148E-7,-1.9233139595884398E-21,32.128783309728426,-89.90044351327094,-49.8032661208397,17.5304468324975,10.00000000111787,19.999999999971262,29.999999999956895,-13573.80598254291,998.3007124341249,9.173534193013817E-4,653.0274097952015,414.7016260288356,-0.3519215216151464,-0.08966366792822227,-0.2838494053362949,0.0,0.0,0.0,0.22661521437451215,23.475106887516763,134.03606451560952
7.200000000000739,2.093142382942123E7,10989.963583541425,6.7740456063335085E-18,2.0931426714540087E7,0.28939689266575463,6.7740456063335085E-18,-230.18652326596396,1526.3433471595913,4.87259932133282E-18,-6.387251838546604E-15,0.12028814060144771,229.38509094378668,29172.184040091932,7.921686744090896E-7,-2.0770583116971103E-21,32.12885324464974,-84.63543613944398,-48.70922000945169,14.540426568536876,10.00000000111787,19.999999999971262,29.999999999956895,-13763.105456627201,998.3982179286515,9.181163323151292E-4,653.6981738360734,414.78263901686563,-0.35619089442659574,-0.07864273842560501,-0.303113577008763,0.0,0.0,0.0,0.2297531369385895,24.154508856990905,135.9053238474241
7.3000000000007725,2.0931400652518388E7,11142.597833522754,7.244620909804886E-18,2.0931403618337058E7,0.3015921631814651,7.244620909804886E-18,-233.35130903077865,1526.3416485616142,4.837424072877884E-18,-6.189493362285248E-15,0.12363127825997454,232.5387451179201,29149.087837062776,8.255518072080258E-7,-2.2213461423607785E-21,32.12892414815345,-79.5809471655146,-47.44411270962611,11.778660713659702,10.00000000111787,19.999999999971262,29.999999999956895,-13952.324707075206,998.4970640234068,9.18890306075487E-4,654.3787964864504,414.86477392632577,-0.35916000313320384,-0.0674298863597876,-0.3231405039375321,0.0,0.0,0.0,0.23288879493123402,24.844167350428528,137.77379102333146
7.400000000000806,2.0931377159204658E7,11295.231912472686,7.731541451492644E-18,2.0931380206836298E7,0.31412397508969203,7.731541451492644E-18,-236.51473768619445,1526.3399265314633,4.8219976064500915E-18,5.061923102900323E-15,0.1270193255475347,235.6910421587861,29125.676336303353,8.59856246394766E-7,-2.37064575104706E-21,32.128996019835604,-74.74404651179424,-46.02465698065069,9.255519498759547,10.00000000111787,19.999999999971262,29.999999999956895,-14141.462529527165,998.5972497528073,9.196753568027084E-4,655.0692977052264,414.9480302856006,-0.3607589745001319,-0.056113007583235584,-0.34389548911864964,0.0,0.0,0.0,0.23602215652404787,25.54411339357714,139.64145415102792
7.500000000000839,2.093135334961678E7,11447.865818047987,8.202140296170699E-18,2.0931356480174553E7,0.32699681605686415,8.202140296170699E-18,-239.6767890984996,1526.3381810690605,4.457091483895482E-18,-7.844419558367122E-15,0.13045223191489952,238.84196193237398,29101.949674557894,8.950942807753367E-7,-2.514940799917076E-21,32.129068859286185,-70.12419866858414,-44.46750858860179,6.973850604188483,10.00000000111787,19.999999999971262,29.999999999956895,-14330.517715942438,998.6987741376784,9.204715009358265E-4,655.7696977305118,415.03240761593855,-0.3609235296083056,-0.04478513121381329,-0.3653385564117115,0.0,0.0,0.0,0.23915318987374834,26.254378410123753,141.50830130186134
7.600000000000873,2.0931329223893434E7,11600.499547905429,8.602153179512021E-18,2.0931332438490506E7,0.34021516868587653,8.602153179512021E-18,-242.8374430718521,1526.3364121743314,3.550709035389679E-18,3.5388358909926865E-15,0.1339299460567761,241.9914842425416,29077.907990511507,9.312781854339441E-7,-2.6375927766550542E-21,32.12914266608927,-65.7149574671405,-42.78877385713563,4.930686856453311,10.00000000111787,19.999999999971262,29.999999999956895,-14519.489054552496,998.8016361856713,9.21278755135788E-4,656.4800170827239,415.11790543178313,-0.3595956045738549,-0.03354403758155616,-0.3874244983096766,0.0,0.0,0.0,0.24228186312190955,26.974994220378232,143.3743205103683
7.700000000000906,2.0931304782175418E7,11753.133099701774,8.868207923106111E-18,2.0931308081924956E7,0.35378351033519895,8.868207923106111E-18,-245.99667934750008,1526.334619847206,1.993230942951617E-18,3.670674875166924E-15,0.13745241589577076,245.13958883024054,29053.551424961537,9.684202212394972E-7,-2.7191704997267552E-21,32.129217439822625,-61.5056117287495,-41.00368583851345,3.1189049375621942,10.00000000111787,19.999999999971262,29.999999999956895,-14708.375329814433,998.9058348905505,9.220971362797119E-4,657.2002765598718,415.204523240163,-0.35672395293452536,-0.022491833766565814,-0.41010295808669367,0.0,0.0,0.0,0.24540814439497663,27.705993039674087,145.23949977381338
7.8000000000009395,2.0931280024605513E7,11905.766471093786,8.980454311165015E-18,2.093128341062069E7,0.3677063131341045,8.980454311165015E-18,-249.15447760300822,1526.3328040876158,3.9552835652046346E-19,1.0227929614359255E-14,0.14101958858564823,248.28625537273848,29028.880120694637,1.0065326348889808E-6,-2.7535874946548297E-21,32.12929318005804,-57.48262537456367,-39.12642339543366,1.528678650573854,10.00000000111787,19.999999999971262,29.999999999956895,-14897.175322364308,999.0113692327394,9.229266614650164E-4,657.9304972415285,415.2922605411291,-0.3522647254567515,-0.011734488167645461,-0.4333185467900919,0.0,0.0,0.0,0.24853200180398205,28.447407477016377,147.10382705172978
7.900000000000973,2.0931254951328523E7,12058.399659738203,8.964748153824439E-18,2.0931258424722508E7,0.38198804385030805,8.964748153824439E-18,-252.31081745148515,1526.3309648954971,-6.579335454470418E-19,1.1449174941446927E-15,0.1446314105110445,251.43146348284893,29003.89422251284,1.045627658546814E-6,-2.7487716716526103E-21,32.129369886361204,-53.63080465476747,-37.170040650964445,0.1486593339661409,10.00000000111787,19.999999999971262,29.999999999956895,-15085.887808970936,999.1182381792294,9.237673480085559E-4,658.6707004884162,415.3811168276617,-0.3461820231402015,-0.0013813258239959599,-0.45701099532783424,0.0,0.0,0.0,0.2516534034444146,29.19927053355978,148.9672902654622
8.000000000001005,2.0931229562491313E7,12211.032663291784,8.825142751570563E-18,2.0931233124377284E7,0.3966331638555678,8.825142751570563E-18,-255.4656784408145,1526.3291022707892,-2.1234752709859565E-18,3.028827189055505E-14,0.1482878272790922,254.5751927081605,28978.593877289444,1.0857175097523528E-6,-2.705965853983163E-21,32.12944755829161,-49.93418658886338,-35.14647503736911,-1.0331225831367394,10.00000000111787,19.999999999971262,29.999999999956895,-15274.51156248963,999.2264406833614,9.246192134447373E-4,659.4209079410967,415.47109158547124,-0.3384484192662502,0.00845551350642674,-0.48111534170219317,0.0,0.0,0.0,0.25477231739612405,29.96161560101792,150.82987729771068
8.10000000000095,2.0931203858242817E7,12363.66547941127,8.50964534867842E-18,2.093120750973395E7,0.4116461289866624,8.50964534867842E-18,-258.61904005288864,1526.3272162134353,-4.174418937185248E-18,1.4058199049316045E-14,0.15198878371570435,257.7174225302738,28952.9792339541,1.1268143910409993E-6,-2.609228019448467E-21,32.12952619540253,-46.376677536319505,-33.06660690995907,-2.028606107639742,10.00000000111787,19.999999999971262,29.999999999956895,-15463.045351816427,999.3359756849106,9.25482275526022E-4,660.1811415207665,415.56218429305136,-0.3290454464248372,0.017661652234838034,-0.505562153228917,0.0,0.0,0.0,0.25788871172315597,30.734476460111356,152.69157599207762
8.200000000000895,2.093117783873398E7,12516.298105753383,7.920544616797101E-18,2.0931181580943454E7,0.4270313895274862,7.920544616797101E-18,-261.7708817028463,1526.325306723382,-7.407775354873922E-18,-2.2273849431542203E-15,0.15573422386902053,260.8581323640345,28927.050443459302,1.1689304898968435E-6,-2.4285979140891345E-21,32.12960579724118,-42.94248565866951,-30.94034974579421,-2.849254724438973,10.00000000111787,19.999999999971262,29.999999999956895,-15651.487941842068,999.4468421102513,9.263565522240531E-4,660.9514234306048,415.65439442179775,-0.3179640445664295,0.026121084253063635,-0.5302777833635248,0.0,0.0,0.0,0.261002554473563,31.517887279005805,154.55237415261465
8.30000000000084,2.0931151504117846E7,12668.930539974863,7.061727011210754E-18,2.0931155338158846E7,0.4427933900927288,7.061727011210754E-18,-264.9211827383128,1526.3233738005813,-9.300277375113691E-18,-6.085409953726639E-15,0.1595240909990061,263.99730155677884,28900.807658851147,1.2120779784358935E-6,-2.165267203081354E-21,32.12968636334843,-39.61639327980032,-28.776755769042396,-3.5057722061395884,10.00000000111787,19.999999999971262,29.999999999956895,-15839.83809340673,999.5590388720748,9.272420617272665E-4,661.7317761540305,415.74772143575603,-0.3052049662653267,0.03371681386930249,-0.5551846625370918,0.0,0.0,0.0,0.2641138136793383,32.311882611601554,156.41225954337415
8.400000000000784,2.0931124854549497E7,12821.562779732414,6.087943433612809E-18,2.093112878153521E7,0.45893656955826767,6.087943433612809E-18,-268.0699224386428,1526.3214174449881,-9.819847265502018E-18,7.639722188201858E-15,0.16335832757967622,267.1349093875712,28874.25103521347,1.2562690132171762E-6,-1.8666856181341124E-21,32.12976789325908,-36.38391074390705,-26.584126724536688,-4.00793792954563,10.00000000111787,19.999999999971262,29.999999999956895,-16028.094563254273,999.672564869651,9.281388224427661E-4,662.5222224567187,415.84216479182055,-0.2907791355502502,0.04033152132431912,-0.5802016221919813,0.0,0.0,0.0,0.26722245735620503,33.11649739592828,158.27121988795906
8.500000000000728,2.0931097890186105E7,12974.19482268277,5.156048816436979E-18,2.093110191122972E7,0.4754653610106203,5.156048816436979E-18,-271.21708001416806,1526.319437656563,-8.941010787119224E-18,5.68295410730002E-15,0.1672368752923757,270.27093506645633,28847.380729727447,1.3015157351059922E-6,-1.5809480290010933E-21,32.12985038650156,-33.23134629486128,-24.370123271331597,-4.364527610056702,10.00000000111787,19.999999999971262,29.999999999956895,-16216.25610398738,999.7874189885947,9.290468529943062E-4,663.3227853851902,415.93772393952185,-0.27470795684320715,0.04584825161197834,-0.6052442509811252,0.0,0.0,0.0,0.2703284535035445,33.931766952374694,160.12924286907838
