time,eiPosition_ft_X,eiPosition_ft_Y,eiPosition_ft_Z,eiVelocity_ft_s_X,eiVelocity_ft_s_Y,eiVelocity_ft_s_Z,feVelocity_ft_s_X,feVelocity_ft_s_Y,feVelocity_ft_s_Z,altitudeMsl_ft,longitude_deg,latitude_deg,localGravity_ft_s2,eulerAngle_deg_Yaw,eulerAngle_deg_Pitch,eulerAngle_deg_Roll,bodyAngularRateWrtEi_deg_s_Roll,bodyAngularRateWrtEi_deg_s_Pitch,bodyAngularRateWrtEi_deg_s_Yaw,speedOfSound_ft_s,airDensity_slug_ft3,ambientPressure_lbf_ft2,ambientTemperature_dgR,aero_bodyForce_lbf_X,aero_bodyForce_lbf_Y,aero_bodyForce_lbf_Z,aero_bodyMoment_ftlbf_L,aero_bodyMoment_ftlbf_M,aero_bodyMoment_ftlbf_N,mach,dynamicPressure_lbf_ft2
0.0,2.09256463255E7,0.0,0.0,1000.0,1525.92219455,1000.0,1000.0,0.0,-1000.0,0.0,0.0,0.0,32.1988102141,0.0,0.0,0.0,0.00417807413224,0.0,0.0,1116.45000305,0.00237689282456,2116.23841715,518.67,-33.0008018002,0.0,33.0008018002,0.0,0.0,0.0,1.26670568186,2376.89282456
0.1,2.09257460002E7,152.592219462,99.8356053734,993.503579108,1525.92219475,996.718175766,996.713403803,-0.0145129853233,-993.519493555,99.6755838559,-1.99008809432E-9,2.75197396066E-4,32.198502972424905,0.0,2.75197396066E-4,1.99011250569E-9,0.00417807413224,0.0,0.0,1116.06737208,0.00236996796457,2108.62686477,518.314542619,-32.6365474874,4.75214431171E-4,32.5316530566,0.0,0.0,0.0,1.26095343821,2346.88281004
0.2,2.09258450277E7,305.184438952,199.344838694,987.053701771,1525.92219501,993.472458199,993.462991649,-0.0288847385809,-987.085483659,198.705448576,-7.9345454651E-9,5.4949240432E-4,32.19819772539468,0.0,5.4949240432E-4,7.93455916415E-9,0.00417807413224,0.0,0.0,1115.68709354,0.00236310332592,2101.0866615,517.961391329,-32.2783382205,9.38481752464E-4,32.0705131677,0.0,0.0,0.0,1.25525026357,2317.38491963
0.3,2.09259434125E7,457.776658449,298.531280629,980.649575827,1525.92219482,990.262249537,990.248164642,-0.0431171140153,-980.697178991,297.094204081,-1.77948891178E-8,8.22895133708E-4,32.197894458902084,0.0,8.22895133708E-4,1.77948877359E-8,0.00417807413224,0.0,0.0,1115.30915206,0.002356298267,2093.61697946,517.610529626,-31.9260407811,0.00139010495966,31.6172045174,0.0,0.0,0.0,1.24959539635,2288.38784979
0.4,2.09260411591E7,610.368877883,397.39845273,974.290426628,1525.92219366,987.086965154,987.068337051,-0.0572119245533,-974.35380572,394.84638207,-3.15331476486E-8,0.00109541524362,32.19759315873996,0.0,0.00109541524362,3.15331488971E-8,0.00417807413224,0.0,0.0,1114.93353253,0.00234955215729,2086.21700546,517.261941284,-31.579525654,0.00183037810941,31.1715544177,0.0,0.0,0.0,1.24398809256,2259.88061108
0.5,2.09261382721E7,762.961097133,495.949818727,967.97549656,1525.92219106,983.946033194,983.922935944,-0.071170942937,-968.054607029,491.966437683,-4.91118612445E-8,0.00136706234121,32.197293811201305,0.0,0.00136706234121,4.91118850635E-8,0.00417807413224,0.0,0.0,1114.5602201,0.0023428643771,2078.88594071,516.915610353,-31.2386669046,0.00225958662908,30.7333949446,0.0,0.0,0.0,1.23842762527,2231.85251764
0.6,2.09262347557E7,915.55331603,594.188785788,961.704044567,1525.92218653,980.83889422,980.811400829,-0.084995902818,-961.798842644,588.45875126,-7.04941385266E-8,0.00163784582141,32.19699640257922,0.0,0.00163784582141,7.04941195189E-8,0.00417807413224,0.0,0.0,1114.18920018,0.00233623431736,2071.62300043,516.57152115,-30.9033420595,0.00267800761413,30.3025627796,0.0,0.0,0.0,1.23291328418,2204.29317717
0.7,2.09263306143E7,1068.14553436,692.118705745,955.475345707,1525.92217961,977.765000873,977.733183318,-0.0986884998126,-955.585788383,684.327629866,-9.56433723331E-8,0.00190777500647,32.19670091966693,0.0,0.00190777500647,9.56433458381E-8,0.00417807413224,0.0,0.0,1113.82045842,0.00232966137936,2064.42741361,516.229658254,-30.5734319931,0.00308591011378,29.8788990584,0.0,0.0,0.0,1.22744437515,2177.19248122
0.8,2.09264258522E7,1220.73775186,789.742876284,949.288690705,1525.92216984,974.723817545,974.687746797,-0.11225039253,-949.414735716,779.577308975,-1.24523523937E-7,0.0021768589433,32.19640734925779,0.0,0.0021768589433,1.24523517596E-7,0.00417807413224,0.0,0.0,1113.45398071,0.00232314497452,2057.2984226,515.8900065,-30.2488208174,0.00348355540551,29.4622492243,0.0,0.0,0.0,1.22202021979,2150.54059591
0.9,2.09265204734E7,1373.32996822,887.064542103,943.143385535,1525.92215679,971.714820057,971.674566102,-0.125683203559,-943.284991348,874.211953938,-1.570990662E-7,0.00244510671156,32.196115678345265,0.0,0.00244510671156,1.57099038359E-7,0.00417807413224,0.0,0.0,1113.0897532,0.00231668452419,2050.23528293,515.552550974,-29.9293957771,0.00387119725855,29.0524628881,0.0,0.0,0.0,1.21664015506,2124.32795297
1.0,2.09266144822E7,1525.92218309,984.086896043,937.038751009,1525.92214002,968.737495354,968.693127217,-0.13898852043,-937.195876799,968.235661544,-1.93334756204E-7,0.0027125271055,32.19582589442292,0.0,0.0027125271055,1.93334751922E-7,0.00417807413224,0.0,0.0,1112.72776226,0.00231027945938,2043.23726289,515.217277009,-29.6150471472,0.00424908218729,28.6493936925,0.0,0.0,0.0,1.21130353282,2098.54524116
1.1,2.09267078825E7,1678.51439608,1080.81308018,930.974122381,1525.92211911,965.791341205,965.742926972,-0.152167896538,-931.146728017,1061.65246147,-2.33195919463E-7,0.0029791287544,32.19553798478444,0.0,0.0029791287544,2.33195932845E-7,0.00417807413224,0.0,0.0,1112.36799448,0.00230392922061,2036.30364335,514.884170176,-29.3056681365,0.00461744969477,28.2528991827,0.0,0.0,0.0,1.20600971945,2073.18339793
1.2,2.09268006783E7,1831.10660676,1177.2461869,924.948848958,1525.92209365,962.875865914,962.823472752,-0.165222852047,-925.136894993,1154.46631766,-2.76648279396E-7,0.0032449203245,32.19525193732361,0.0,0.0032449203245,2.76648277187E-7,0.00417807413224,0.0,0.0,1112.01043669,0.00229763325767,2029.43371743,514.553216283,-29.0011547928,0.00497653250674,27.8628406807,0.0,0.0,0.0,1.20075809551,2048.23360154
1.3,2.09268928736E7,1983.69881465,1273.38925993,918.962293735,1525.92206324,959.990588043,959.934282222,-0.178154874755,-919.165741383,1246.68112977,-3.23657900481E-7,0.00350991009704,32.19496773983435,0.0,0.00350991009704,3.23657893536E-7,0.00417807413224,0.0,0.0,1111.65507592,0.00229139102942,2022.62679024,514.224401367,-28.7014059126,0.00532655679681,27.4790831649,0.0,0.0,0.0,1.19554805533,2023.68726329
1.4,2.09269844721E7,2136.29101923,1369.24529536,913.013833034,1525.92202748,957.135036139,957.074883047,-0.190965420935,-913.232644159,1338.30073447,-3.74191301944E-7,0.00377410654536,32.19468538051063,0.0,0.00377410654536,3.74191294226E-7,0.00417807413224,0.0,0.0,1111.30189943,0.00228520200362,2015.88217861,513.897711691,-28.4063229545,0.00566774240291,27.1014951545,0.0,0.0,0.0,1.19037900668,1999.53602022
1.5,2.09270754776E7,2288.88321995,1464.81724262,907.102856149,1525.921986,954.308748474,954.244812641,-0.203655916157,-907.336993252,1429.3289068,-4.28215400916E-7,0.00403751765395,32.19440484754656,0.0,0.00403751765395,4.2821538682E-7,0.00417807413224,0.0,0.0,1110.95089469,0.0022790656567,2009.19921087,513.573133738,-28.1158099545,0.00600030303556,26.7299485971,0.0,0.0,0.0,1.18525037043,1975.77172792
1.6,2.09271658939E7,2441.47541623,1560.10800545,901.228765019,1525.92193842,951.51127279,951.443617906,-0.216227756071,-901.47819122,1519.76936142,-4.85697455588E-7,0.00430015158607,32.194126129436334,0.0,0.00430015158607,4.85697465787E-7,0.00417807413224,0.0,0.0,1110.60204936,0.00227298147361,2002.57722656,513.250654209,-27.829773446,0.00632444647831,26.3643187618,0.0,0.0,0.0,1.18016158017,1952.38645374
1.7,2.09272557245E7,2594.06760742,1655.1204428,895.390973891,1525.92188437,948.742166054,948.670854983,-0.228682307177,-895.655652922,1609.62575382,-5.46605178897E-7,0.00456201630545,32.193849214874255,0.0,0.00456201630545,5.46605204405E-7,0.00417807413224,0.0,0.0,1110.25535131,0.00226694894765,1996.01557621,512.930260014,-27.5481223815,0.00664037478052,26.0044841351,0.0,0.0,0.0,1.17511208198,1929.37247016
1.8,2.09273449732E7,2746.65979287,1749.85736981,889.58890901,1525.92182351,946.000994218,945.926089024,-0.241020907568,-889.868805194,1698.90168167,-6.10906624843E-7,0.00482311942048,32.1935740926547,0.0,0.00482311942048,6.10906646872E-7,0.00417807413224,0.0,0.0,1109.91078862,0.00226096758025,1989.51362112,512.611938272,-27.2707680578,0.00694828444317,25.6503263209,0.0,0.0,0.0,1.17010133401,1906.72224841
1.9,2.09274336435E7,2899.25197189,1844.32155863,883.822008311,1525.92175549,943.287331991,943.208893948,-0.253244867646,-884.117086551,1787.60068582,-6.78570188484E-7,0.00508346866794,32.19330075197214,0.0,0.00508346866794,6.78570200609E-7,0.00417807413224,0.0,0.0,1109.56834953,0.00225503688083,1983.07073309,512.295676304,-26.9976240434,0.00724836659738,25.3017299448,0.0,0.0,0.0,1.16512880627,1884.42845239
2.0,2.09275217388E7,3051.84414372,1938.5157393,878.089721117,1525.92167996,940.600762615,940.518852227,-0.265355470821,-878.399946889,1875.7262516,-7.4956460594E-7,0.00534307163451,32.19302918182116,0.0,0.00534307163451,7.49564628754E-7,0.00417807413224,0.0,0.0,1109.2280225,0.00224915636664,1976.68629424,511.981461631,-26.7286061094,0.00754080717664,24.9585825605,0.0,0.0,0.0,1.16019398027,1862.4839327
2.1,2.09276092626E7,3204.43630762,2032.44260062,872.391507857,1525.9215966,937.940877644,937.85555466,-0.277353974188,-872.716847193,1963.28180986,-8.23859068078E-7,0.00560193576812,32.1927593715964,0.0,0.00560193576812,8.2385904287E-7,0.00417807413224,0.0,0.0,1108.88979616,0.00224332556259,1970.35969678,511.669281969,-26.4636321617,0.00782578708262,24.6207745608,0.0,0.0,0.0,1.15529634879,1840.881721
2.2,2.09276962182E7,3357.02846277,2126.10479095,866.726839781,1525.92150508,935.307276741,935.218600171,-0.289241609181,-867.067259259,2050.27073809,-9.01422879451E-7,0.00586006846729,32.19249131089262,0.0,0.00586006846729,9.01422895799E-7,0.00417807413224,0.0,0.0,1108.55365933,0.00223754400109,1964.0903428,511.359125224,-26.2026221767,0.00810348234476,24.2881990913,0.0,0.0,0.0,1.15043541556,1819.61502447
2.3,2.0927782609E7,3509.62060835,2219.50491901,861.095198695,1525.92140509,932.699567467,932.6075956,-0.30101958221,-861.450665424,2136.6963615,-9.82225969892E-7,0.00611747676097,32.192224989304634,0.0,0.00611747676097,9.82225974722E-7,0.00417807413224,0.0,0.0,1108.21960099,0.0022318112219,1957.87764404,511.050979489,-25.9454981384,0.0083740642742,23.9607519667,0.0,0.0,0.0,1.14561069501,1798.67722051
2.4,2.09278684383E7,3662.2127435,2312.64555467,855.496076691,1525.92129632,930.117365087,930.022155503,-0.312689075277,-855.866558303,2222.56195405,-1.06623838292E-6,0.00637416790149,32.19196039682735,0.0,0.00637416790149,1.06623839438E-6,0.00417807413224,0.0,0.0,1107.88761031,0.00222612677198,1951.72102174,510.744833042,-25.6921839784,0.00863769961201,23.6383315911,0.0,0.0,0.0,1.14082171203,1778.06185166
2.5,2.09279537093E7,3814.80486731,2405.52922968,849.928975896,1525.92117847,927.560292379,927.461901964,-0.324251246579,-850.314440535,2307.87073945,-1.1534306168E-6,0.00663014885126,32.191697523255755,0.0,0.00663014885126,1.15343059046E-6,0.00417807413224,0.0,0.0,1107.55767664,0.00222049020536,1945.61990641,510.44067434,-25.4426055174,0.00889455067226,23.3208388798,0.0,0.0,0.0,1.13606800168,1757.76262064
2.6,2.09280384252E7,3967.39697888,2498.15843846,844.393408225,1525.92105125,925.027979444,924.926464408,-0.335707231081,-844.793824535,2392.62589219,-1.24377334032E-6,0.00688542647357,32.19143635898493,0.0,0.00688542647357,1.24377331315E-6,0.00417807413224,0.0,0.0,1107.22978946,0.00221490108297,1939.57373765,510.138492015,-25.1966904095,0.0091447754796,23.0081771852,0.0,0.0,0.0,1.13134910898,1737.77338558
2.7,2.0928122589E7,4119.98907724,2590.53563879,838.888895139,1525.92091436,922.520063529,922.415479415,-0.347058141087,-839.304232257,2476.83053847,-1.33723762019E-6,0.00714000772897,32.19117689411001,0.0,0.00714000772897,1.33723762083E-6,0.00417807413224,0.0,0.0,1106.90393845,0.00220935897253,1933.58196396,509.838274874,-24.9543680876,0.00938852790231,22.7002522238,0.0,0.0,0.0,1.12666458865,1718.08815545
2.8,2.0928206204E7,4272.58116142,2682.66325253,833.414967415,1525.92076753,920.036188852,919.928590553,-0.358305066784,-833.845194954,2560.48775713,-1.43379486417E-6,0.00739389918685,32.19091911922622,0.0,0.00739389918685,1.43379487396E-6,0.00417807413224,0.0,0.0,1106.58011344,0.0022038634484,1927.64404257,509.540011892,-24.7155697112,0.0096259577803,22.3969720074,0.0,0.0,0.0,1.12201400491,1698.70108558
2.9,2.0928289273E7,4425.17323041,2774.5436663,827.971164915,1525.92061048,917.576006427,917.465448199,-0.369449076773,-828.41625296,2643.60058062,-1.53341670739E-6,0.00764710744412,32.19066302482886,0.0,0.00764710744412,1.53341672905E-6,0.00417807413224,0.0,0.0,1106.25830442,0.00219841409146,1921.75943927,509.243692211,-24.480228116,0.00985721104877,22.0982467749,0.0,0.0,0.0,1.11739693123,1679.60647344
3.0,2.09283717992E7,4577.76528317,2866.17923214,822.557036372,1525.92044295,915.139173907,915.025709379,-0.380491218584,-823.016955467,2726.17199586,-1.63607512604E-6,0.00789963906521,32.19040860171329,0.0,0.00789963906521,1.63607513284E-6,0.00417807413224,0.0,0.0,1105.93850151,0.00219301048896,1915.92762822,508.949305135,-24.2482777648,0.0100824298575,21.8039889277,0.0,0.0,0.0,1.11281295012,1660.79875443
3.1,2.09284537854E7,4730.35731864,2957.57226821,817.172139172,1525.92026466,912.725355414,912.609037605,-0.391432519185,-817.646860315,2808.20494513,-1.7417423237E-6,0.00815150046011,32.190155840674954,0.0,0.00815150046011,1.74174231659E-6,0.00417807413224,0.0,0.0,1105.62069501,0.00218765223443,1910.14809179,508.656840129,-24.0196547008,0.0103017526857,21.514112967,0.0,0.0,0.0,1.10826165291,1642.2724979
3.2,2.09285352346E7,4882.94933573,3048.72505937,811.81603915,1525.92007538,910.334221391,910.21510272,-0.402273985456,-812.305533777,2889.70232687,-1.85039078815E-6,0.00840269783843,32.18990473280937,0.0,0.00840269783843,1.85039079049E-6,0.00417807413224,0.0,0.0,1105.30487536,0.00218233892752,1904.42032041,508.366286813,-23.7942965015,0.0105153144534,21.2285354328,0.0,0.0,0.0,1.10374263959,1624.02240333
3.3,2.09286161496E7,5035.54133334,3139.63985785,806.48831039,1525.91987484,907.965448449,907.843580745,-0.413016604671,-806.992550374,2970.66699663,-1.96199334823E-6,0.00865323765013,32.1896552693121,0.0,0.00865323765013,1.9619933382E-6,0.00417807413224,0.0,0.0,1104.99103315,0.00217707017393,1898.7438124,508.077634962,-23.5721422352,0.0107232466283,20.9471748453,0.0,0.0,0.0,1.09925551855,1606.04329655
3.4,2.09286965332E7,5188.13331032,3230.31888384,801.188535026,1525.9196628,905.618719216,905.494153736,-0.423661344956,-801.70749266,3051.10176778,-2.07652300332E-6,0.00890312579514,32.18940744127881,0.0,0.00890312579514,2.0765230116E-6,0.00417807413224,0.0,0.0,1104.6791591,0.00217184558525,1893.11807384,507.790874503,-23.3531324181,0.0109256773295,20.6699516484,0.0,0.0,0.0,1.09479990644,1588.33012613
3.5,2.09287763882E7,5340.72526551,3320.76432609,795.916303056,1525.91943902,903.293722199,903.166509631,-0.434209155732,-796.449951053,3131.00941236,-2.19395315071E-6,0.00915236855602,32.18916124030518,0.0,0.00915236855602,2.19395312555E-6,0.00417807413224,0.0,0.0,1104.36924408,0.00216666477887,1887.54261835,507.505995509,-23.1372089735,0.0111227314272,20.3967881549,0.0,0.0,0.0,1.09037542796,1570.87795993
3.6,2.09288557174E7,5493.31719772,3410.97834249,790.671212157,1525.91920328,900.990151645,900.860342125,-0.444660968152,-791.219523634,3210.39266179,-2.31425724451E-6,0.00940097181988,32.188916657787026,0.0,0.00940097181988,2.31425725281E-6,0.00417807413224,0.0,0.0,1104.0612791,0.00216152737785,1882.01696705,507.222988199,-22.9243151916,0.0113145306393,20.1276084932,0.0,0.0,0.0,1.08598171565,1553.68198169
3.7,2.09289345233E7,5645.90910575,3500.96306063,785.452867503,1525.91895533,898.707707402,898.575350524,-0.45501769552,-786.015815979,3289.25420773,-2.43740919359E-6,0.00964894147238,32.18867368542015,0.0,0.00964894147238,2.43740921909E-6,0.00417807413224,0.0,0.0,1103.75525529,0.00215643301084,1876.54064832,506.941842934,-22.7143956916,0.0115011936247,19.8623385564,0.0,0.0,0.0,1.0816184098,1536.73748781
3.8,2.09290128088E7,5798.50098837,3590.72057835,780.260881595,1525.91869496,896.446094794,896.311239621,-0.465280233704,-780.838440976,3367.59670273,-2.56338307736E-6,0.00989628318025,32.188432315000476,0.0,0.00989628318025,2.56338309829E-6,0.00417807413224,0.0,0.0,1103.45116392,0.00215138131198,1871.11319771,506.662550217,-22.507396384,0.0116828360731,19.6009059525,0.0,0.0,0.0,1.07728515817,1520.03988413
3.9,2.09290905764E7,5951.09284432,3680.25296432,775.09487409,1525.91842194,894.205024488,894.067719559,-0.47544946153,-775.687018669,3445.42276101,-2.69215320259E-6,0.0101430028615,32.18819253842396,0.0,0.0101430028615,2.69215320766E-6,0.00417807413224,0.0,0.0,1103.1489964,0.00214637192074,1865.73415781,506.385100684,-22.3032644352,0.0118595707923,19.3432399568,0.0,0.0,0.0,1.0729816159,1503.58468297
4.0,2.09291678286E7,6103.68467233,3769.56225852,769.954471637,1525.91813607,891.984212373,891.844505716,-0.485526241176,-770.561176084,3522.73495911,-2.82369410343E-6,0.0103891061366,32.18795434758661,0.0,0.0103891061366,2.82369410322E-6,0.00417807413224,0.0,0.0,1102.84874425,0.00214140448191,1860.40307807,506.109485111,-22.1019482321,0.012031507792,19.0892714651,0.0,0.0,0.0,1.06870744532,1487.36750009
4.1,2.09292445681E7,6256.2764711,3858.65047276,764.839307717,1525.91783714,889.783379441,889.641318583,-0.495511418545,-765.460547068,3599.53583667,-2.95798059824E-6,0.0106345985365,32.18771773478451,0.0,0.0106345985365,2.9579805753E-6,0.00417807413224,0.0,0.0,1102.55039914,0.00213647864541,1855.11951473,505.835694403,-21.9033973489,0.0121987543652,18.8389329493,0.0,0.0,0.0,1.06446231581,1471.38405189
4.2,2.09293207973E7,6408.86823932,3947.51959124,759.749022487,1525.91752493,887.602251666,887.457883643,-0.505405823627,-760.384772142,3675.82789699,-3.09498761908E-6,0.0108794855768,32.18748269211381,0.0,0.0108794855768,3.09498764406E-6,0.00417807413224,0.0,0.0,1102.25395282,0.00213159406627,1849.88303065,505.563719594,-21.7075625143,0.0123614151668,18.5921584133,0.0,0.0,0.0,1.0602459036,1455.63015264
4.3,2.09293965187E7,6561.45997564,4036.17157096,754.68326263,1525.91719926,885.440559896,885.293931258,-0.515210270868,-755.333498342,3751.6136078,-3.23469055274E-6,0.0111237726339,32.18724921197069,0.0,0.0111237726339,3.23469055517E-6,0.00417807413224,0.0,0.0,1101.95939721,0.00212675040449,1844.69319519,505.293551849,-21.5143955801,0.0125195922893,18.3488833518,0.0,0.0,0.0,1.0560578917,1440.10171179
4.4,2.09294717348E7,6714.05167871,4124.60834227,749.641681209,1525.91685992,883.298039734,883.149196562,-0.524925559503,-750.306379077,3826.89540181,-3.37706478604E-6,0.0113674650286,32.18701728685139,0.0,0.0113674650286,3.37706477567E-6,0.00417807413224,0.0,0.0,1101.66672432,0.00212194732498,1839.54958414,505.025182456,-21.3238494907,0.0126733853366,18.109044709,0.0,0.0,0.0,1.05189796967,1424.79473138
4.5,2.09295464479E7,6866.64334716,4212.8318093,744.623937519,1525.91650672,881.174431439,881.023419346,-0.534552473903,-745.303073986,3901.67567741,-3.52208598997E-6,0.011610568046,32.18678690925223,0.0,0.011610568046,3.52208598974E-6,0.00417807413224,0.0,0.0,1101.37592627,0.00211718449744,1834.45177951,504.758602826,-21.1358782531,0.0128228914947,17.8725808393,0.0,0.0,0.0,1.04776583354,1409.70530354
4.6,2.09296206604E7,7019.23497959,4300.84385044,739.629696954,1525.91613948,879.069479814,878.916343958,-0.544091783902,-740.323248798,3975.95679926,-3.66973011978E-6,0.0118530870273,32.18655807176953,0.0,0.0118530870273,3.66973009476E-6,0.00417807413224,0.0,0.0,1101.08699532,0.0021124615963,1829.3993695,504.49380449,-20.950436909,0.0129682056007,17.6394314694,0.0,0.0,0.0,1.04366118565,1394.82960808
4.7,2.09296943746E7,7171.82657458,4388.64631878,734.65863087,1525.91575802,876.982934108,876.827719202,-0.553544245111,-735.366575192,4049.74109889,-3.81997318755E-6,0.0120950268571,32.186330767399745,0.0,0.0120950268571,3.81997319734E-6,0.00417807413224,0.0,0.0,1100.79992381,0.00210777830063,1824.39194834,504.2307791,-20.7674815067,0.0131094202087,17.409537661,0.0,0.0,0.0,1.0395837345,1380.16391011
4.8,2.09297675928E7,7324.41813071,4476.24104257,729.710416448,1525.91536214,874.914547918,874.757298233,-0.562910599239,-730.432730676,4123.03087527,-3.97279160325E-6,0.0123363928067,32.18610498883928,0.0,0.0123363928067,3.97279160943E-6,0.00417807413224,0.0,0.0,1100.51470421,0.00210313429406,1819.42911622,503.969518423,-20.586969074,0.0132466256551,17.1828417751,0.0,0.0,0.0,1.03553319467,1365.70455778
4.9,2.09298403174E7,7477.00964653,4563.62982561,724.784736575,1525.91495169,872.864079085,872.704838464,-0.572191574386,-725.52139845,4195.82839543,-4.12816183371E-6,0.0125771897589,32.18588072908469,0.0,0.0125771897589,4.12816184456E-6,0.00417807413224,0.0,0.0,1100.23132911,0.00209852926467,1814.51047913,503.71001434,-20.4088575927,0.0133799101196,16.9592874376,0.0,0.0,0.0,1.03150928663,1351.44798005
5.0,2.09299125505E7,7629.60112056,4650.8144477,719.881279711,1525.91452648,870.831289611,870.670101472,-0.581387885346,-720.632267285,4268.13589499,-4.28606062997E-6,0.0128174226534,32.18565798113249,0.0,0.0128174226534,4.28606061418E-6,0.00417807413224,0.0,0.0,1099.94979117,0.00209396290496,1809.63564879,503.452258845,-20.2331059731,0.0135093596864,16.7388195054,0.0,0.0,0.0,1.02751173668,1337.3906846
5.1,2.09299842944E7,7782.19255133,4737.79666504,714.999739772,1525.91408636,868.815945555,868.652852904,-0.590500233893,-715.765031401,4339.95557871,-4.44646479991E-6,0.0130570963942,32.18543673827931,0.0,0.0130570963942,4.44646482405E-6,0.00417807413224,0.0,0.0,1099.67008318,0.00208943491174,1804.80424254,503.196244042,-20.0596740297,0.013635058402,16.5213840336,0.0,0.0,0.0,1.02354027677,1323.52925571
5.2,2.09300555512E7,7934.78393733,4824.57821065,710.13981601,1525.91363115,866.817816955,866.652862389,-0.599529309054,-710.919390348,4411.28962109,-4.60935154933E-6,0.0132962157617,32.18521699372178,0.0,0.0132962157617,4.60935157064E-6,0.00417807413224,0.0,0.0,1099.39219802,0.00208494498605,1800.01588326,502.941962145,-19.8885224575,0.013757088332,16.3069282444,0.0,0.0,0.0,1.01959464443,1309.86035227
5.3,2.09301263231E7,8087.37527705,4911.16079474,705.3012129,1525.91316069,864.836677735,864.66990345,-0.608475787391,-706.095048892,4482.14016677,-4.77469814086E-6,0.0135347854631,32.18499874085662,0.0,0.0135347854631,4.77469813776E-6,0.00417807413224,0.0,0.0,1099.11612869,0.00208049283312,1795.27019921,502.689405472,-19.7196128089,0.0138755296151,16.0954004965,0.0,0.0,0.0,1.01567458263,1296.38070584
5.4,2.09301966121E7,8239.96656895,4997.5461051,700.483640024,1525.91267484,862.872305619,862.703753421,-0.61734033326,-701.291716906,4552.50933118,-4.94248200766E-6,0.0137728102521,32.18478197308056,0.0,0.0137728102521,4.94248199309E-6,0.00417807413224,0.0,0.0,1098.84186827,0.00207607816226,1790.56682402,502.438566448,-19.5529074717,0.0139904605167,15.8867502549,0.0,0.0,0.0,1.01177983969,1283.08711876
5.5,2.09302664205E7,8392.5578115,5083.73580748,695.686811966,1525.91217343,860.924482054,860.754193364,-0.626123599075,-696.50910925,4622.39920096,-5.11268081027E-6,0.0140102945162,32.184566683790386,0.0,0.0140102945162,5.11268078495E-6,0.00417807413224,0.0,0.0,1098.56940994,0.00207170068683,1785.90539654,502.189437601,-19.3883696474,0.0141019574799,15.6809280626,0.0,0.0,0.0,1.00791016915,1269.97646232
5.6,2.09303357502E7,8545.14900312,5169.73154596,690.910448202,1525.91165631,858.992992126,858.821007984,-0.634826225554,-691.746945682,4691.8118345,-5.28527232291E-6,0.0142472430728,32.184352866882925,0.0,0.0142472430728,5.28527233901E-6,0.00417807413224,0.0,0.0,1098.29874696,0.00206736012411,1781.28556076,501.942011558,-19.2259633302,0.0142100951749,15.4778855124,0.0,0.0,0.0,1.00406532968,1257.04567497
5.7,2.09304046033E7,8697.74014223,5255.53494331,686.154272999,1525.91112333,857.077624482,856.903985557,-0.643448841971,-687.00495074,4760.74926239,-5.46023466086E-6,0.0144836603607,32.184140515755054,0.0,0.0144836603607,5.46023465514E-6,0.00417807413224,0.0,0.0,1098.02987273,0.00206305619532,1776.70696571,501.696281048,-19.0656532871,0.0143149465475,15.2775752202,0.0,0.0,0.0,1.00024508498,1244.29176062
5.8,2.09304729817E7,8850.33122725,5341.14760133,681.418015312,1525.91057436,855.178171255,855.002917851,-0.651992066389,-682.282853644,4829.2134879,-5.63754588256E-6,0.0147195507075,32.18392962440371,0.0,0.0147195507075,5.63754590429E-6,0.00417807413224,0.0,0.0,1097.76278069,0.00205878862547,1772.16926541,501.452238896,-18.9074050378,0.0144165828655,15.0799507983,0.0,0.0,0.0,0.996449203641,1231.71178699
5.9,2.09305408875E7,9002.92225656,5426.57110122,676.701408689,1525.91000925,853.294427987,853.117600053,-0.660456505899,-677.580388202,4897.2064875,-5.81718444437E-6,0.0149549184638,32.18372018662583,0.0,0.0149549184638,5.81718442542E-6,0.00417807413224,0.0,0.0,1097.49746439,0.00205455714333,1767.67211874,501.209878024,-18.7511848356,0.0145150737637,14.8849668302,0.0,0.0,0.0,0.992677459123,1219.30288392
6.0,2.09306083226E7,9155.51322856,5511.80700389,672.004191169,1525.90942787,851.426193562,851.24783069,-0.668842756847,-672.897292716,4964.7302112,-5.99912874577E-6,0.0151897682064,32.18351219641841,0.0,0.0151897682064,5.99912872263E-6,0.00417807413224,0.0,0.0,1097.23391748,0.0020503614814,1763.2151894,500.969191448,-18.5969596492,0.0146104872879,14.6925788459,0.0,0.0,0.0,0.988929629593,1207.06224187
6.1,2.0930675289E7,9308.10414159,5596.8568503,667.326105195,1525.90883007,849.573270129,849.393411568,-0.67715140505,-668.233309875,5031.78658313,-6.18335747049E-6,0.0154241038807,32.183305647678495,0.0,0.0154241038807,6.18335746206E-6,0.00417807413224,0.0,0.0,1096.97213369,0.00204620137577,1758.79814579,500.730172277,-18.4446971446,0.0147028899372,14.5027432975,0.0,0.0,0.0,0.98520549786,1194.98711037
6.2,2.09307417885E7,9460.69499402,5681.72216179,662.66689752,1525.90821573,847.735463036,847.554147695,-0.685383026021,-663.588186683,5098.37750183,-6.36984947278E-6,0.0156579298741,32.18310053470317,0.0,0.0156579298741,6.36984946923E-6,0.00417807413224,0.0,0.0,1096.71210682,0.00204207656616,1754.42066094,500.492813713,-18.2943656675,0.0147923467051,14.3154175365,0.0,0.0,0.0,0.981504851286,1183.07479653
6.3,2.0930807823E7,9613.28578418,5766.40444039,658.026319118,1525.90758471,845.912580765,845.729847218,-0.693538185172,-658.961674358,5164.50484082,-6.55858372056E-6,0.0158912503629,32.18289685158955,0.0,0.0158912503629,6.5585837261E-6,0.00417807413224,0.0,0.0,1096.45383078,0.00203798679576,1750.08241245,500.257109045,-18.1459342266,0.0148789211196,14.1305597908,0.0,0.0,0.0,0.977827481691,1171.32266361
6.4,2.09308733944E7,9765.8765104,5850.90516915,653.404125098,1525.9069369,844.104434863,843.920321358,-0.701617438027,-654.353528244,5230.17044891,-6.74953935231E-6,0.0161240693278,32.18269459253477,0.0,0.0161240693278,6.7495393684E-6,0.00417807413224,0.0,0.0,1096.19729955,0.00203393181126,1745.78308241,500.023051652,-17.9993724769,0.0149626752813,13.9481291428,0.0,0.0,0.0,0.974173185268,1159.72812963
6.5,2.09309385044E7,9918.467171,5935.22581239,648.800074619,1525.90627216,842.31083988,842.12538434,-0.709621330414,-649.763507739,5295.37615065,-6.94269567703E-6,0.0163563909685,32.18249375193605,0.0,0.0163563909685,6.9426956829E-6,0.00417807413224,0.0,0.0,1095.94250717,0.00202991136271,1741.52235728,499.790634999,-17.8546507039,0.0150436699015,13.7680855082,0.0,0.0,0.0,0.970541762506,1148.28866603
6.6,2.0931003155E7,10071.0577643,6019.36781607,644.213930808,1525.90559037,840.531613306,840.344853339,-0.717550398671,-645.1913762,5360.12374675,-7.13803211738E-6,0.016588219259,32.182294324290595,0.0,0.016588219259,7.13803210485E-6,0.00417807413224,0.0,0.0,1095.68944781,0.00202592520354,1737.29992789,499.559852638,-17.7117398083,0.0151219643383,13.5903896153,0.0,0.0,0.0,0.966933018102,1137.00179631
6.7,2.09310673478E7,10223.6482885,6103.33260801,639.645460682,1525.90489142,838.766575511,838.578548413,-0.725405169828,-640.636900867,5424.41501443,-7.33552820975E-6,0.0168195580365,32.182096303995685,0.0,0.0168195580365,7.3355282153E-6,0.00417807413224,0.0,0.0,1095.43811566,0.00202197309047,1733.11548932,499.330698204,-17.5706112905,0.0151976166316,13.4150029845,0.0,0.0,0.0,0.963346760881,1125.86509481
6.8,2.09311310846E7,10376.238742,6187.12159823,635.094435065,1525.90417519,837.015549685,836.826292448,-0.7331861618,-636.09985279,5488.25170783,-7.53516371788E-6,0.0170504112891,32.181899685548615,0.0,0.0170504112891,7.53516373868E-6,0.00417807413224,0.0,0.0,1095.18850504,0.00201805478346,1728.96874085,499.103165413,-17.4312372362,0.0152706835377,13.2418879096,0.0,0.0,0.0,0.959782803723,1114.87618542
6.9,2.09311943673E7,10528.829123,6270.73617921,630.560628515,1525.90344157,835.27836178,835.087911093,-0.740893883564,-631.580006745,5551.63555838,-7.73691851919E-6,0.0172807829178,32.18170446374672,0.0,0.0172807829178,7.73691854021E-6,0.00417807413224,0.0,0.0,1094.94061032,0.00201417004565,1724.85938585,498.877248066,-17.2935903023,0.0153412205626,13.0710074378,0.0,0.0,0.0,0.956240963485,1104.03274041
7.0,2.09312571973E7,10681.4194297,6354.17772614,626.043819251,1525.90269043,833.554840456,833.363232714,-0.748528835339,-627.077141163,5614.56827518,-7.9407726048E-6,0.0175106766332,32.18151063308736,0.0,0.0175106766332,7.94077262359E-6,0.00417807413224,0.0,0.0,1094.69442593,0.00201031864332,1720.78713178,498.652940041,-17.157643703,0.0154092819934,12.9023253521,0.0,0.0,0.0,0.952721060925,1093.33247925
7.1,2.09313195766E7,10834.0096605,6437.44759723,621.543789076,1525.90192169,831.844817023,831.652088329,-0.756091508761,-622.59103806,5677.05154536,-8.14670613636E-6,0.0177400962497,32.18131818856795,0.0,0.0177400962497,8.14670612856E-6,0.00417807413224,0.0,0.0,1094.4499464,0.00200650034585,1716.75169009,498.430235296,-17.0233711964,0.0154749209306,12.7358061529,0.0,0.0,0.0,0.949222920631,1082.77316745
7.2,2.09313815067E7,10986.5998135,6520.54713394,617.060323309,1525.90113522,830.148125386,829.954311559,-0.763582387045,-618.121482962,5739.0870344,-8.35469933236E-6,0.0179690455196,32.18112712478592,0.0,0.0179690455196,8.35469932853E-6,0.00417807413224,0.0,0.0,1094.20716633,0.00200271492566,1712.75277614,498.209127865,-16.8907470714,0.0155381893178,12.5714150409,0.0,0.0,0.0,0.945746370954,1072.3526155
7.3,2.09314429892E7,11139.1898869,6603.47766124,612.593210715,1525.90033092,828.464602,828.269738577,-0.77100194516,-613.668264837,5800.67638651,-8.56473263866E-6,0.0181975280372,32.180937436838725,0.0,0.0181975280372,8.5647326284E-6,0.00417807413224,0.0,0.0,1093.96608037,0.00199896215815,1708.79010915,497.98961186,-16.7597461353,0.015599137971,12.4091178998,0.0,0.0,0.0,0.942291243931,1062.06867775
7.4,2.09315040258E7,11291.779879,6686.24048791,608.142243438,1525.8995087,826.794085809,826.598208052,-0.778350649983,-609.231176028,5861.821225,-8.77678655797E-6,0.0184255474059,32.180749119523874,0.0,0.0184255474059,8.77678656224E-6,0.00417807413224,0.0,0.0,1093.72668326,0.00199524182167,1704.86341217,497.771681468,-16.6303437009,0.0156578166078,12.2488812803,0.0,0.0,0.0,0.938857375226,1051.91925141
7.5,2.09315646182E7,11444.369788,6768.83690669,603.707216933,1525.89866845,825.136418202,824.939561101,-0.78562896046,-604.81001219,5922.52315255,-8.99084176353E-6,0.0186531073414,32.1805621680389,0.0,0.0186531073414,8.99084179109E-6,0.00417807413224,0.0,0.0,1093.4889698,0.00199155369748,1700.97241195,497.555330947,-16.5025155755,0.0157142738747,12.0906723837,0.0,0.0,0.0,0.93544460406,1041.90227548
7.6,2.09316247678E7,11596.9596121,6851.26819462,599.287929907,1525.89781007,823.491442965,823.293641242,-0.792837327756,-600.40457222,5982.78375157,-9.20687909911E-6,0.0188802112542,32.18037657738135,0.0,0.0188802112542,9.20687910089E-6,0.00417807413224,0.0,0.0,1093.25293487,0.00198789756969,1697.11683895,497.340554631,-16.3762380481,0.0157685573741,11.9344590466,0.0,0.0,0.0,0.932052773145,1032.01572982
7.7,2.09316844763E7,11749.5493495,6933.53561323,594.88418425,1525.89693347,821.859006229,821.660294345,-0.799976195409,-596.014658197,6042.60458453,-9.42487940847E-6,0.0191068626181,32.18019234264884,0.0,0.0191068626181,9.42487940022E-6,0.00417807413224,0.0,0.0,1093.01857338,0.00198427322521,1693.29642725,497.127346923,-16.2514878791,0.0158207136906,11.7802097255,0.0,0.0,0.0,0.928681728626,1022.25763416
7.8,2.09317437451E7,11902.1389982,7015.64040876,590.495784978,1525.89603855,820.238956425,820.039368582,-0.807045999477,-591.640075326,6101.98719424,-9.64482370591E-6,0.0193330650131,32.18000945913897,0.0,0.0193330650131,9.64482371834E-6,0.00417807413224,0.0,0.0,1092.78588036,0.00198068045373,1689.5109145,496.915702299,-16.1282422888,0.0158707884161,11.6278934824,0.0,0.0,0.0,0.925331320015,1012.62604718
7.9,2.09318025759E7,12054.7285565,7097.58381243,586.122540169,1525.89512522,818.631144243,818.430714388,-0.814047168676,-587.280631868,6160.93310423,-9.86669317626E-6,0.0195588217798,32.179827922049405,0.0,0.0195588217798,9.8666932032E-6,0.00417807413224,0.0,0.0,1092.55485086,0.00197711904768,1685.76004184,496.7056153,-16.0064789468,0.0159188261751,11.4774799705,0.0,0.0,0.0,0.922001400134,1003.11906557
8.0,2.09318609702E7,12207.3180226,7179.36704063,581.76426091,1525.8941934,817.035422579,816.834184411,-0.820980124526,-582.936139089,6219.44381896,-1.0090469118E-5,0.0197841362612,32.17964772677781,0.0,0.0197841362612,1.00904691193E-5,0.00417807413224,0.0,0.0,1092.32548,0.00197358880214,1682.0435539,496.49708054,-15.8861759613,0.015964870648,11.3289394198,0.0,0.0,0.0,0.918691825056,993.734823203
8.1,2.09319189293E7,12359.9073946,7260.99129513,577.420761235,1525.89324299,815.451646499,815.249633471,-0.827845281484,-578.606411201,6277.52082421,-1.03161328298E-5,0.0200090117866,32.17946886882188,0.0,0.0200090117866,1.03161328458E-5,0.00417807413224,0.0,0.0,1092.09776299,0.00197008951487,1678.36119868,496.290092696,-15.7673118697,0.0160089645946,11.1822426241,0.0,0.0,0.0,0.915402454044,984.471490234
8.2,2.09319764548E7,12512.4966706,7342.45776335,573.091858075,1525.8922739,813.879673195,813.676918516,-0.83464304708,-574.291265308,6335.16558727,-1.05436658941E-5,0.0202334517205,32.17929134337939,0.0,0.0202334517205,1.05436658747E-5,0.00417807413224,0.0,0.0,1091.87169506,0.00196662098622,1674.71272756,496.084646513,-15.649865628,0.0160511498771,11.0373609275,0.0,0.0,0.0,0.9121331495,975.327272276
8.3,2.09320335481E7,12665.0858488,7423.7676185,568.777371195,1525.89128606,812.319361941,812.115898584,-0.841373822044,-569.990521347,6392.37955733,-1.07730497803E-5,0.0204574592549,32.179115146148064,0.0,0.0204574592549,1.07730498087E-5,0.00417807413224,0.0,0.0,1091.64727154,0.00196318301909,1671.09789519,495.880736801,-15.5338166017,0.0160914674814,10.8942662117,0.0,0.0,0.0,0.908883776905,966.300409594
8.4,2.09320902107E7,12817.6749272,7504.92201985,564.47712315,1525.89027938,810.770574055,810.566434759,-0.848038000438,-565.704002041,6449.16416569,-1.1004266355E-5,0.0206810375921,32.1789402725257,0.0,0.0206810375921,1.10042663598E-5,0.00417807413224,0.0,0.0,1091.42448779,0.00195977541895,1667.51645951,495.678358433,-15.419144556,0.0161299575391,10.7529308835,0.0,0.0,0.0,0.905654204771,957.389176306
8.5,2.0932146444E7,12970.263904,7585.92211287,560.190939227,1525.88925379,809.233172857,809.02839013,-0.85463596978,-561.431532843,6505.52082607,-1.12372973717E-5,0.0209041899337,32.17876671831013,0.0,0.0209041899337,1.1237297347E-5,0.00417807413224,0.0,0.0,1091.20333925,0.00195639799371,1663.96818163,495.477506346,-15.3058296474,0.016166659348,10.6133278625,0.0,0.0,0.0,0.902444304583,948.591879618
8.6,2.09322022494E7,13122.8527773,7666.76902948,555.918647398,1525.88820919,807.707023635,807.501629759,-0.861168111163,-557.172941885,6561.45093486,-1.14721246973E-5,0.0211269193426,32.17859447909917,0.0,0.0211269193426,1.14721246948E-5,0.00417807413224,0.0,0.0,1090.98382139,0.00195305055377,1660.45282581,495.278175539,-15.1938524142,0.0162016113923,10.4754305696,0.0,0.0,0.0,0.899253950748,939.906859074
8.7,2.09322576282E7,13275.4415452,7747.46388823,551.660078266,1525.88714552,806.191993602,805.986020636,-0.867634799376,-552.928059933,6616.95587141,-1.17087304261E-5,0.0213492289937,32.1784235504907,0.0,0.0213492289937,1.17087304313E-5,0.00417807413224,0.0,0.0,1090.76592976,0.00194973291194,1656.97015944,495.080361072,-15.0831937683,0.016234851362,10.339212915,0.0,0.0,0.0,0.89608302055,931.332485826
8.8,2.09323125819E7,13428.0302058,7828.00779448,547.415065021,1525.88606269,804.687951862,804.481431644,-0.874036403022,-548.696720334,6672.03699826,-1.19470967093E-5,0.0215711219736,32.178253928482604,0.0,0.0215711219736,1.19470966867E-5,0.00417807413224,0.0,0.0,1090.54965996,0.0019464448834,1653.51995295,494.884058063,-14.9738349866,0.0162664161723,10.2046492875,0.0,0.0,0.0,0.892931394093,922.867161925
8.9,2.09323671117E7,13580.6187571,7908.40184058,543.183443393,1525.88496064,803.194769373,802.987733525,-0.880373284628,-544.47875897,6726.69566142,-1.2187205698E-5,0.0217926012765,32.17808560867281,0.0,0.0217926012765,1.21872056914E-5,0.00417807413224,0.0,0.0,1090.33500763,0.0019431862857,1650.10197979,494.689261693,-14.8657577031,0.0162963419823,10.0717145431,0.0,0.0,0.0,0.889798954259,914.509319631
9.0,2.0932421219E7,13733.2071973,7988.64710609,538.965051601,1525.8838393,801.712318912,801.504798846,-0.886645800763,-540.274014212,6780.93319062,-1.24290397707E-5,0.0220136698005,32.17791858715925,0.0,0.0220136698005,1.24290397745E-5,0.00417807413224,0.0,0.0,1090.1219685,0.00193995693869,1646.71601638,494.495967198,-14.7589439007,0.0163246642122,9.94038399481,0.0,0.0,0.0,0.886685586655,906.257420736
9.1,2.09324749051E7,13885.7955243,8068.74465791,534.759730311,1525.88269858,800.24047504,800.032501956,-0.89285430214,-536.082326879,6834.75089951,-1.26725813629E-5,0.0222343306671,32.17775285963988,0.0,0.0222343306671,1.26725813621E-5,0.00417807413224,0.0,0.0,1089.91053831,0.0019367566645,1643.36184205,494.304169874,-14.6533759035,0.0163514175618,9.81063340187,0.0,0.0,0.0,0.883591179573,898.109955915
9.2,2.09325281714E7,14038.3837363,8148.69555052,530.567322593,1525.88153843,798.77911407,798.570718964,-0.898999133729,-531.903540184,6888.15008601,-1.29178129669E-5,0.0224545866411,32.1775884223127,0.0,0.0224545866411,1.29178129757E-5,0.00417807413224,0.0,0.0,1089.70071287,0.00193358528751,1640.03923904,494.113865072,-14.5490363695,0.016376636027,9.68243895993,0.0,0.0,0.0,0.880515623937,890.065444082
9.3,2.0932581019E7,14190.9718314,8228.50082609,526.387673876,1525.88035877,797.328114032,797.119327694,-0.905080634855,-527.737499702,6941.13203242,-1.31647172452E-5,0.0226744407101,32.17742527097572,0.0,0.0226744407101,1.31647172308E-5,0.00417807413224,0.0,0.0,1089.49248805,0.00193044263433,1636.74799241,493.925048199,-14.4459082829,0.0164003529163,9.55577729109,0.0,0.0,0.0,0.877458813264,882.122431772
9.4,2.09326334493E7,14343.5598074,8308.16151468,522.220631906,1525.87915954,795.88735464,795.678207664,-0.911099139306,-523.58405332,6993.69800575,-1.34132768608E-5,0.0228938956358,32.17726340182696,0.0,0.0228938956358,1.3413276835E-5,0.00417807413224,0.0,0.0,1089.28585976,0.00192732853374,1633.48789002,493.737714717,-14.3439749474,0.0164226008675,9.43062543436,0.0,0.0,0.0,0.87442064362,874.279492533
9.5,2.09326854636E7,14496.1476626,8387.67863442,518.066046705,1525.87794068,794.456717264,794.247240045,-0.91705497543,-519.443051201,7045.84925789,-1.366347459E-5,0.0231129544056,32.17710281096449,0.0,0.0231129544056,1.36634745871E-5,0.00417807413224,0.0,0.0,1089.08082396,0.00192424281668,1630.2587225,493.551860143,-14.2432199788,0.0164434118625,9.30696083631,0.0,0.0,0.0,0.871401013573,866.535226339
9.6,2.09327370629E7,14648.7353949,8467.05319163,513.923770529,1525.87670212,793.036084896,792.826307635,-0.922948466231,-515.314345739,7097.58702588,-1.39152933798E-5,0.0233316195961,32.176943494586396,0.0,0.0233316195961,1.39152933748E-5,0.00417807413224,0.0,0.0,1088.87737666,0.00192118531621,1627.06028319,493.367480045,-14.1436272984,0.0164628172435,9.18476134197,0.0,0.0,0.0,0.868399824154,858.888259011
9.7,2.09327882487E7,14801.3230024,8546.28618105,509.793657835,1525.87544379,791.62534212,791.415294829,-0.928779929469,-511.197791523,7148.91253208,-1.41687161772E-5,0.0235498940822,32.17678544879075,0.0,0.0235498940822,1.41687161739E-5,0.00417807413224,0.0,0.0,1088.67551392,0.00191815586749,1623.89236812,493.184570046,-14.0451811265,0.0164808477271,9.06400518594,0.0,0.0,0.0,0.865416978816,851.337241663
9.8,2.09328390221E7,14953.910483,8625.37858591,505.675565233,1525.87416564,790.224375084,790.014087586,-0.93454967775,-507.093245299,7199.82698445,-1.44237260429E-5,0.0237677805948,32.176628669975685,0.0,0.0237677805948,1.44237260469E-5,0.00417807413224,0.0,0.0,1088.47523184,0.00191515430774,1620.75477594,493.003125818,-13.9478659756,0.0164975334191,8.94467098374,0.0,0.0,0.0,0.862452383392,843.880850149
9.9,2.09328893842E7,15106.4978348,8704.33137818,501.569351455,1525.87286762,788.83307147,788.622573404,-0.94025801862,-503.000565928,7250.3315767,-1.46803061511E-5,0.0239852817925,32.176473154339355,0.0,0.0239852817925,1.4680306141E-5,0.00417807413224,0.0,0.0,1088.27652658,0.00191218047624,1617.64730793,492.823143088,-13.8516666446,0.0165129038286,8.82673772343,0.0,0.0,0.0,0.859505946056,836.517784538
10.0,2.09329393363E7,15259.0850559,8783.14551863,497.474877318,1525.87154965,787.451320466,787.240641288,-0.945905254653,-498.919614355,7300.42748855,-1.49384396764E-5,0.0242024003331,32.17631889817989,0.0,0.0242024003331,1.49384396873E-5,0.00417807413224,0.0,0.0,1088.07939434,0.00190923421424,1614.56976794,492.644617628,-13.7565682123,0.0165269878813,8.71018475732,0.0,0.0,0.0,0.856577577283,829.24676859
10.1,2.09329888796E7,15411.6721441,8861.82195704,493.392005682,1525.87021169,786.079012738,785.868181723,-0.951491683541,-494.85025357,7350.11588593,-1.51981100203E-5,0.0244191389465,32.17616589799551,0.0,0.0244191389465,1.51981099993E-5,0.00417807413224,0.0,0.0,1087.88383135,0.00190631536501,1611.52196232,492.467545265,-13.6625560316,0.0165398139333,8.59499179399,0.0,0.0,0.0,0.853667189812,822.066549254
10.2,2.09330380151E7,15564.2590975,8940.36163235,489.320601424,1525.86885368,784.716040404,784.505086653,-0.957017598177,-490.792348569,7399.39792113,-1.54593004709E-5,0.0246355000631,32.176014150184386,0.0,0.0246355000631,1.54593004713E-5,0.00417807413224,0.0,0.0,1087.68983391,0.00190342377374,1608.50369994,492.291921869,-13.5696157235,0.0165514097835,8.48113889046,0.0,0.0,0.0,0.850774698607,814.975896174
10.3,2.09330867441E7,15716.8459142,9018.76547275,485.260531394,1525.86747557,783.362297005,783.151249444,-0.96248328674,-486.745766328,7448.27473307,-1.57219946004E-5,0.0248514863338,32.175863651144766,0.0,0.0248514863338,1.57219945775E-5,0.00417807413224,0.0,0.0,1087.49739834,0.00190055928757,1605.51479214,492.117743362,-13.4777331717,0.0165618026867,8.36860644457,0.0,0.0,0.0,0.847900020821,807.97360121
10.4,2.09331350676E7,15869.432592,9097.03439588,481.21166439,1525.8660773,782.017677482,781.806564863,-0.967889032781,-482.710375764,7496.74744745,-1.59861758675E-5,0.0250671003873,32.17571439747488,0.0,0.0250671003873,1.59861758704E-5,0.00417807413224,0.0,0.0,1087.30652102,0.00189772175555,1602.55505267,491.945005712,-13.3868945168,0.0165710193656,8.25737518758,0.0,0.0,0.0,0.84504307576,801.058477967
10.5,2.09331829868E7,16022.019129,9175.16930892,477.173871117,1525.86465882,780.682078148,780.470929058,-0.973235115299,-478.6860477,7544.81717696,-1.62518279581E-5,0.0252823445895,32.175566385672965,0.0,0.0252823445895,1.62518279798E-5,0.00417807413224,0.0,0.0,1087.11719836,0.00189491102858,1599.62429768,491.773704935,-13.2970861511,0.0165790860227,8.14742617682,0.0,0.0,0.0,0.842203784844,794.229361339
10.6,2.09332305027E7,16174.6055231,9253.17110877,473.147024161,1525.86322009,779.355396665,779.144239521,-0.978521808823,-474.67265484,7592.48502149,-1.65189346149E-5,0.0254972215649,32.17541961233733,0.0,0.0254972215649,1.65189346115E-5,0.00417807413224,0.0,0.0,1086.92942683,0.00189212695943,1596.72234569,491.60383709,-13.2082947131,0.016586028352,8.03874078872,0.0,0.0,0.0,0.839382071576,787.485107068
10.7,2.09332776165E7,16327.1917723,9331.04068215,469.130997955,1525.86176105,778.037532019,777.826395077,-0.98374938349,-470.670071729,7639.75206826,-1.67874795238E-5,0.0257117335779,32.175274074066266,0.0,0.0257117335779,1.67874795457E-5,0.00417807413224,0.0,0.0,1086.74320292,0.0018893694027,1593.84901754,491.435398283,-13.1205070825,0.0165918715504,7.93130071184,0.0,0.0,0.0,0.836577861505,780.824591301
10.8,2.09333243293E7,16479.7778746,9408.77890574,465.125668748,1525.86028165,776.728384496,776.517295846,-0.988918105115,-466.67817473,7686.61939204,-1.70574466551E-5,0.0259258833071,32.175129767558076,0.0,0.0259258833071,1.70574466363E-5,0.00417807413224,0.0,0.0,1086.55852316,0.00188663821477,1591.00413638,491.268384666,-13.0337103753,0.0165966403284,7.82508794016,0.0,0.0,0.0,0.833791082193,774.246710176
10.9,2.0933370642E7,16632.363828,9486.38664633,461.130914573,1525.85878185,775.427855658,775.216843235,-0.994028235276,-462.696841986,7733.08805534,-1.73288198084E-5,0.0261396729773,32.174986689411114,0.0,0.0261396729773,1.73288198098E-5,0.00417807413224,0.0,0.0,1086.37538415,0.00188393325384,1588.1875276,491.102792432,-12.9478919387,0.0166003589213,7.72008476647,0.0,0.0,0.0,0.83102166318,767.750379401
11.0,2.09334165558E7,16784.9496303,9563.86476092,457.146615222,1525.85726161,774.135848321,773.9249399,-0.999080031378,-458.725953399,7779.15910858,-1.76015830675E-5,0.0263531050088,32.174844836523704,0.0,0.0263531050088,1.76015830635E-5,0.00417807413224,0.0,0.0,1086.19378249,0.00188125437982,1585.39901885,490.93861782,-12.8630393464,0.016603051099,7.61627377599,0.0,0.0,0.0,0.828269535951,761.334533852
11.1,2.09334620717E7,16937.5352796,9641.21409685,453.172652213,1525.85572088,772.852266534,772.641489736,-1.00407374673,-454.765390594,7824.83359022,-1.78757204594E-5,0.0265661817818,32.17470420569422,0.0,0.0265661817818,1.78757204649E-5,0.00417807413224,0.0,0.0,1086.01371484,0.00187860145438,1582.63844,490.77585711,-12.7791403939,0.016604740177,7.51363784012,0.0,0.0,0.0,0.825534633906,754.998127185
11.2,2.09335071907E7,17090.1207738,9718.43549192,449.208908763,1525.85415961,771.577015553,771.366397846,-1.0090096306,-450.815036892,7870.112527,-1.81512161248E-5,0.0267789055306,32.17456479352106,0.0,0.0267789055306,1.81512161505E-5,0.00417807413224,0.0,0.0,1085.83517789,0.00187597434089,1579.90562306,490.614506625,-12.696183094,0.0166054490253,7.41216011025,0.0,0.0,0.0,0.822816892327,748.740131445
11.3,2.09335519138E7,17242.7061108,9795.52977453,445.255269762,1525.85257776,770.310001822,770.099570525,-1.01388792831,-446.874777288,7914.99693406,-1.84280543181E-5,0.0269912786771,32.174426597102624,0.0,0.0269912786771,1.84280543247E-5,0.00417807413224,0.0,0.0,1085.65816838,0.00187337290442,1577.20040221,490.454562729,-12.6141556724,0.0166052000788,7.31182401187,0.0,0.0,0.0,0.820116248342,742.559536694
11.4,2.09335962421E7,17395.2912887,9872.49776378,441.311621742,1525.8509753,769.051132955,768.840915237,-1.0187088813,-442.944498416,7959.48781515,-1.87062192367E-5,0.0272033033486,32.17428961313731,0.0,0.0272033033486,1.87062192585E-5,0.00417807413224,0.0,0.0,1085.48268308,0.0018707970117,1574.52261375,490.296021827,-12.5330465633,0.0166040153464,7.21261323871,0.0,0.0,0.0,0.817432640901,736.455350646
11.5,2.09336401765E7,17547.8763052,9949.34026958,437.377852855,1525.84935218,767.800317708,767.590340592,-1.02347272715,-439.024088529,8003.5861627,-1.89856953057E-5,0.0274149819639,32.174153838623575,0.0,0.0274149819639,1.89856952888E-5,0.00417807413224,0.0,0.0,1085.30871878,0.00186824653111,1571.87209607,490.138880365,-12.4528444051,0.0166019164201,7.11451174705,0.0,0.0,0.0,0.814766010741,730.426598312
11.6,2.0933683718E7,17700.4611584,10026.0580928,433.453852844,1525.84770836,766.557465966,766.347756332,-1.02817969971,-435.113437465,8047.29295814,-1.92664668361E-5,0.027626316565,32.17401927055985,0.0,0.027626316565,1.92664668171E-5,0.00417807413224,0.0,0.0,1085.13627233,0.00186572133263,1569.24868963,489.983134827,-12.3735380363,0.016598924484,7.01750375014,0.0,0.0,0.0,0.812116300356,724.472321644
11.7,2.09337268676E7,17853.0458462,10102.6520253,429.539513016,1525.84604381,765.32248872,765.113073303,-1.03283002911,-431.212436634,8090.60917187,-1.95485183099E-5,0.0278373094669,32.17388590584462,0.0,0.0278373094669,1.95485183085E-5,0.00417807413224,0.0,0.0,1084.9653406,0.00186322128788,1566.65223692,489.828781739,-12.2951164917,0.0165950603229,6.92157371284,0.0,0.0,0.0,0.809483453969,718.591579206
11.8,2.09337696262E7,18005.6303665,10179.1228501,425.634726224,1525.84435848,764.095298045,763.886203442,-1.03742394185,-427.320978979,8133.53576356,-1.98318342655E-5,0.0280479627792,32.173753741576355,0.0,0.0280479627792,1.98318342908E-5,0.00417807413224,0.0,0.0,1084.79592051,0.00186074627003,1564.08258244,489.675817664,-12.217568998,0.0165903443307,6.82670634625,0.0,0.0,0.0,0.806867417499,712.783445831
11.9,2.09338119948E7,18158.2147172,10255.4713415,421.739386835,1525.84265235,762.875807086,762.667059757,-1.04196166087,-423.438958963,8176.07368225,-2.01163993552E-5,0.0282582786805,32.17362277475354,0.0,0.0282582786805,2.01163993534E-5,0.00417807413224,0.0,0.0,1084.62800898,0.00185829615385,1561.53957269,489.524239201,-12.1408849703,0.0165847965185,6.73288660255,0.0,0.0,0.0,0.804268138536,707.047012305
12.0,2.09338539744E7,18310.7988962,10331.6982653,417.853390709,1525.84092537,761.663930039,761.455556304,-1.04644340557,-419.56627254,8218.22386648,-2.04021981176E-5,0.0284682592556,32.1734930024747,0.0,0.0284682592556,2.04021981465E-5,0.00417807413224,0.0,0.0,1084.46160301,0.00185587081563,1559.02305612,489.374042991,-12.0650540084,0.0165784365232,6.64009966999,0.0,0.0,0.0,0.801685566311,701.381385045
12.1,2.09338955658E7,18463.3829016,10407.8043785,413.976635177,1525.83917752,760.459582126,760.251608173,-1.05086939191,-415.702817131,8259.98724446,-2.06892153756E-5,0.0286779066453,32.17336442193835,0.0,0.0286779066453,2.06892153799E-5,0.00417807413224,0.0,0.0,1084.2966996,0.00185347013318,1556.53288311,489.225225709,-11.9900658926,0.0165712836144,6.54833096788,0.0,0.0,0.0,0.799119651664,695.785685793
12.2,2.093393677E7,18615.966731,10483.7904299,410.109019018,1525.83740876,759.262679586,759.055131469,-1.05523983244,-411.848491603,8301.36473423,-2.09774358382E-5,0.0288872229472,32.17323703014305,0.0,0.0288872229472,2.09774358223E-5,0.00417807413224,0.0,0.0,1084.13329579,0.00185109398583,1554.06890597,489.077784066,-11.9159105807,0.0165633567027,6.4575661418,0.0,0.0,0.0,0.796570347022,690.259051314
12.3,2.09339775879E7,18768.5503826,10559.6571598,406.250442433,1525.83561905,758.073139651,757.866043294,-1.05955493638,-408.003196247,8342.35724378,-2.12668442714E-5,0.0290962101804,32.17311082438733,0.0,0.0290962101804,2.12668443002E-5,0.00417807413224,0.0,0.0,1083.97138865,0.00184874225439,1551.63097888,488.931714812,-11.8425782043,0.0165546743467,6.36779105889,0.0,0.0,0.0,0.794037606368,684.8006331
12.4,2.09340180204E7,18921.1338542,10635.4053005,402.400807027,1525.83380837,756.890880533,756.684261731,-1.06381490965,-404.166832753,8382.96567121,-2.15574256686E-5,0.0293048703124,32.17298580186977,0.0,0.0293048703124,2.1557425697E-5,0.00417807413224,0.0,0.0,1083.81097529,0.00184641482115,1549.21895789,488.787014729,-11.7700590652,0.0165452547604,6.27899180323,0.0,0.0,0.0,0.791521385211,679.40959708
12.5,2.09340580684E7,19073.7171436,10711.0355759,398.560015787,1525.83197669,755.715821404,755.509705824,-1.06801995495,-400.339304193,8423.19090483,-2.18491649662E-5,0.0295132054105,32.172861959888955,0.0,0.0295132054105,2.18491649522E-5,0.00417807413224,0.0,0.0,1083.65205285,0.00184411156984,1546.83270089,488.643680637,-11.6983436321,0.0165351158202,6.19115467131,0.0,0.0,0.0,0.789021640564,674.085123343
12.6,2.09340977327E7,19226.3002488,10786.5487021,394.72797306,1525.83012397,754.547882382,754.342295565,-1.07217027179,-396.520514999,8463.03382335,-2.21420470439E-5,0.0297212174842,32.17273929564347,0.0,0.0297212174842,2.21420470606E-5,0.00417807413224,0.0,0.0,1083.49461849,0.00184183238564,1544.47206758,488.501709389,-11.6274225374,0.0165242750717,6.10426616768,0.0,0.0,0.0,0.786538330915,668.826405862
12.7,2.09341370143E7,19378.8831677,10861.9453871,390.90458453,1525.82825019,753.386984513,753.181951876,-1.07626605655,-392.710370937,8502.495296,-2.24360570655E-5,0.0299289084513,32.17261780633193,0.0,0.0299289084513,2.24360570712E-5,0.00417807413224,0.0,0.0,1083.3386694,0.00183957715511,1542.13691947,488.361097872,-11.5572865742,0.0165127497363,6.01831300059,0.0,0.0,0.0,0.784071416198,663.632652221
12.8,2.09341759139E7,19531.4658981,10937.2263311,387.089757204,1525.82635532,752.233049754,752.028596593,-1.08030750256,-388.908779096,8541.57618261,-2.27311800813E-5,0.0301362803533,32.17249748955295,0.0,0.0301362803533,2.27311800863E-5,0.00417807413224,0.0,0.0,1083.18420282,0.00183734576625,1539.82711983,488.221843005,-11.4879266927,0.0165005567175,5.93328207785,0.0,0.0,0.0,0.781620857772,658.503083359
12.9,2.09342144325E7,19684.048438,11012.3922266,383.283399387,1525.82443933,751.086000962,750.882152451,-1.0842948001,-385.115647857,8580.27733384,-2.30274012551E-5,0.0303433348902,32.17237834240519,0.0,0.0303433348902,2.30274012612E-5,0.00417807413224,0.0,0.0,1083.031216,0.00183513810843,1537.54253369,488.083941745,-11.4193339974,0.0164877126079,5.84916050265,0.0,0.0,0.0,0.779186618388,653.43693331
13.0,2.09342525709E7,19836.6307853,11087.4437583,379.485420665,1525.82250219,749.945761874,749.742543068,-1.08822813648,-381.330886887,8618.5995912,-2.33247058077E-5,0.030550074131,32.172260362487265,0.0,0.030550074131,2.33247058027E-5,0.00417807413224,0.0,0.0,1082.87970622,0.00183295407237,1535.28302779,487.947391075,-11.3514997442,0.0164742336945,5.76593556958,0.0,0.0,0.0,0.77676866217,648.433448951
13.1,2.09342903299E7,19989.2129378,11162.3816035,375.695731883,1525.82054389,748.812257095,748.60969293,-1.09210769609,-377.55440711,8656.54378726,-2.36230789596E-5,0.0307564999876,32.17214354699786,0.0,0.0307564999876,2.36230789687E-5,0.00417807413224,0.0,0.0,1082.72967079,0.00183079355016,1533.04847061,487.812188016,-11.2844153373,0.0164601359652,5.68359476069,0.0,0.0,0.0,0.774366954585,643.491889762
13.2,2.09343277103E7,20141.7948934,11237.2064317,371.914245133,1525.8185644,747.685412081,747.483527379,-1.09593366044,-373.78612069,8694.11074573,-2.39225060454E-5,0.0309626142469,32.17202789363563,0.0,0.0309626142469,2.39225060673E-5,0.00417807413224,0.0,0.0,1082.58110705,0.00182865643522,1530.83873229,487.678329618,-11.2180723262,0.0164454351146,5.60212574163,0.0,0.0,0.0,0.771981462418,638.611527583
13.3,2.0934364713E7,20294.3766499,11311.9189054,368.140873728,1525.81656369,746.565153127,746.363972594,-1.0997062082,-370.025941016,8731.30128162,-2.42229724563E-5,0.0311684186642,32.17191339969926,0.0,0.0311684186642,2.4222972456E-5,0.00417807413224,0.0,0.0,1082.43401237,0.00182654262228,1528.65368465,487.545812961,-11.1524624032,0.0164301465495,5.52151635795,0.0,0.0,0.0,0.769612153749,633.791646379
13.4,2.09344013387E7,20446.9582054,11386.5196794,364.375532189,1525.81454174,745.451407351,745.25095558,-1.10342551527,-366.273782684,8768.11620131,-2.45244635266E-5,0.0313739151804,32.17180006268747,0.0,0.0313739151804,2.4524463541E-5,0.00417807413224,0.0,0.0,1082.28838414,0.00182445200738,1526.49320115,487.414635158,-11.0875774007,0.0164142853947,5.44175463132,0.0,0.0,0.0,0.767258997926,629.031542016
13.5,2.09344375883E7,20599.5395576,11461.0094016,360.618136228,1525.81249852,744.34410268,744.144404153,-1.1070917548,-362.529561476,8804.55630273,-2.48269647614E-5,0.0315791055844,32.17168788019893,0.0,0.0315791055844,2.48269647762E-5,0.00417807413224,0.0,0.0,1082.14421978,0.00182238448785,1524.35715689,487.284793353,-11.0234092881,0.0163978664979,5.36282875606,0.0,0.0,0.0,0.764921965541,624.33052203
13.6,2.09344734626E7,20752.1207044,11535.3887123,356.868602727,1525.81043403,743.243167838,743.044246926,-1.11070509725,-358.793194346,8840.62237542,-2.51304616654E-5,0.0317839916088,32.1715768498324,0.0,0.0317839916088,2.51304616629E-5,0.00417807413224,0.0,0.0,1082.00151674,0.00182033996228,1522.24542858,487.156284717,-10.9599501694,0.0163809044356,5.28472709552,0.0,0.0,0.0,0.762601028405,619.687905418
13.7,2.09345089623E7,20904.7016437,11609.6582451,353.126849724,1525.80834823,742.148532333,741.950413297,-1.11426571042,-355.064599403,8876.31520069,-2.54349397437E-5,0.0319885750245,32.171466968986586,0.0,0.0319885750245,2.54349397487E-5,0.00417807413224,0.0,0.0,1081.86027248,0.00181831833054,1520.15789449,487.029106453,-10.8971922809,0.0163634135177,5.20743817869,0.0,0.0,0.0,0.760296159524,615.103022416
13.8,2.09345440882E7,21057.2823733,11683.8186264,349.392796399,1525.80624111,741.060126441,740.862833436,-1.11777375952,-351.343695891,8911.63555169,-2.57403846149E-5,0.0321928575523,32.17135823536022,0.0,0.0321928575523,2.57403846267E-5,0.00417807413224,0.0,0.0,1081.7204845,0.00181631949372,1518.09443451,486.903255793,-10.835127988,0.0163454077927,5.13095069684,0.0,0.0,0.0,0.758007333074,610.575214293
13.9,2.09345788411E7,21209.8628912,11757.8704758,345.666363051,1525.80411265,739.977881196,739.781438269,-1.12122940719,-347.630404181,8946.58419358,-2.60467819544E-5,0.0323968409581,32.1712506466521,0.0,0.0323968409581,2.60467819353E-5,0.00417807413224,0.0,0.0,1081.58215033,0.00181434335415,1516.05493004,486.778729996,-10.7737497835,0.0163269010527,5.0552535002,0.0,0.0,0.0,0.755734524377,606.103833148
14.0,2.09346132218E7,21362.4431951,11831.8144058,341.947471089,1525.80196282,738.901728375,738.706159471,-1.12463281352,-343.924645746,8981.16188362,-2.63541173808E-5,0.0326005268434,32.17114420046094,0.0,0.0326005268434,2.63541173569E-5,0.00417807413224,0.0,0.0,1081.44526751,0.00181238981539,1514.03926404,486.655526351,-10.7130502847,0.0163079068378,4.98033559476,0.0,0.0,0.0,0.753477709878,601.688241707
14.1,2.09346472309E7,21515.023283,11905.6510223,338.236043013,1525.79979162,737.831600489,737.636929446,-1.12798413616,-340.226343152,9015.36937126,-2.66623766265E-5,0.0328039169862,32.171038894385546,0.0,0.0328039169862,2.66623766177E-5,0.00417807413224,0.0,0.0,1081.3098336,0.00181045878218,1512.04732096,486.533642176,-10.6530222313,0.0162884384408,4.90618613913,0.0,0.0,0.0,0.751236867119,597.327813131
14.2,2.09346808692E7,21667.6031527,11979.3809245,334.5320024,1525.79759903,736.767430768,736.573681323,-1.13128353028,-336.535420041,9049.20739824,-2.69715454806E-5,0.0330070130098,32.170934726224694,0.0,0.0330070130098,2.69715454867E-5,0.00417807413224,0.0,0.0,1081.1758462,0.00180855016046,1510.07898679,486.413074813,-10.5936584827,0.0162685089117,4.83279444142,0.0,0.0,0.0,0.749011974717,593.021930821
14.3,2.09347141375E7,21820.1828021,12053.0047048,330.83527389,1525.79538502,735.70915315,735.516348938,-1.13453114868,-332.851801113,9082.67669874,-2.7281609789E-5,0.0332098165412,32.17083169367718,0.0,0.0332098165412,2.72816097751E-5,0.00417807413224,0.0,0.0,1081.04330293,0.00180666385734,1508.13414898,486.293821634,-10.5349520163,0.0162481310624,4.76014995628,0.0,0.0,0.0,0.74680301234,588.769988234
14.4,2.09347470365E7,21972.762229,12126.5229493,327.145783169,1525.79314959,734.656702269,734.464866826,-1.13772714176,-329.17541212,9115.77799946,-2.7592555341E-5,0.0334123292473,32.17072979444182,0.0,0.0334123292473,2.75925553359E-5,0.00417807413224,0.0,0.0,1080.91220142,0.00180479978109,1506.21269643,486.175880037,-10.4768959246,0.0162273174702,4.68824228188,0.0,0.0,0.0,0.744609960682,584.571388698
14.5,2.09347795669E7,22125.3414313,12199.9362373,323.463456958,1525.79089272,733.610013445,733.419170207,-1.14087165763,-325.506179841,9148.51201971,-2.79043680393E-5,0.0336145527499,32.17062902631741,0.0,0.0336145527499,2.79043680628E-5,0.00417807413224,0.0,0.0,1080.78253934,0.00180295784115,1504.31451951,486.059247447,-10.4194834139,0.0162060804828,4.61706115707,0.0,0.0,0.0,0.742432801444,580.425545234
