time,gePosition_ft_X,gePosition_ft_Y,gePosition_ft_Z,feVelocity_ft_s_X,feVelocity_ft_s_Y,feVelocity_ft_s_Z,altitudeMsl_ft,longitude_deg,latitude_deg,localGravity_ft_s2,eulerAngle_deg_Yaw,eulerAngle_deg_Pitch,eulerAngle_deg_Roll,bodyAngularRateWrtEi_deg_s_Roll,bodyAngularRateWrtEi_deg_s_Pitch,bodyAngularRateWrtEi_deg_s_Yaw,altitudeRateWrtMsl_ft_min,speedOfSound_ft_s,airDensity_slug_ft3,ambientPressure_lbf_ft2,ambientTemperature_dgR,aero_bodyForce_lbf_X,aero_bodyForce_lbf_Y,aero_bodyForce_lbf_Z,aero_bodyMoment_ftlbf_L,aero_bodyMoment_ftlbf_M,aero_bodyMoment_ftlbf_N,mach,dynamicPressure_lbf_ft2,trueAirspeed_nmi_h
0.0,2.09256463253E7,0.0,0.0,999.999998322,0.0,-999.999998322,0.0,0.0,0.0,32.1988106712,0.0,-0.0,0.0,0.004178069999994026,0.0,0.0,59999.99989932,1116.45,0.0023769,2116.21662367,518.67,-33.0008944477,-0.0,33.0008944477,0.0,0.0,0.0,1.26670568319,2376.89999202,837.898624434
0.1,2.09257460017E7,-7.26902989651E-4,99.8355471251,996.712698702,-0.014525054366,-993.517537182,99.6765872799,-1.99029814369E-9,2.75197179574E-4,32.1985136411,-1.9362535018499327E-23,2.7335491385316253E-4,1.5686688121210503E-9,0.004178069999994026,0.0,0.0,59611.08091374,1116.06525292,0.00237021879715,2108.9514385,518.314598104,-32.6399125728,4.7565897976E-4,32.5349974847,0.0,0.0,0.0,1.26095414752,2347.12492661,833.806664438
0.2,2.09258450306E7,-0.0028981672583,199.344584342,993.460757742,-0.0288978813171,-987.081708628,198.706202891,-7.93529494179E-9,5.49491715021E-4,32.1982083285,-3.793146946019327E-23,5.458132436015152E-4,7.092036278563692E-9,0.004178069999994026,0.0,0.0,59224.93101348,1115.68300312,0.00236358096004,2101.73340952,517.961503019,-32.2846698519,9.39095021482E-4,32.0767841542,0.0,0.0,0.0,1.25525106045,2317.83926023,829.751209531
0.3,2.09259434177E7,-0.00649976149742,298.530664299,990.244136384,-0.0431312523617,-980.691329993,297.09451431,-1.77965167071E-8,8.22893437437E-4,32.1979049975,-5.684975717256803E-23,8.173847542736224E-4,1.6531628712226664E-8,0.004178069999994026,0.0,0.0,58841.508111,1115.30322873,0.00235698610879,2094.56212366,517.610694536,-31.9350489915,0.00139095875226,31.6260957591,0.0,0.0,0.0,1.24959577636,2289.03294562,825.731758655
0.4,2.09260411675E7,-0.0115178365469,397.397283394,987.062276903,-0.0572269710406,-974.345656837,394.84602917,-3.15359899169E-8,0.00109541202227,32.197603634,-7.539323715250402E-23,0.0010880790562968468,2.9849472590398326E-8,0.004178069999994026,0.0,0.0,58460.76753978,1114.92591234,0.00235043394125,2087.43725235,517.262156583,-31.5909334414,0.00183153204952,31.1827751101,0.0,0.0,0.0,1.24398759201,2260.69601957,821.747777295
0.5,2.09261382846E7,-0.017938721487,495.947882939,983.914633111,-0.0711868022909,-968.043960225,491.965181448,-4.91162304811E-8,0.00136705699256,32.1973042243,-9.556722683652256E-23,0.0013579056087202363,4.7008083822999304E-8,0.004178069999994026,0.0,0.0,58082.66556378,1114.55103684,0.00234392416022,2080.35847243,516.915873351,-31.2522096997,0.00226108894769,30.7466691118,0.0,0.0,0.0,1.23842581944,2232.81877889,817.798742511
0.6,2.09262347732E7,-0.025748919831,594.1858503,980.800670051,-0.0850124734357,-961.785526329,588.456332982,-7.05002332875E-8,0.00163783772208,32.1970067548,-1.154390652196352E-22,0.001626873722314227,6.797045729754089E-8,0.004178069999994026,0.0,0.0,57707.159353200004,1114.1785854,0.00233745647333,2073.32546595,516.571829287,-30.9187672177,0.00267989589366,30.3176286343,0.0,0.0,0.0,1.23290978559,2205.39177236,813.884142633
0.7,2.09263306376E7,-0.0349351058167,692.114519999,977.719863712,-0.0987056751537,-955.569656036,684.323774967,-9.56514620172E-8,0.00190776343839,32.1967112123,-1.365302660597542E-22,0.0018949925626216418,9.270005669583151E-8,0.004178069999994026,0.0,0.0,57334.2069612,1113.80854144,0.00233103059295,2066.33792016,516.23000909,-30.5904983078,0.0030882119931,29.89550839,0.0,0.0,0.0,1.22743883191,2178.40579282,810.00347698
0.8,2.0926425882E7,-0.0454841207921,789.737174796,974.67170074,-0.112268062417,-949.395664568,779.57172941,-1.2453383922E-7,0.00217684322582,32.1964175835,-1.5585601738513286E-22,0.0021622711529370726,1.2116080456742566E-7,0.004178069999994026,0.0,0.0,56963.76730122,1113.44088868,0.00232464623608,2059.39552731,515.890397708,-30.2672980545,0.00348628924749,29.4801668141,0.0,0.0,0.0,1.22201231399,2151.85186962,806.156255578
0.9,2.09265205107E7,-0.0573829696935,887.057046734,971.655678168,-0.125701255389,-943.262881121,874.204350531,-1.57111736644E-7,0.00244508602839,32.1961258557,-1.7089153654174845E-22,0.002428718377171668,1.5331707265998707E-7,0.004178069999994026,0.0,0.0,56595.80012471999,1113.07561108,0.00231830312428,2052.49798462,515.552980328,-29.9490642294,0.00387437278202,29.0714659499,0.0,0.0,0.0,1.21662960121,2125.72126137,802.341998894
1.0,2.09266145277E7,-0.070618817613,984.077318168,968.671303151,-0.139006840319,-937.170648503,968.225726169,-1.93349965809E-7,0.00271250065263,32.1958360162,-1.8452228941876671E-22,0.0026943429826720862,1.8913367249264334E-7,0.004178069999994026,0.0,0.0,56230.2660003,1112.71269286,0.00231200098352,2045.64499414,515.217742375,-29.6356972087,0.00425270106575,28.6692713379,0.0,0.0,0.0,1.21129007642,2100.00544884,798.560237567
1.1,2.09267079371E7,-0.085178986452,1080.80112276,965.718092705,-0.152186370382,-931.118322796,1061.6398791,-2.33213768815E-7,0.00297909577035,32.1955480524,-1.9705707148923857E-22,0.002959153582970693,2.285758461668887E-7,0.004178069999994026,0.0,0.0,55867.12629276,1112.35211849,0.00230573954419,2038.83626265,514.884669504,-29.3270998935,0.00462150612288,28.2734519092,0.0,0.0,0.0,1.20599313559,2074.69612826,794.81051216
1.2,2.09268007427E7,-0.101050951659,1177.23154644,962.795573462,-0.165241366509,-925.105273016,1154.45076835,-2.7666880939E-7,0.00324487992131,32.1952619521,-2.1491586356892145E-22,0.0032231586604326242,2.7160925741068084E-7,0.004178069999994026,0.0,0.0,55506.34314312,1111.99387269,0.00229951854089,2032.07150158,514.553747601,-29.0231776335,0.00498101373692,27.8838798827,0.0,0.0,0.0,1.20073818747,2049.78520474,791.092372915
1.3,2.09268929486E7,-0.118222339049,1273.37162837,959.903281426,-0.178173318193,-919.130880795,1246.6622905,-3.23681164151E-7,0.00350986151587,32.1949777032,-2.3218960756507987E-22,0.0034863665689028552,3.181999828396885E-7,0.004178069999994026,0.0,0.0,55147.87944918,1111.63794042,0.00229333771246,2025.35042694,514.224962771,-28.7238381529,0.00533144364702,27.5004306652,0.0,0.0,0.0,1.19552465333,2025.26478594,787.405379507
1.4,2.09269845585E7,-0.136680921701,1369.22436186,957.040761738,-0.190983684262,-913.194540066,1338.2782809,-3.74217314086E-7,0.00377404883751,32.1946952938,-2.4625679624418444E-22,0.003748785536192833,3.683145034431388E-7,0.004178069999994026,0.0,0.0,54791.698846800005,1111.28430688,0.00228719680181,2018.67275916,513.89830134,-28.4289914792,0.00567300973746,27.1229827561,0.0,0.0,0.0,1.19035196659,2001.12717608,783.749100822
1.5,2.09270755762E7,-0.156414616932,1464.79269527,954.207568448,-0.203673893637,-907.295656754,1429.3025149,-4.28244136249E-7,0.00403745004537,32.1944147122,-2.6579841521778416E-22,0.004010423666601494,4.2191969627421015E-7,0.004178069999994026,0.0,0.0,54437.765691600005,1110.93295749,0.00228109555589,2012.03822307,513.573749846,-28.1385498744,0.00600592022022,26.7514176548,0.0,0.0,0.0,1.18521957259,1977.36486996,780.123114727
1.6,2.09271660055E7,-0.177411483348,1560.07953289,951.403264298,-0.216245346065,-901.433648485,1519.73870902,-4.85728895653E-7,0.00430007317662,32.1941359469,-2.8522577265261015E-22,0.004271288943304498,4.789828263466903E-7,0.004178069999994026,0.0,0.0,54086.045041080004,1110.5838779,0.00227503372559,2005.44654779,513.251295038,-27.8524277685,0.0063303778109,26.3856197713,0.0,0.0,0.0,1.18012692827,1953.97054737,776.527007853
1.7,2.09272558499E7,-0.199659717963,1655.08773579,948.627420501,-0.228699412828,-895.607944299,1609.59052213,-5.46639237369E-7,0.00456192614889,32.1938589864,-3.0243443101528703E-22,0.004531389230703349,5.394715387310235E-7,0.004178069999994026,0.0,0.0,53736.50263752,1110.237054,0.00226901106564,1998.89746662,512.93092387,-27.5705416955,0.0066465798985,26.02547634,0.0,0.0,0.0,1.17507350188,1930.9370676,772.960375384
1.8,2.09273451132E7,-0.22314765339,1749.82012264,945.879616542,-0.241037437433,-889.817984371,1698.86155655,-6.10943178807E-7,0.00482301676254,32.1935838197,-3.2529252789033573E-22,0.0047907322767516145,6.033538508365689E-7,0.004178069999994026,0.0,0.0,53389.10489136,1109.89247188,0.0022630273346,1992.39071701,512.612623497,-27.2928102311,0.00695471870911,25.6708773367,0.0,0.0,0.0,1.17005877277,1908.25746415,769.422820856
1.9,2.09274337989E7,-0.2478637551,1844.27947057,943.159439966,-0.253260736285,-884.063219739,1787.55535917,-6.78609102196E-7,0.00508335270295,32.1933104357,-3.4779482297939504E-22,0.005049325715149344,6.705981448949673E-7,0.004178069999994026,0.0,0.0,53043.818865,1109.55011785,0.00225708229472,1985.92604043,512.296381274,-27.0191539337,0.00725498146382,25.321715398,0.0,0.0,0.0,1.16508223105,1885.92493963,765.913955951
2.0,2.09275219104E7,-0.27379661875,1938.46851593,940.466486191,-0.265370599337,-878.343112047,1875.67542252,-7.49605747232E-7,0.00534294154266,32.1930388236,-3.669618377095536E-22,0.00530717706758907,7.411731605999256E-7,0.004178069999994026,0.0,0.0,52700.6122569,1109.20997842,0.00225117571189,1979.50318231,511.982184747,-26.7494952858,0.00754755053112,24.9778857439,0.0,0.0,0.0,1.16014337742,1863.93286085,762.43340031
2.1,2.09276094511E7,-0.300934967566,2032.38995507,937.800358313,-0.277368290715,-872.657133285,1963.22518579,-8.23902203913E-7,0.0056017907436,32.1927689727,-3.748126192743061E-22,0.005564293745818453,8.150479879498277E-7,0.004178069999994026,0.0,0.0,52359.45338646,1108.87204033,0.0022453073556,1973.12189198,511.670021654,-26.483758639,0.00783260357377,24.6392861027,0.0,0.0,0.0,1.15524172286,1842.27475404,758.980781344
2.2,2.09276964246E7,-0.329267649798,2126.04644509,935.160666922,-0.289255049342,-867.004765545,2050.20803592,-9.01467905536E-7,0.00585990765911,32.1925008725,-3.8392461702705376E-22,0.005820683053800332,8.921920602421793E-7,0.004178069999994026,0.0,0.0,52020.3111792,1108.53629049,0.00223947699883,1966.78192259,511.359879917,-26.2218701592,0.00811031369094,24.3058166386,0.0,0.0,0.0,1.15037678842,1820.94430029,755.555734049
2.3,2.09277828341E7,-0.358783636232,2219.44060462,932.547029923,-0.30103208953,-861.385500781,2136.62730852,-9.82272621871E-7,0.00611729953605,32.1922345126,-3.9277627200695213E-22,0.006076352189632136,9.725751472439518E-7,0.004178069999994026,0.0,0.0,51683.15515224,1108.20271604,0.00223368441798,1960.48303099,511.051747645,-25.9637577756,0.00838084955499,23.9773798816,0.0,0.0,0.0,1.14554810499,1799.93533107,752.157900834
2.4,2.0927868683E7,-0.389472017757,2312.57501448,929.959072362,-0.312700601557,-855.798840572,2222.48628888,-1.06628645248E-6,0.00637397351673,32.1919698829,-4.0802078880775586E-22,0.006331308247631447,1.0561673485223522E-6,0.004178069999994026,0.0,0.0,51347.9554005,1107.8713043,0.00222792939285,1954.22497774,510.745613124,-25.7093511295,0.00864437554379,23.6538806601,0.0,0.0,0.0,1.14075521305,1779.24182393,748.786931348
2.5,2.09279539744E7,-0.421322002998,2405.45221844,927.396426257,-0.324261752232,-850.244295904,2307.78821294,-1.15347982021E-6,0.00662993664091,32.1917069734,-4.299590079937306E-22,0.006585558220289789,1.142939086918836E-6,0.004178069999994026,0.0,0.0,51014.68258284,1107.54204276,0.00222221170655,1948.00752697,510.441464814,-25.4585815258,0.00890105186847,23.3352260351,0.0,0.0,0.0,1.13599766251,1758.85789839,745.442482311
2.6,2.09280387115E7,-0.45432291599,2498.07472386,924.858730431,-0.335716685443,-844.721386941,2392.53626817,-1.24382346484E-6,0.00688519584769,32.191445774,-4.454291552597027E-22,0.006839109000060254,1.2328611022121913E-6,0.004178069999994026,0.0,0.0,50683.30790922,1107.21491913,0.00221653114541,1941.83044636,510.139291352,-25.2113818865,0.00915103469669,23.0213252371,0.0,0.0,0.0,1.13127501242,1738.77781191,742.124217354
2.7,2.09281228975E7,-0.488464193925,2590.44500239,922.345630356,-0.347066522684,-839.229642814,2476.73359454,-1.33728843682E-6,0.00713975797735,32.1911862752,-4.541072484599807E-22,0.007091967381248263,1.3259044448618417E-6,0.004178069999994026,0.0,0.0,50353.8031275,1106.88992129,0.00221088749897,1935.69350705,509.839081541,-24.9676867043,0.00939447627177,22.7120896052,0.0,0.0,0.0,1.12658683083,1718.99595598,738.831806863
2.8,2.09282065355E7,-0.523735384932,2682.56549063,919.856777995,-0.358312363581,-833.768601418,2560.38328535,-1.43384609127E-6,0.00739362977318,32.1909284672,-4.561784202327933E-22,0.007344140061787739,1.4220404699860595E-6,0.004178069999994026,0.0,0.0,50026.14051120001,1106.5670373,0.00220528055989,1929.59648356,509.540824353,-24.7274319996,0.00963152502794,22.4074325275,0.0,0.0,0.0,1.12193269454,1699.50685241,735.564927823
2.9,2.09282896286E7,-0.560126145922,2774.43859075,917.391831651,-0.369455286384,-828.337809202,2643.48838812,-1.533468082E-6,0.00764681788325,32.1906723407,-4.769132772986426E-22,0.007595633645074564,1.5212408313802851E-6,0.004178069999994026,0.0,0.0,49700.29284744,1106.2462554,0.0021997101239,1923.53915378,509.24450892,-24.490555277,0.0098623257013,22.1072693843,0.0,0.0,0.0,1.11731218895,1680.30514966,732.323263672
3.0,2.09283721796E7,-0.597626240476,2866.06667114,914.950455821,-0.380496348462,-822.93682098,2726.05190546,-1.63612635573E-6,0.00789932886214,32.1904178863,-4.988630674136996E-22,0.007846454641685463,1.623477475776092E-6,0.004178069999994026,0.0,0.0,49376.23342482,1105.92756398,0.00219417598973,1917.52129886,508.950124538,-24.2569954846,0.0100870194376,21.8115174923,0.0,0.0,0.0,1.11272490783,1661.38561936,729.106504154
3.1,2.09284541917E7,-0.636225536783,2957.45206697,912.532321054,-0.391436586775,-817.565199734,2808.07679583,-1.74179314641E-6,0.00815116917263,32.1901650948,-5.323257942517333E-22,0.008096609470982273,1.7287226371287953E-6,0.004178069999994026,0.0,0.0,49053.93602238,1105.61095165,0.00218867795909,1911.54270314,508.657660657,-24.0266929743,0.0103057438958,21.5200960513,0.0,0.0,0.0,1.10817045317,1642.7431529,725.914345183
3.2,2.09285356677E7,-0.675914005624,3048.59708086,910.137103811,-0.402277018345,-812.222516433,2889.56597442,-1.85044096973E-6,0.00840234518735,32.1899139572,-5.72036748090789E-22,0.008346104462658944,1.8369488311170582E-6,0.004178069999994026,0.0,0.0,48733.3748982,1105.29640714,0.00218321583657,1905.60315416,508.367106884,-23.7995894629,0.0105186333491,21.2329260925,0.0,0.0,0.0,1.10364843497,1624.37275813,722.746488701
3.3,2.09286166106E7,-0.716681718401,3139.50398341,907.764486327,-0.413018640691,-806.908349851,2970.5223139,-1.96204261766E-6,0.00865286319041,32.1896644646,-6.157049123943449E-22,0.008594945858632285,1.9481288497112527E-6,0.004178069999994026,0.0,0.0,48414.524778659994,1104.98391936,0.00217778942962,1899.70244254,508.078452975,-23.5756279948,0.0107258187812,20.9499304279,0.0,0.0,0.0,1.09915847109,1606.26955616,719.60264255
3.4,2.0928697023E7,-0.758518845213,3230.17501379,905.414156489,-0.423662432278,-801.622286389,3050.9486452,-2.07657115319E-6,0.00890272937893,32.1894166083,-6.449558715996584E-22,0.008843139814474368,2.0622357559137056E-6,0.004178069999994026,0.0,0.0,48097.360847820004,1104.67347739,0.00217239854849,1893.84036193,507.791688838,-23.3547529059,0.0109274279808,20.6710336019,0.0,0.0,0.0,1.09470018707,1588.42877835,716.482520338
3.5,2.09287769079E7,-0.801415652974,3320.61238028,903.085807695,-0.434209352941,-796.363919908,3130.84775826,-2.19399990517E-6,0.00915194986465,32.1891703794,-6.76497847405665E-22,0.009090692400673034,2.1792428785562416E-6,0.004178069999994026,0.0,0.0,47781.858737279996,1104.36507046,0.00216704300616,1888.01670898,507.506804523,-23.136909789,0.0111235856326,20.3961618443,0.0,0.0,0.0,1.09027321596,1570.84576323,713.38584132
3.6,2.09288562679E7,-0.845362503568,3410.81826084,900.779138743,-0.444660344291,-791.13285156,3210.22240277,-2.31430246321E-6,0.00940053067538,32.1889257695,-6.977881027242457E-22,0.009337609604694538,2.299123807275346E-6,0.004178069999994026,0.0,0.0,47467.99451616,1104.05868795,0.00216172261834,1882.23128327,507.223790228,-22.9220454592,0.0113144134042,20.1252430248,0.0,0.0,0.0,1.08587719819,1553.51595369,710.31233027
3.7,2.09289351058E7,-0.890349852055,3500.79480364,898.493852164,-0.455016329428,-785.928688285,3289.07528892,-2.43745267281E-6,0.0096484777565,32.1886827703,-7.154219882302543E-22,0.009583897331842985,2.4218523875388873E-6,0.004178069999994026,0.0,0.0,47155.7446008,1103.75398872,0.00215647729737,1876.54024777,506.942643818,-22.7105300865,0.0115002438117,19.8585757587,0.0,0.0,0.0,1.08151210354,1536.46345535,707.261716154
3.8,2.09290134243E7,-0.936368240627,3590.54411923,896.229430112,-0.465278098558,-780.750847222,3367.40908084,-2.56342461875E-6,0.00989579694952,32.1884413734,-7.52425377393709E-22,0.009829561384404672,2.547402704144935E-6,0.004178069999994026,0.0,0.0,46845.07401966,1103.44847838,0.0021516080447,1871.36677965,506.663412364,-22.5054431267,0.0116828338771,19.598812538,0.0,0.0,0.0,1.07717973486,1519.89516253,704.233555892
3.9,2.0929091226E7,-0.98340828714,3680.0682633,893.985422758,-0.475446443269,-775.598809285,3445.22638175,-2.69219259369E-6,0.0101424939443,32.1882015707,-8.106033136162458E-22,0.010074607414035288,2.6757490497606483E-6,0.004178069999994026,0.0,0.0,46535.95162734,1103.14498242,0.00214677089727,1866.2274226,506.386022011,-22.3030829738,0.0118604896631,19.3426805054,0.0,0.0,0.0,1.0728767688,1503.55934585,701.227461878
4.0,2.09291685133E7,-1.03146069383,3769.36925888,891.761559128,-0.485522226718,-770.472214548,3522.52975389,-2.82373112206E-6,0.0103885743407,32.1879633543,-8.735946988773458E-22,0.010319040982779928,2.806865948791694E-6,0.004178069999994026,0.0,0.0,46228.355828399996,1102.84349084,0.00214196569581,1861.12200741,506.110463628,-22.1034034435,0.0120333185261,19.0901166903,0.0,0.0,0.0,1.06860288718,1487.45203616,698.243188614
4.1,2.0929245289E7,-1.08051624836,3858.44910222,889.557572828,-0.495506296218,-765.370709311,3599.32172387,-2.95801496286E-6,0.0106340436641,32.1877267164,-9.559787294982114E-22,0.010562867579115901,2.940728160258498E-6,0.004178069999994026,0.0,0.0,45922.26540078,1102.54399378,0.00213719228327,1856.0503672,505.836728208,-21.9063593519,0.0122014253174,18.8410594686,0.0,0.0,0.0,1.06435777811,1471.56934991,695.280495333
4.2,2.09293215554E7,-1.13056582226,3947.30976317,887.373201944,-0.505399483578,-760.293945971,3675.60478319,-3.09501910542E-6,0.0108789073672,32.1874916492,-1.0348915230484393E-21,0.010806092618926769,3.0773106734933317E-6,0.004178069999994026,0.0,0.0,45617.65948824,1102.24648153,0.00213245050477,1851.01233743,505.564806868,-21.7119064898,0.0123649124511,18.5954485275,0.0,0.0,0.0,1.06014113586,1455.90748688,692.339145903
4.3,2.09293973149E7,-1.18160036941,4035.95318568,885.208188948,-0.515202605438,-755.241582888,3751.38138892,-3.23471876517E-6,0.0111231708308,32.1872581451,-1.1285686457190998E-21,0.011048721446934728,3.2165887039061517E-6,0.004178069999994026,0.0,0.0,45314.51759232,1101.9509445,0.00212774020758,1846.00775583,505.294690851,-21.520001597,0.0125238799701,18.3532248318,0.0,0.0,0.0,1.05595266072,1440.4627281,689.418908733
4.4,2.09294725702E7,-1.23361092451,4124.38128821,883.062280604,-0.524916463578,-750.21328426,3826.65396425,-3.37708937951E-6,0.0113668393654,32.1870261966,-1.2235879802946602E-21,0.011290759337846536,3.3585376889166023E-6,0.004178069999994026,0.0,0.0,45012.81956502,1101.65737324,0.00212306124107,1841.03646235,505.026371519,-21.3306023388,0.0126784256101,18.114330591,0.0,0.0,0.0,1.05179205893,1425.23143376,686.519556677
4.5,2.09295473234E7,-1.28658860162,4212.59596414,880.935227875,-0.534541845243,-745.208720003,3901.42489907,-3.5221066038E-6,0.0116099182119,32.1867957962,-1.304213251342518E-21,0.01153221149744213,3.503133283868825E-6,0.004178069999994026,0.0,0.0,44712.54560118,1101.36575844,0.0021184134567,1836.09829916,504.759840353,-21.1436672819,0.0128286448614,17.8787092274,0.0,0.0,0.0,1.0476590425,1410.21004114,683.640866949
4.6,2.0929621577E7,-1.34052459274,4300.59908221,878.826785832,-0.544079523439,-740.227565627,3975.69655054,-3.66974630739E-6,0.0118524125432,32.1865669367,-1.3786828618537132E-21,0.011773083063777834,3.650351358135345E-6,0.004178069999994026,0.0,0.0,44413.67623146,1101.0760909,0.00211379670793,1831.19311059,504.495088951,-20.9591558715,0.0129746310289,17.6463053454,0.0,0.0,0.0,1.04355332914,1395.39506272,680.782621031
4.7,2.09296953334E7,-1.39541016639,4388.39248691,876.736713571,-0.553530257235,-735.269502124,4049.47124367,-3.81998456979E-6,0.012094327465,32.1863396109,-1.4442198220342254E-21,0.012013379108332275,3.800167991198041E-6,0.004178069999994026,0.0,0.0,44116.19231526,1100.78836155,0.00210921085025,1826.32074307,504.232109024,-20.7770284095,0.0131164752905,17.4170647014,0.0,0.0,0.0,1.03947464211,1380.78308427,677.944604589
4.8,2.09297685947E7,-1.45123666624,4475.97799888,874.664774126,-0.562894792045,-730.334215849,4122.7512718,-3.97279767685E-6,0.0123356680172,32.1861138115,-1.4866152007659708E-21,0.012253104636980412,3.952559468929648E-6,0.004178069999994026,0.0,0.0,43820.07503394,1100.50256145,0.00210465574109,1821.48104516,503.970892397,-20.5972460327,0.0132542667529,17.1909341745,0.0,0.0,0.0,1.03542271015,1366.37076295,675.12660739
4.9,2.09298413634E7,-1.50799550974,4563.35741531,872.610734388,-0.572173859923,-725.421398415,4195.53889721,-4.12816211707E-6,0.0125764391747,32.1858895317,-1.5371564163269186E-21,0.01249226459119675,4.107502279817969E-6,0.004178069999994026,0.0,0.0,43525.30588416,1100.21868177,0.00210013123984,1816.67386743,503.711431008,-20.4197706919,0.0133880925069,16.9678617385,0.0,0.0,0.0,1.03139726735,1352.15482561,672.32842322
5.0,2.09299136415E7,-1.56567818681,4650.5325103,870.57436502,-0.581368179823,-720.53074658,4267.83635157,-4.28605457798E-6,0.0128166458485,32.1856667644,-1.5793666626146681E-21,0.012730863849086662,4.264973111396341E-6,0.004178069999994026,0.0,0.0,43231.86667152,1099.93671381,0.00209563720778,1811.89906251,503.453716899,-20.2445651317,0.0135180376801,16.7477964345,0.0,0.0,0.0,1.02739805307,1338.13206698,669.549849807
5.1,2.09299854314E7,-1.62427625857,4737.50503525,868.555440384,-0.590478457883,-715.661962143,4339.64583649,-4.44645194257E-6,0.0130562928869,32.1854455029,-1.6187073528835346E-21,0.012968907226245824,4.424948846656926E-6,0.004178069999994026,0.0,0.0,42939.7395039,1099.65664899,0.00209117350804,1807.15648498,503.197742224,-20.0715928708,0.0136441854882,16.5306883439,0.0,0.0,0.0,1.02342481178,1324.29934803,666.790688739
5.2,2.09300567351E7,-1.68378135603,4824.27671922,866.55373846,-0.599505387674,-710.814751845,4410.96952401,-4.60933128582E-6,0.0132953850763,32.1852257403,-1.6516609667098069E-21,0.013206399476963428,4.587406560572852E-6,0.004178069999994026,0.0,0.0,42648.906785700005,1099.37847883,0.00208674000562,1802.4459914,502.94349924,-19.9008181825,0.0137666172852,16.3164885631,0.0,0.0,0.0,1.01947729304,1310.65359432,664.050745394
5.3,2.09301275549E7,-1.74418517887,4910.84926928,864.569040775,-0.60844965046,-705.988827264,4481.80955708,-4.77466987128E-6,0.0135339271424,32.1850074702,-1.6803565295915378E-21,0.013443345295138912,4.752323516700579E-6,0.004178069999994026,0.0,0.0,42359.35121154,1099.10219497,0.00208233656731,1797.76744025,502.690980308,-19.7322060769,0.0138854126112,16.105149178,0.0,0.0,0.0,1.01555525134,1297.19179439,661.329828863
5.4,2.09301978928E7,-1.80547949422,4997.22437087,862.601132325,-0.617311915452,-701.183904718,4552.16805005,-4.94244514774E-6,0.013771923751,32.1847906858,-1.7014616537552775E-21,0.013679749315141407,4.919677163828089E-6,0.004178069999994026,0.0,0.0,42071.05576056,1098.82778917,0.00207796306168,1793.12069187,502.440177891,-19.5657222821,0.0140006492401,15.8966232397,0.0,0.0,0.0,1.01165844607,1283.91099827,658.62775188
5.5,2.09302677509E7,-1.86765613549,5083.40368815,860.649801509,-0.626092840047,-696.399705171,4622.04708913,-5.11263474595E-6,0.014009379509,32.1845753807,-1.7057197064817173E-21,0.013915616113012933,5.089445132703303E-6,0.004178069999994026,0.0,0.0,41784.00369066,1098.5552533,0.00207361935906,1788.50560849,502.191084552,-19.4013332271,0.0141124032244,15.6908647406,0.0,0.0,0.0,1.00778664134,1270.80831592,655.944330751
5.6,2.09303371314E7,-1.93070700115,5169.3888643,858.714840058,-0.634793070063,-691.635954143,4691.44873286,-5.28521647539E-6,0.0142462989653,32.1843615485,-1.725158636873323E-21,0.014150950207098664,5.2616052328140555E-6,0.004178069999994026,0.0,0.0,41498.1785328,1098.28457932,0.00206930533147,1783.92205416,501.943692955,-19.2390060246,0.0142207489397,15.4878285919,0.0,0.0,0.0,1.00393960599,1257.88091582,653.279385289
5.7,2.09304060361E7,-1.99462405363,5255.1815219,856.796042965,-0.643413239974,-686.892381612,4760.37501257,-5.46016832119E-6,0.0144826866119,32.184149183,-1.77532958793589E-21,0.014385756059020947,5.436135449276933E-6,0.004178069999994026,0.0,0.0,41213.56408584,1098.01575931,0.00206502085266,1779.36989472,501.697995857,-19.0787084546,0.0143257591275,15.2874706009,0.0,0.0,0.0,1.00011711341,1245.12602353,650.63273874
5.8,2.09304744673E7,-2.05939931818,5340.78326322,854.893208421,-0.651953973138,-682.168721932,4828.82793277,-5.63746844096E-6,0.0147185468845,32.1839382778,-1.8678959169968165E-21,0.014620038074767935,5.6130139397203856E-6,0.004178069999994026,0.0,0.0,40930.14441096,1097.74878546,0.00206076579802,1774.84899777,501.453986113,-18.9204089481,0.0144275049368,15.089747449,0.0,0.0,0.0,0.996318941543,1232.54092032,648.004217729
5.9,2.09305424267E7,-2.12502488177,5426.19567053,853.006137751,-0.660415882012,-677.464713744,4896.80947165,-5.81709516187E-6,0.0149538841635,32.183728827,-1.949354286996254E-21,0.01485380060538112,5.792219031299614E-6,0.004178069999994026,0.0,0.0,40647.903826559996,1097.48365004,0.0020565400446,1770.35923268,501.211656672,-18.7640765719,0.0145260559645,14.8946166712,0.0,0.0,0.0,0.99254487272,1220.12294185,645.393652185
6.0,2.09306099164E7,-2.19149289202,5511.42030643,851.13463535,-0.668799568373,-672.78009989,4964.32158148,-5.99902697759E-6,0.0151887027749,32.1835208243,-2.0576568921429547E-21,0.015087047947700194,5.973729217665626E-6,0.004178069999994026,0.0,0.0,40366.82690322,1097.22034545,0.00205234347102,1765.90047051,500.971000575,-18.6096810128,0.0146214802948,14.7020366351,0.0,0.0,0.0,0.988794693639,1207.86947684,642.800875289
6.1,2.09306769383E7,-2.25879555615,5596.45871416,849.278508619,-0.677105623526,-668.114627337,5031.36618898,-6.18324254546E-6,0.0154230069913,32.1833142638,-2.185028161028559E-21,0.01531978434545166,6.1575231562207695E-6,0.004178069999994026,0.0,0.0,40086.898458840005,1096.95886416,0.00204817595754,1761.47258402,500.732010954,-18.4571925634,0.0147138445369,14.511966521,0.0,0.0,0.0,0.985068195257,1195.77796586,640.225723408
6.2,2.09307434943E7,-2.3269251399,5681.31241786,847.437567912,-0.685334628511,-663.468047089,5097.94519582,-6.36972068364E-6,0.0156568010322,32.1831091397,-2.3247107517839004E-21,0.015552013989993669,6.3435796650591305E-6,0.004178069999994026,0.0,0.0,39808.10355372,1096.69919878,0.00204403738593,1757.07544759,500.494681029,-18.3065821076,0.0148032138622,14.3243663026,0.0,0.0,0.0,0.98136517272,1183.84590004,637.668036036
6.3,2.09308095862E7,-2.39587396659,5765.98292289,845.61162647,-0.6934871543,-658.840114112,5164.06047895,-6.55844036827E-6,0.0158900890654,32.1829054461,-2.4683736949810813E-21,0.015783741021003595,6.5318777203538545E-6,0.004178069999994026,0.0,0.0,39530.42748582,1096.44134196,0.00203992763954,1752.70893729,500.259004111,-18.1578211064,0.0148896520401,14.1391967282,0.0,0.0,0.0,0.977685425287,1172.07081992,635.127655739
6.4,2.0930875216E7,-2.46563441605,5850.47171613,843.800500368,-0.701563761996,-654.230587261,5229.71389099,-6.74938073081E-6,0.0161228752074,32.1827031772,-2.6307350367484246E-21,0.016014969527280147,6.722396453549648E-6,0.004178069999994026,0.0,0.0,39253.855786379994,1096.18528649,0.00203584660319,1748.37293075,500.024973594,-18.0108815849,0.014973221473,13.9564193022,0.0,0.0,0.0,0.974028756255,1160.45031428,632.6044281
6.5,2.09309403855E7,-2.53619892369,5934.7802662,842.004008457,-0.709565003025,-649.639229199,5294.90726066,-6.94252105528E-6,0.0163551635244,32.1825023273,-2.8034638076408444E-21,0.016245703547717413,6.9151151487271765E-6,0.004178069999994026,0.0,0.0,38978.37421512,1095.93102524,0.00203179416322,1744.06730719,499.792582962,-17.8657361183,0.0150539832301,13.7759962672,0.0,0.0,0.0,0.97039497289,1148.98201902,630.098201657
6.6,2.09310050965E7,-2.60755997952,6018.91002382,840.221972311,-0.717491419322,-645.065806327,5359.64239314,-7.1378407757E-6,0.0165869580328,32.182302891,-2.953050996964176E-21,0.016475947071763232,7.110013239795564E-6,0.004178069999994026,0.0,0.0,38703.96875622,1095.67855116,0.00202777020741,1739.7919474,499.561825778,-17.7223578199,0.0151319970802,13.5978905869,0.0,0.0,0.0,0.966783886351,1137.66361603,627.608827858
6.7,2.09310693507E7,-2.67971012723,6102.862422,838.454216173,-0.725343543514,-640.510088714,5423.92107042,-7.33531947347E-6,0.0168182627003,32.1821048626,-3.061168471660774E-21,0.016705704040335903,7.307070308257865E-6,0.004178069999994026,0.0,0.0,38430.62561376,1095.42785731,0.002023774625,1735.54673369,499.332695691,-17.5807203281,0.015207321524,13.422065929,0.0,0.0,0.0,0.963195311627,1126.49283217,625.136161004
6.8,2.09311331499E7,-2.75264196323,6186.63887634,836.700566904,-0.733121899097,-635.971850028,5487.74505166,-7.53493687486E-6,0.0170490814463,32.1819082367,-3.225196008919124E-21,0.016934978346569055,7.506266080288982E-6,0.004178069999994026,0.0,0.0,38158.331207639996,1095.17893682,0.00201980730664,1731.33154987,499.10518643,-17.4407977943,0.0152800138246,13.2484866487,0.0,0.0,0.0,0.959629067466,1115.46743819,622.680058196
6.9,2.09311964959E7,-2.82634813582,6270.24078529,834.96085393,-0.740827000613,-631.450867462,5551.11607361,-7.73667284853E-6,0.0172794181429,32.1817130078,-3.3679332910823475E-21,0.017163773836441885,7.707580424615708E-6,0.004178069999994026,0.0,0.0,37887.072169679996,1094.93178292,0.00201586814437,1727.14628124,498.879291804,-17.3025648716,0.0153501300382,13.0771177729,0.0,0.0,0.0,0.956084976311,1104.58524777,620.240379291
7.0,2.09312593903E7,-2.90082134421,6353.66953042,833.234909194,-0.748459353817,-626.946921675,5614.03585087,-7.94050740309E-6,0.0175092766153,32.1815191707,-3.4945640324837984E-21,0.01739209430946672,7.910993349881137E-6,0.004178069999994026,0.0,0.0,37616.8353393,1094.68638893,0.0020119570316,1722.99081456,498.655005701,-17.1659967024,0.0154177250433,12.9079249848,0.0,0.0,0.0,0.952562864235,1093.84411649,617.816986847
7.1,2.0931321835E7,-2.97605433774,6436.92647661,831.522567106,-0.756019455851,-622.459796723,5676.50607631,-8.1464206847E-6,0.0177386606426,32.1813267202,-3.647113346233846E-21,0.01761994351943385,8.11648500212364E-6,0.004178069999994026,0.0,0.0,37347.60775992,1094.44274823,0.00200807386312,1718.86503804,498.432322086,-17.0310689082,0.0154828525691,12.7408746082,0.0,0.0,0.0,0.949062560878,1083.24194087,615.40974608
7.2,2.09313838314E7,-3.05203991497,6520.01297235,829.823664497,-0.763507795396,-617.989279999,5738.52842133,-8.35439297475E-6,0.0179675739588,32.1811356509,-3.844464763501345E-21,0.01784732517509908,8.324035662886103E-6,0.004178069999994026,0.0,0.0,37079.376674939995,1094.20085432,0.00200421853502,1714.76884128,498.211235002,-16.8977575779,0.0155455652233,12.5759335932,0.0,0.0,0.0,0.945583899384,1072.7766575,613.018524812
7.3,2.09314453814E7,-3.12877092284,6602.93034997,828.138040574,-0.770924852842,-613.535162166,5800.10453628,-8.56440468757E-6,0.0181960202529,32.1809459579,-4.0194151297320444E-21,0.0180742429406994,8.533625746351148E-6,0.004178069999994026,0.0,0.0,36812.129524200005,1093.96070076,0.00200039094472,1710.70211529,497.991738566,-16.7660392579,0.015605914519,12.4130695018,0.0,0.0,0.0,0.942126716345,1062.44624207,610.643193432
7.4,2.09315064864E7,-3.2062402559,6685.67992585,826.465536869,-0.778271100435,-609.097237101,5861.23605071,-8.77643636815E-6,0.01842400317,32.180757636,-4.140677025668218E-21,0.018300700436812412,8.745235797622247E-6,0.004178069999994026,0.0,0.0,36545.853940379995,1093.72228118,0.00199659099092,1706.66475244,497.773826969,-16.6358909411,0.015663950901,12.252250494,0.0,0.0,0.0,0.938690851737,1052.24870853,608.283624844
7.5,2.09315671482E7,-3.28444085545,6768.26300068,824.805997202,-0.785547002435,-604.675301835,5921.92457373,-8.99046868994E-6,0.0186515263116,32.1805706803,-4.24027840097383E-21,0.018526701240814705,8.95884649003083E-6,0.004178069999994026,0.0,0.0,36280.53774522,1093.48558933,0.00199281857361,1702.65664647,497.557494475,-16.5072900575,0.0157197237711,12.0934453139,0.0,0.0,0.0,0.935276148866,1042.1821082,605.93969443
7.6,2.09316273684E7,-3.36336570879,6850.68085964,823.159267633,-0.792753015262,-600.269156493,5982.17169429,-9.20648245267E-6,0.0188785932366,32.1803850858,-4.319330051510339E-21,0.01875224888751209,9.174438623474705E-6,0.004178069999994026,0.0,0.0,36016.16894628,1093.25061898,0.00198907359401,1698.67769243,497.34273542,-16.380214464,0.0157732815132,11.9366232765,0.0,0.0,0.0,0.931882454312,1032.24452896,603.611280003
7.7,2.09316871484E7,-3.44300784842,6932.9347727,821.525196419,-0.799889587644,-595.87860424,6041.97898152,-9.42445858026E-6,0.0191052074615,32.1802008476,-4.437259560606983E-21,0.018977346869941777,9.391993121725153E-6,0.004178069999994026,0.0,0.0,35752.73573346,1093.01736404,0.00198535595458,1694.7277867,497.129544211,-16.2546424351,0.0158246715171,11.7817542554,0.0,0.0,0.0,0.92850961787,1022.43409444,601.298261766
7.8,2.09317464899E7,-3.52336035129,7015.02599475,819.903633977,-0.806957160757,-591.503451225,6101.34798501,-9.64437811867E-6,0.0193313724614,32.180017961,-4.589808877267656E-21,0.019201998639716108,9.611491030765351E-6,0.004178069999994026,0.0,0.0,35490.2264757,1092.78581845,0.00198166555901,1690.80682692,496.917915324,-16.1305526535,0.0158739402019,11.6288086693,0.0,0.0,0.0,0.925157492499,1012.74896319,599.000522272
7.9,2.09318053943E7,-3.60441633802,7096.95576588,818.294432841,-0.813956168365,-587.143506528,6160.28023513,-9.86622223388E-6,0.0195570916703,32.1798364212,-4.7592052663568444E-21,0.019426207607710137,9.832913516670434E-6,0.004178069999994026,0.0,0.0,35228.6297178,1092.55597625,0.00197800231216,1686.91471204,496.707843304,-16.0079242011,0.0159211330391,11.4777574704,0.0,0.0,0.0,0.921825934269,1003.18732794,596.717946383
8.0,2.09318638633E7,-3.68616897224,7178.72531155,816.697447619,-0.820887036956,-582.798582107,6218.77724326,-1.00899722099E-5,0.0197823684816,32.1796562235,-4.894907511964099E-21,0.019649977144691865,1.0056241863315659E-5,0.004178069999994026,0.0,0.0,34967.93417706,1092.32783153,0.00197436612009,1683.05134223,496.499322763,-15.8867365503,0.0159662945745,11.3285721325,0.0,0.0,0.0,0.918514802308,993.74741486,594.450421232
8.1,2.09319218982E7,-3.76861145979,7260.3358428,815.112534962,-0.827750185878,-578.468492742,6276.84050217,-1.03156094467E-5,0.0200072062493,32.1794773632,-5.037829931716479E-21,0.019873310581837916,1.0281457470829415E-5,0.004178069999994026,0.0,0.0,34708.12874046,1092.10137849,0.00197075689001,1679.21661891,496.29234838,-15.7669695554,0.0160094684499,11.181224639,0.0,0.0,0.0,0.915223958752,984.42748279,592.197836184
8.2,2.09319795006E7,-3.85173704805,7341.78855648,813.539553518,-0.834546027462,-574.153055994,6334.4714862,-1.05431154584E-5,0.0202316082876,32.1792998358,-5.1622390859442985E-21,0.020096211211249188,1.0508541853186814E-5,0.004178069999994026,0.0,0.0,34449.20246154,1091.87661137,0.00196717453026,1675.4104447,496.086914899,-15.6486034442,0.0160506974241,11.0356874718,0.0,0.0,0.0,0.911953268697,975.225822554,589.960082797
8.3,2.09320366719E7,-3.93553902526,7423.08463542,811.978363902,-0.841274967162,-569.852092145,6391.67165161,-1.07724718713E-5,0.0204555778723,32.1791236369,-5.278132138208553E-21,0.02031868228663841,1.0737476636777277E-5,0.004178069999994026,0.0,0.0,34191.14455734,1091.65352448,0.00196361895033,1671.63272342,495.88301713,-15.5316188097,0.0160900233932,10.8919336002,0.0,0.0,0.0,0.908702600147,966.14075626,587.737054787
8.4,2.09320934135E7,-4.02001071982,7504.22524862,810.428828654,-0.847937403664,-565.56542416,6448.44243682,-1.10036604219E-5,0.0206791182408,32.1789487618,-5.3714390062987315E-21,0.02054072702361661,1.0968243558055421E-5,0.004178069999994026,0.0,0.0,33933.944405580005,1091.43211223,0.00196009006081,1667.88336008,495.680649946,-15.4159966027,0.0161274874108,10.7499364703,0.0,0.0,0.0,0.905471823966,957.170636617,585.528647993
8.5,2.0932149727E7,-4.10514549959,7585.21155147,808.890812206,-0.854533729025,-561.29287763,6504.78526268,-1.12366629554E-5,0.0209022325929,32.1787752062,-5.5065858560006625E-21,0.02076234860049528,1.1200824462165964E-5,0.004178069999994026,0.0,0.0,33677.5915419,1091.21236906,0.00195658777337,1664.16226085,495.47980828,-15.3017181236,0.0161631297069,10.6096699945,0.0,0.0,0.0,0.902260813838,948.313846282,583.334760339
8.6,2.09322056136E7,-4.19093677131,7666.0446859,807.36418085,-0.861064328778,-557.034280735,6560.70153271,-1.14714614233E-5,0.0211249240912,32.1786029658,-5.644324563402122E-21,0.02098355015857281,1.1435201300823764E-5,0.004178069999994026,0.0,0.0,33422.075656919995,1090.99428951,0.00195311200078,1660.46933301,495.280487131,-15.1887650149,0.0161969897071,10.471108541,0.0,0.0,0.0,0.899069446212,939.568797212,581.1552918
8.7,2.09322610748E7,-4.27737797679,7746.72577774,805.848712349,-0.867529485392,-552.789402092,6616.19263145,-1.1708037874E-5,0.0213471958537,32.1784320362,-5.757625760012306E-21,0.02120433479491528,1.167135612217248E-5,0.004178069999994026,0.0,0.0,33167.38286772,1090.77514127,0.00194991423002,1657.14977625,495.082748025,-15.0790613359,0.0162311965311,10.3355580724,0.0,0.0,0.0,0.895899739467,931.053843458,578.990079414
8.8,2.09323161119E7,-4.36446258121,7827.25592664,804.34417181,-0.873929454633,-548.558003872,6671.25991762,-1.19463744198E-5,0.0215690509263,32.1782624132,-5.898326590883641E-21,0.02142470553491174,1.1909271038584338E-5,0.004178069999994026,0.0,0.0,32913.49890456,1090.5576182,0.0019467453623,1653.86172164,494.886520332,-14.970638072,0.0162637262549,10.2016409178,0.0,0.0,0.0,0.892749227384,922.646526167,576.838952147
8.9,2.09323707263E7,-4.45218408249,7907.63621598,802.850434862,-0.880264601671,-544.339925995,6725.90473124,-1.21864532631E-5,0.0217904923098,32.1780940928,-6.010887257631898E-21,0.021644665359203213,1.214892825255783E-5,0.004178069999994026,0.0,0.0,32660.41416258,1090.34176396,0.00194360080593,1650.59889276,494.691798085,-14.8634436072,0.0162945778451,10.0693096111,0.0,0.0,0.0,0.889617759521,914.343239266,574.701819294
9.0,2.09324249193E7,-4.54053601477,7987.86771683,801.3673792,-0.886535286252,-540.135010978,6780.12839645,-1.24282567058E-5,0.022011522971,32.1779270706,-6.070870248852738E-21,0.02186421721468354,1.2390310065999621E-5,0.004178069999994026,0.0,0.0,32408.1191928,1090.12757331,0.0019404804847,1647.36121056,494.498576566,-14.7574617445,0.016323787019,9.93854129356,0.0,0.0,0.0,0.886505228711,906.142574749,572.578592294
9.1,2.09324786923E7,-4.62951194784,8067.95148813,799.894884128,-0.892741862295,-535.943103603,6833.93222174,-1.26717671479E-5,0.0222321458433,32.1777613428,-6.147144914591417E-21,0.02208336401490041,1.2633398878734862E-5,0.004178069999994026,0.0,0.0,32156.60468226,1089.91504108,0.00193738432331,1644.1485969,494.306851111,-14.6526765747,0.0163513888026,9.80931349133,0.0,0.0,0.0,0.883411530225,898.043149357,570.469184399
9.2,2.09325320464E7,-4.71910548658,8147.88857686,798.432830531,-0.898884677995,-531.764050882,6887.31750023,-1.29169670854E-5,0.0224523638269,32.1775969052,-6.247486826697476E-21,0.022302108640513713,1.2878177186902917E-5,0.004178069999994026,0.0,0.0,31905.8614515,1089.70416217,0.00193431224736,1640.96097457,494.116617113,-14.5490724711,0.0163774175462,9.68160410685,0.0,0.0,0.0,0.880336561729,890.04360407,568.373510642
9.3,2.0932584983E7,-4.80931027033,8227.68001819,796.981100845,-0.904964075918,-527.597702016,6940.28550981,-1.31638391094E-5,0.0226721797892,32.177433754,-6.36523120952088E-21,0.022520453939811252,1.312462758152495E-5,0.004178069999994026,0.0,0.0,31655.880452639998,1089.49493152,0.00193126418331,1637.79826727,493.927870018,-14.446634083,0.0164019069389,9.55539141103,0.0,0.0,0.0,0.877280223252,882.142603609,566.291487809
9.4,2.09326375033E7,-4.90011997239,8307.32683563,795.539579033,-0.910980393107,-523.443908359,6992.83751343,-1.34123659038E-5,0.0228915965655,32.1772718852,-6.452243570670646E-21,0.02273840272888059,1.3372732746613186E-5,0.004178069999994026,0.0,0.0,31406.65276692,1089.28734416,0.00192824005848,1634.66039958,493.740605325,-14.3453463302,0.0164248900236,9.43065403549,0.0,0.0,0.0,0.874242417144,874.338835948,564.223034412
9.5,2.09326896086E7,-4.99152829945,8386.83004116,794.108150557,-0.916933961164,-519.302523385,7044.97475925,-1.36625302446E-5,0.0231106169593,32.1771112949,-6.579985118086367E-21,0.022955957792468493,1.3622475458082269E-5,0.004178069999994026,0.0,0.0,31158.169602719998,1089.08139514,0.00192523980103,1631.54729698,493.554818587,-14.2451943979,0.0164463992104,9.30737096494,0.0,0.0,0.0,0.871223048044,866.631011837,562.168070662
9.6,2.09327413002E7,-5.08352899106,8466.19063542,792.686702349,-0.922825106359,-515.173402649,7096.69848092,-1.39143149979E-5,0.0233292437427,32.1769519793,-6.704764543372935E-21,0.023173121883866353,1.3873838582030412E-5,0.004178069999994026,0.0,0.0,30910.422293460004,1088.87707959,0.00192226334,1628.45888582,493.370505409,-14.1461637305,0.0164664662906,9.1855215298,0.0,0.0,0.0,0.868222022841,859.017864342,560.12651844
9.7,2.09327925792E7,-5.1761158191,8545.40960784,791.275122788,-0.928654149706,-511.056403758,7148.00989772,-1.41677031186E-5,0.0235474796566,32.1767939346,-6.796590354930632E-21,0.02338989772565502,1.4126805073421573E-5,0.004178069999994026,0.0,0.0,30663.402295379998,1088.67439271,0.0019193106052,1625.39509328,493.187661444,-14.048240027,0.0164851224504,9.06508539897,0.0,0.0,0.0,0.86523925064,851.498148391,558.098301274
9.8,2.09328434469E7,-5.26928258724,8624.48793676,789.873301675,-0.934421407063,-506.951386332,7198.91021479,-1.4422677649E-5,0.0237653274114,32.176637157,-6.910261821258844E-21,0.023606288010048583,1.438135797442389E-5,0.004178069999994026,0.0,0.0,30417.1011858,1088.47332972,0.00191638152729,1622.3558474,493.006282399,-13.9514092357,0.0165023982834,8.94604257275,0.0,0.0,0.0,0.86227464273,844.070640334,556.083344311
9.9,2.09328939044E7,-5.36302313045,8703.4265896,788.481130206,-0.940127189216,-502.858211975,7249.40062334,-1.46792217172E-5,0.0239827896874,32.176481643,-7.070956984752562E-21,0.023822295399180845,1.4637480413378354E-5,0.004178069999994026,0.0,0.0,30171.51066096,1088.27388593,0.00191347603772,1619.34107707,492.826364029,-13.8556575489,0.0165183238036,8.82837337598,0.0,0.0,0.0,0.859328112546,836.73413751,554.08157429
10.0,2.09329439529E7,-5.45733131452,8782.22652299,787.098500951,-0.945771801968,-498.776744242,7299.48230086,-1.49373185362E-5,0.0241998691348,32.1763273887,-7.224617107559285E-21,0.024037922525506395,1.4895155603079933E-5,0.004178069999994026,0.0,0.0,29926.62253404,1088.07605668,0.00191059406873,1616.35071197,492.647902138,-13.7609713982,0.0165329284576,8.71205845129,0.0,0.0,0.0,0.856399575639,829.487457828,552.092919521
10.1,2.09329935937E7,-5.5522010355,8860.88868289,785.725307826,-0.951355546218,-494.706848607,7349.15641124,-1.5196951402E-5,0.0244165683745,32.1761743907,-7.388644660224471E-21,0.024253171992258977,1.5154366839517069E-5,0.004178069999994026,0.0,0.0,29682.42873354,1087.87983737,0.00190773555335,1613.38468261,492.470892578,-13.6673374496,0.016546241137,8.59707875254,0.0,0.0,0.0,0.853488949642,822.329439357,550.117309859
10.2,2.09330428278E7,-5.64762621927,8939.41400474,784.361446074,-0.956878718052,-490.648392431,7398.42410507,-1.54581036925E-5,0.0246328899982,32.1760226453,-7.521569925663394E-21,0.024468046373795255,1.5415097500668462E-5,0.004178069999994026,0.0,0.0,29438.921301180002,1087.68522346,0.00190490042536,1610.44292028,492.29533125,-13.5747425989,0.0165582901898,8.4834155384,0.0,0.0,0.0,0.850596154238,815.258939922,548.154676677
10.3,2.09330916563E7,-5.74360082107,9017.8034136,783.006812238,-0.962341608813,-486.601244937,7447.28651973,-1.57207588663E-5,0.0248488365691,32.175872149,-7.659308640937293E-21,0.02468254821588131,1.5677331045127975E-5,0.004178069999994026,0.0,0.0,29196.09239022,1087.49221046,0.00190208861931,1607.52535708,492.121214101,-13.4831739671,0.0165691034321,8.37105036608,0.0,0.0,0.0,0.847721111126,808.274836717,546.204952846
10.4,2.09331400805E7,-5.84011882498,9096.05782426,781.661304144,-0.967744505194,-482.565277172,7495.74477963,-1.59849004611E-5,0.0250644106217,32.1757228983,-7.737804903658643E-21,0.0248966800360364,1.594105101061494E-5,0.004178069999994026,0.0,0.0,28953.93426354,1087.30079393,0.0018993000705,1604.63192586,491.948537124,-13.3926188961,0.0165787081589,8.25996508518,0.0,0.0,0.0,0.844863743994,801.376025918,544.268072711
10.5,2.09331881014E7,-5.93717424349,9174.17814135,780.324820874,-0.973087689305,-478.540361988,7543.79999636,-1.62505120929E-5,0.0252796146625,32.1755748898,-7.794085246801702E-21,0.025110444324105915,1.6206241013057436E-5,0.004178069999994026,0.0,0.0,28712.4392922,1087.11096946,0.00189653471496,1601.76256026,491.777296357,-13.3030649438,0.0165871311557,8.15014183177,0.0,0.0,0.0,0.842023978486,794.561422314,542.343972065
10.6,2.09332357201E7,-6.03476111705,9252.16525953,778.997262747,-0.978371438752,-474.526374004,7591.45326891,-1.65175774543E-5,0.0254944511706,32.17542812,-7.895537960779546E-21,0.02532384354220409,1.647288474510258E-5,0.004178069999994026,0.0,0.0,28471.599953340003,1086.92273273,0.00189379248945,1598.91719464,491.607487885,-13.2144998804,0.0165943987084,8.04156302246,0.0,0.0,0.0,0.839201742168,787.82995894,540.43258813
10.7,2.09332829378E7,-6.13287351362,9330.02006352,777.678531297,-0.983596026723,-470.523189586,7638.70568379,-1.67860803135E-5,0.0257089225975,32.1752825857,-7.97255316323846E-21,0.025536880125458853,1.6740965974970635E-5,0.004178069999994026,0.0,0.0,28231.408828980002,1086.73607944,0.00189107333144,1596.09576414,491.439107836,-13.126911684,0.0166005366141,7.93421134877,0.0,0.0,0.0,0.836396964506,781.180586721,538.533859534
10.8,2.09333297554E7,-6.23150552822,9407.74342832,776.368529253,-0.988761722042,-466.530686815,7685.55831526,-1.7056004513E-5,0.0259230313678,32.1751382833,-8.037719875289996E-21,0.025749556482069117,1.701046854513718E-5,0.004178069999994026,0.0,0.0,27991.85860392,1086.55100535,0.00188837717912,1593.29820462,491.272152382,-13.0402885365,0.0166055701911,7.82806977146,0.0,0.0,0.0,0.83360957683,774.612274125,536.647726287
10.9,2.09333761741E7,-6.33065128252,9485.33621924,775.067160519,-0.993868789257,-462.548745462,7732.01222545,-1.73273339686E-5,0.0261367798792,32.1749952097,-8.109551363679115E-21,0.025961874993820428,1.7281376371416397E-5,0.004178069999994026,0.0,0.0,27752.94206442,1086.36750626,0.00188570397137,1590.52445265,491.106617738,-12.9546188197,0.0166095242885,7.72312151518,0.0,0.0,0.0,0.830839512306,768.124006822,534.774129762
11.0,2.09334221948E7,-6.43030492439,9562.79929207,773.774330153,-0.998917488708,-458.577246962,7778.06846457,-1.7600052668E-5,0.0263501705033,32.1748533617,-8.183604444409943E-21,0.02617383801619958,1.7553673441471384E-5,0.004178069999994026,0.0,0.0,27514.65209658,1086.18557802,0.00188305364775,1587.77444552,490.942500162,-12.8698911115,0.0166124232963,7.61935006302,0.0,0.0,0.0,0.828086705909,761.714787353,532.913012672
11.1,2.09334678187E7,-6.5304606275,9640.13349318,772.48994435,-1.00390807659,-454.616074389,7823.72807103,-1.78741446698E-5,0.0265632055856,32.1747127358,-8.294684059146356E-21,0.02638544787891027,1.78273438139547E-5,0.004178069999994026,0.0,0.0,27276.981684899998,1086.00521654,0.00188042614851,1585.04812124,490.779795953,-12.7860941817,0.0166142911544,7.51673915139,0.0,0.0,0.0,0.825351094394,755.383634807,531.06431905
11.2,2.09335130468E7,-6.63111259091,9717.33965962,771.213910419,-1.00884080503,-450.665112429,7868.99207166,-1.81495941023E-5,0.0267758874457,32.1745733291,-8.387990938128464E-21,0.026596706885987673,1.8102371617190573E-5,0.004178069999994026,0.0,0.0,27039.923910420002,1085.82641775,0.00187782141455,1582.34541848,490.618501453,-12.7032169887,0.0166151513619,7.41527276487,0.0,0.0,0.0,0.822632616268,749.129584499,529.227994226
11.3,2.093355788E7,-6.73225503866,9794.41861925,769.946136769,-1.01371592216,-446.724247359,7913.86148182,-1.84263851626E-5,0.0269882183779,32.1744351383,-8.472411449405305E-21,0.02680761731631413,1.8378741048086284E-5,0.004178069999994026,0.0,0.0,26803.471949759998,1085.64917764,0.00187523938745,1579.66627663,490.458613043,-12.6212486758,0.0166150269857,7.31493513128,0.0,0.0,0.0,0.819931211761,742.951687666,527.403984813
11.4,2.09336023195E7,-6.83388221938,9871.37119084,768.686532884,-1.01853367214,-442.793367016,7958.33730556,-1.8704502115E-5,0.0272002006513,32.1742981603,-8.521286488657872E-21,0.027018181423676416,1.865643637121542E-5,0.004178069999994026,0.0,0.0,26567.61907326,1085.47349225,0.00187268000942,1577.01063573,490.300127145,-12.5401785676,0.0166139406697,7.21571071673,0.0,0.0,0.0,0.817246822801,736.849011163,525.592238677
11.5,2.09336463661E7,-6.9359884059,9948.19818417,767.435009314,-1.02329429529,-438.872360783,8002.42053584,-1.89839292907E-5,0.0274118365103,32.174162392,-8.613112307434838E-21,0.02722840143733872,1.8935441917500095E-5,0.004178069999994026,0.0,0.0,26332.35864372,1085.29935766,0.00187014322334,1574.3784365,490.143040222,-12.4599961661,0.016611914643,7.11758422094,0.0,0.0,0.0,0.814579392985,730.820637162,523.792704927
11.6,2.09336900209E7,-7.03856789484,10024.9004002,766.191477649,-1.02799802811,-434.961119559,8046.11215458,-1.92646510858E-5,0.0276231281746,32.1740278305,-8.696792289210716E-21,0.027438279562042645,1.9215742083294192E-5,0.004178069999994026,0.0,0.0,26097.6841152,1085.12676999,0.00186762897269,1571.76962029,489.987348774,-12.3806911483,0.0166089707281,7.02054057253,0.0,0.0,0.0,0.811928867555,724.86566287,522.005333889
11.7,2.09337332848E7,-7.14161500628,10101.4786309,764.955850506,-1.03264510334,-431.059535736,8089.41313289,-1.95466519612E-5,0.0278340778396,32.1738944726,-8.761218473594752E-21,0.02764781797858015,1.949732132940935E-5,0.004178069999994026,0.0,0.0,25863.589031159998,1084.9557254,0.00186513720159,1569.18412914,489.83304934,-12.3022533619,0.016605130349,6.92456492447,0.0,0.0,0.0,0.809295193366,718.983200244,520.230077088
11.8,2.09337761588E7,-7.24512408336,10177.9336599,763.728041513,-1.03723575005,-427.167503182,8132.3244312,-1.9829916441E-5,0.0280446876769,32.1737623153,-8.824904127675682E-21,0.027857018843736255,1.9780164179854452E-5,0.004178069999994026,0.0,0.0,25630.06702374,1084.78622009,0.00186266785477,1566.62190568,489.680138499,-12.2246728224,0.0166004145393,6.82964264966,0.0,0.0,0.0,0.806678318869,713.17237571,518.466887232
11.9,2.09338186439E7,-7.3490894919,10254.2662621,762.507965288,-1.04177019367,-423.284917216,8174.84699939,-2.01144291117E-5,0.0282549598342,32.1736313559,-8.854525370682325E-21,0.028065884290919323,2.0064255221205365E-5,0.004178069999994026,0.0,0.0,25397.11181196,1084.61825032,0.00186022087758,1564.08289321,489.528612865,-12.1479397102,0.0165948439495,6.73575933653,0.0,0.0,0.0,0.804078194074,707.4323299,516.71571819
12.0,2.0933860741E7,-7.45350562008,10330.4772037,761.295537426,-1.04624865606,-419.411674584,8216.98177695,-2.0400174621E-5,0.028464896436,32.1735015912,-8.839714772870809E-21,0.028274416430218306,2.0349579101172575E-5,0.004178069999994026,0.0,0.0,25164.717200760002,1084.45181238,0.00185779621594,1561.56703562,489.378469091,-12.0720443672,0.0165884388549,6.6429007848,0.0,0.0,0.0,0.801494770537,701.762217384,514.976524973
12.1,2.09339024509E7,-7.55836687804,10406.567243,760.090674483,-1.05067135558,-415.547673446,8258.7296931,-2.06871376772E-5,0.0286744995834,32.1733730185,-8.855265933185659E-21,0.028482617348631986,2.0636120528028178E-5,0.004178069999994026,0.0,0.0,24932.8770795,1084.28690258,0.00185539381639,1559.07427744,489.229703865,-11.9969772936,0.0165812191625,6.55105300131,0.0,0.0,0.0,0.798928001322,696.16120641,513.249263718
12.2,2.09339437748E7,-7.66366769759,10482.5371295,758.893293957,-1.05503850713,-411.692813345,8300.09166695,-2.09753030479E-5,0.0288837713547,32.1732456349,-8.939686447441881E-21,0.028690489110469994,2.092386426940272E-5,0.004178069999994026,0.0,0.0,24701.58542094,1084.12351732,0.00185301362603,1556.60456378,489.082313912,-11.9227291452,0.0165732044185,6.46020219592,0.0,0.0,0.0,0.796377840985,690.628478656,511.533891668
12.3,2.09339847133E7,-7.76940253181,10558.3876049,757.703314279,-1.05935032222,-407.846995197,8341.06860766,-2.12646555592E-5,0.0290927138056,32.1731194376,-9.07001986478405E-21,0.028898033757524737,2.1212795151425728E-5,0.004178069999994026,0.0,0.0,24470.836279979998,1083.96165298,0.00185065559255,1554.15784036,488.936295994,-11.8492907307,0.0165644138149,6.37033477755,0.0,0.0,0.0,0.793844245548,685.16322898,509.830367155
12.4,2.09340252676E7,-7.87556585476,10634.1194026,756.520654789,-1.063607009,-404.010121265,8381.6614145,-2.1555180095E-5,0.0293013289693,32.1729944238,-9.216644957847272E-21,0.02910525330947244,2.1502898057808984E-5,0.004178069999994026,0.0,0.0,24240.62379228,1083.80130602,0.00184831966419,1551.73405348,488.791646904,-11.7766530082,0.0165548661965,6.28143735024,0.0,0.0,0.0,0.791327172468,679.764665179,508.138649582
12.5,2.09340654383E7,-7.98215216109,10709.7332481,755.345235729,-1.06780877236,-400.182095139,8421.87097709,-2.18468615955E-5,0.029509618857,32.1728705906,-9.384004910913898E-21,0.029312149763815857,2.1794157928987103E-5,0.004178069999994026,0.0,0.0,24010.94217342,1083.64247293,0.00184600578978,1549.33315002,488.648363473,-11.7048070831,0.0165445800674,6.19349670937,0.0,0.0,0.0,0.788826580623,674.432007752,506.458699405
12.6,2.09341052265E7,-8.08915596579,10785.2298589,754.176978224,-1.07195581392,-396.362821724,8461.69817542,-2.21396850569E-5,0.0297175854579,32.1727479355,-9.428436769780227E-21,0.029518725096399953,2.208655976108619E-5,0.004178069999994026,0.0,0.0,23781.78571758,1083.48515023,0.00184371391865,1546.95507745,488.506442565,-11.6337442047,0.0165335735978,6.10649983786,0.0,0.0,0.0,0.786342430277,669.164489671,504.790478117
12.7,2.0934144633E7,-8.19657180382,10860.6099447,753.015804269,-1.07604833214,-392.552207213,8501.14388008,-2.24336355303E-5,0.0299252307395,32.1726264556,-9.47212809822886E-21,0.02972498126158377,2.2380088605178996E-5,0.004178069999994026,0.0,0.0,23553.1487964,1083.32933448,0.00184144400073,1544.59978377,488.365881079,-11.5634557642,0.0165218646296,6.02043390256,0.0,0.0,0.0,0.783874683064,663.961356152,503.133948226
12.8,2.09341836586E7,-8.3043942298,10935.8742075,751.861636717,-1.08008652235,-388.750159075,8540.2089523,-2.27286981207E-5,0.0301325566481,32.1725061484,-9.6224558469902E-21,0.02993092019235501,2.267472956625362E-5,0.004178069999994026,0.0,0.0,23325.02585802,1083.17502227,0.00183919598644,1542.26721756,488.226675944,-11.4939332915,0.0165094706833,5.93528625067,0.0,0.0,0.0,0.781423301961,658.821864436,501.489073246
12.9,2.09342223042E7,-8.41261781771,11011.0233415,750.714399259,-1.08407057679,-384.956586035,8578.89424417,-2.30248579864E-5,0.0303395651086,32.1723870111,-9.706876364454986E-21,0.030136543800903026,2.2970467802640512E-5,0.004178069999994026,0.0,0.0,23097.41142582,1083.02221025,0.00183696982675,1539.95732795,488.088824125,-11.4251684533,0.0164964089635,5.85104440616,0.0,0.0,0.0,0.778988251264,653.745283572,499.855817672
13.0,2.09342605707E7,-8.52123716058,11086.0580335,749.574016418,-1.08800068466,-381.171398054,8617.20059867,-2.33221003379E-5,0.0305462580251,32.1722690412,-9.6735525013882E-21,0.030341853978275022,2.3267288524809292E-5,0.004178069999994026,0.0,0.0,22870.30009752,1082.87089509,0.00183476547316,1537.6700646,487.952322618,-11.3571530496,0.0164826963648,5.76769606645,0.0,0.0,0.0,0.776569496567,648.730894205,498.234146969
13.1,2.09342984589E7,-8.63024687018,11160.9789627,748.44041353,-1.0918770322,-377.394506317,8655.12884987,-2.36204104373E-5,0.0307526372809,32.1721522361,-9.616531655959671E-21,0.03054685259517819,2.356517699485308E-5,0.004178069999994026,0.0,0.0,22643.68654428,1082.72107348,0.00183258287766,1535.4053777,487.81716845,-11.2898790125,0.0164683494778,5.68522909893,0.0,0.0,0.0,0.774167004735,643.777988369,496.624027553
13.2,2.09343359696E7,-8.73964157676,11235.7868009,747.313516735,-1.09569980268,-373.62582321,8692.67982299,-2.39197735974E-5,0.0309587047388,32.1720365932,-9.529149051717228E-21,0.030751541501979743,2.386411852562904E-5,0.004178069999994026,0.0,0.0,22417.5655092,1082.57274216,0.00183042199278,1533.16321799,487.683358682,-11.2233384026,0.0164533845944,5.60363153775,0.0,0.0,0.0,0.771780743884,638.885869283,495.025426772
13.3,2.09343731036E7,-8.8494159287,11310.4822126,746.193252961,-1.09946917652,-369.865262312,8729.85433456,-2.42201751808E-5,0.0311644622413,32.1719221099,-9.45361493845512E-21,0.03095592252864957,2.4164098479669797E-5,0.004178069999994026,0.0,0.0,22191.93180696,1082.42589793,0.00182828277151,1530.94353672,487.550890403,-11.1575234074,0.0164378177133,5.52289158058,0.0,0.0,0.0,0.769410683357,634.053851156,493.438312896
13.4,2.09344098618E7,-8.95956459228,11385.0658549,745.079549913,-1.10318533127,-366.112738368,8766.65319254,-2.45216005993E-5,0.031369911611,32.1718087838,-9.412885768002798E-21,0.031159997485505127,2.4465102268782334E-5,0.004178069999994026,0.0,0.0,21966.78032238,1082.28053757,0.00182616516738,1528.74628562,487.419760734,-11.0924263388,0.0164216645452,5.44299758544,0.0,0.0,0.0,0.767056793701,629.281258988,491.862655094
13.5,2.09344462449E7,-9.07008225137,11459.538378,743.972336062,-1.10684844169,-362.368167282,8803.07719642,-2.48240353129E-5,0.0315750546505,32.1716966124,-9.446209668025364E-21,0.031363768163039527,2.476711535313128E-5,0.004178069999994026,0.0,0.0,21742.10600964,1082.13665794,0.00182406913436,1526.57141698,487.289966827,-11.0280396308,0.0164049405181,5.36393806759,0.0,0.0,0.0,0.764719046643,624.567428383,490.298423422
13.6,2.09344822537E7,-9.18096360716,11533.9004248,742.871540628,-1.1104586798,-358.631466098,8839.1271373,-2.51274648295E-5,0.0317798931427,32.1715855932,-9.566175660780282E-21,0.03156723633226531,2.5070123240322162E-5,0.004178069999994026,0.0,0.0,21517.90389132,1081.9942559,0.00182199462694,1524.41888355,487.161505862,-10.9643558371,0.0163876607824,5.28570169657,0.0,0.0,0.0,0.76239741507,619.911705365,488.745588806
13.7,2.09345178891E7,-9.29220337788,11608.1526311,741.777093574,-1.1140162149,-354.902552985,8874.80379809,-2.54318747033E-5,0.0319844288513,32.1714757239,-9.687622715573806E-21,0.031770403744771754,2.537411148488575E-5,0.004178069999994026,0.0,0.0,21294.169057619998,1081.85332837,0.00181994160006,1522.28863859,487.034375049,-10.9013676293,0.0163698402157,5.20827729317,0.0,0.0,0.0,0.760091873005,615.313446188,487.204123027
13.8,2.09345531517E7,-9.40379629855,11682.2956259,740.688925591,-1.11752121364,-351.18134722,8910.10795355,-2.57372505352E-5,0.0321886635205,32.1713670019,-9.829804630771804E-21,0.03197327213324052,2.5679065687361328E-5,0.004178069999994026,0.0,0.0,21070.89666516,1081.71387229,0.00181791000914,1520.18063583,486.908571628,-10.8390677946,0.0163514934273,5.13165382656,0.0,0.0,0.0,0.757802395583,610.772017167,485.673998701
13.9,2.09345880424E7,-9.5157371207,11756.3300313,739.606968086,-1.12097384002,-347.467769177,8945.04037042,-2.60435779709E-5,0.0323925988757,32.171259425,-9.961619116684298E-21,0.03217584321127379,2.598497149378104E-5,0.004178069999994026,0.0,0.0,20848.081936320003,1081.57588462,0.00181589981006,1518.09482949,486.784092867,-10.7774492337,0.0163326347636,5.05582041146,0.0,0.0,0.0,0.755528959033,606.286794498,484.15518927
