time,feVelocity_ft_s_X,feVelocity_ft_s_Y,feVelocity_ft_s_Z,altitudeMsl_ft,longitude_deg,latitude_deg,localGravity_ft_s2,eulerAngle_deg_Yaw,eulerAngle_deg_Pitch,eulerAngle_deg_Roll,bodyAngularRateWrtEi_deg_s_Roll,bodyAngularRateWrtEi_deg_s_Pitch,bodyAngularRateWrtEi_deg_s_Yaw,altitudeRateWrtMsl_ft_min,speedOfSound_ft_s,airDensity_slug_ft3,ambientPressure_lbf_ft2,ambientTemperature_dgR,aero_bodyForce_lbf_X,aero_bodyForce_lbf_Y,aero_bodyForce_lbf_Z,aero_bodyMoment_ftlbf_L,aero_bodyMoment_ftlbf_M,aero_bodyMoment_ftlbf_N,mach,trueAirspeed_nmi_h
0.0,1000.0,0.0,-1000.0,0.0,0.0,0.0,32.19881125,0.0,0.0,0.0,0.0041768623264976995,0.0,0.0,60000.0,1116.449213,0.0023769,2116.21967,518.67,-33.00090142,0.0,33.00090142,0.0,0.0,0.0,1.266706578,837.8986254
0.1,996.7130773,-0.013790999,-993.5190517,99.67555785,-1.8E-9,2.73355E-4,32.198534640000005,-2.39E-13,2.73441E-4,1.44E-9,0.0041768623264976995,0.0,0.0,59611.1431,1116.06664,0.002370219,2108.825319,518.3145957,-32.6758098,4.04592E-4,32.58130489,0.0,0.0,0.0,1.260953779,833.8074564
0.2,993.4622014,-0.028169767,-987.0845183,198.7053585,-7.55E-9,5.45814E-4,32.19822919000001,-1.12E-12,5.45989E-4,6.8E-9,0.0041768623264976995,0.0,0.0,59225.0711,1115.686414,0.002363581,2101.486878,517.9614934,-32.32006864,8.6958E-4,32.12240985,0.0,0.0,0.0,1.255249916,829.7529892
0.3,990.2466212,-0.042409057,-980.6954052,297.0939831,-1.72E-8,8.17386E-4,32.19792573000003,-2.66E-12,8.17649E-4,1.61E-8,0.0041768623264976995,0.0,0.0,58841.72431,1115.308522,0.002356986,2094.203876,517.6106776,-31.96996121,0.001322962,31.67105514,0.0,0.0,0.0,1.249593999,825.7345033
0.4,987.0657794,-0.056510671,-974.3509689,394.8459362,-3.08E-8,0.001088082,32.19762424000006,-4.83E-12,0.001088432,2.92E-8,0.0041768623264976995,0.0,0.0,58461.05813,1114.93295,0.002350434,2086.97597,517.2621329,-31.62536523,0.001765022,31.22707778,0.0,0.0,0.0,1.243985322,821.7514647
0.5,983.9191305,-0.070476375,-968.0504811,491.9656491,-4.81E-8,0.001357909,32.197324690000094,-7.64E-12,0.001358346,4.62E-8,0.0041768623264976995,0.0,0.0,58083.02886,1114.559681,0.002343924,2079.80256,516.9158422,-31.28617101,0.002196033,30.79032839,0.0,0.0,0.0,1.238423194,817.8033511
0.6,980.8061401,-0.084307897,-961.7932287,588.4574808,-6.93E-8,0.001626879,32.197027090000134,-1.11E-11,0.001627401,6.71E-8,0.0041768623264976995,0.0,0.0,57707.59372,1114.188702,0.002337456,2072.683181,516.5717899,-30.95226603,0.002616263,30.36065581,0.0,0.0,0.0,1.232906937,813.8896514
0.7,977.7262847,-0.098006926,-955.5785133,684.3257198,-9.43E-8,0.001895,32.196731420000184,-1.51E-11,0.001895606,9.16E-8,0.0041768623264976995,0.0,0.0,57334.7108,1113.819996,0.00233103,2065.617246,516.2299606,-30.62354434,0.003025973,29.93791637,0.0,0.0,0.0,1.227435889,810.0098652
0.8,974.6790515,-0.111575118,-949.4056508,779.5745855,-1.23E-7,0.002162281,32.196437660000235,-1.98E-11,0.002162971,1.2E-7,0.0041768623264976995,0.0,0.0,56964.33905,1113.453553,0.002324646,2058.604554,515.8903405,-30.29989894,0.003425414,29.52196639,0.0,0.0,0.0,1.222009402,806.1635034
0.9,971.6639382,-0.125014093,-943.2739711,874.2082296,-1.55E-7,0.00242873,32.196145810000296,-2.51E-11,0.002429503,1.52E-7,0.0041768623264976995,0.0,0.0,56596.43826,1113.089358,0.002318303,2051.644521,515.5529144,-29.98122738,0.003814832,29.11266763,0.0,0.0,0.0,1.21662684,802.3500867
1.0,968.6804524,-0.138325437,-937.1828177,968.2307373,-1.91E-7,0.002694357,32.19585584000037,-3.09E-11,0.002695212,1.88E-7,0.0041768623264976995,0.0,0.0,56230.96906,1112.727396,0.002312001,2044.736818,515.2176665,-29.66742976,0.004194467,28.70988527,0.0,0.0,0.0,1.211287585,798.5691463
1.1,965.7281115,-0.151510703,-931.1315472,1061.646129,-2.31E-7,0.002959171,32.19556775000044,-3.74E-11,0.002960106,2.27E-7,0.0041768623264976995,0.0,0.0,55867.89283,1112.367652,0.002305739,2037.88074,514.8845817,-29.35841043,0.004564552,28.31348961,0.0,0.0,0.0,1.20599103,794.8202234
1.2,962.8064428,-0.164571413,-925.1195293,1154.458362,-2.74E-7,0.003223179,32.19528152000053,-4.45E-11,0.003224195,2.7E-7,0.0041768623264976995,0.0,0.0,55507.17176,1112.010118,0.002299518,2031.076108,514.5536494,-29.05407255,0.004925312,27.92335066,0.0,0.0,0.0,1.200736577,791.1028684
1.3,959.9149826,-0.177509055,-919.1461462,1246.671329,-3.21E-7,0.00348639,32.194997140000616,-5.21E-11,0.003487485,3.16E-7,0.0041768623264976995,0.0,0.0,55148.76877,1111.654779,0.002293337,2024.322348,514.2248544,-28.75432519,0.005276969,27.53934506,0.0,0.0,0.0,1.195523644,787.4166416
1.4,957.0532766,-0.190325088,-913.2107924,1338.288865,-3.72E-7,0.003748812,32.19471461000071,-6.03E-11,0.003749986,3.66E-7,0.0041768623264976995,0.0,0.0,54792.64754,1111.301622,0.002287196,2017.619144,513.8981828,-28.4590779,0.005619737,27.16135077,0.0,0.0,0.0,1.190351663,783.7611124
1.5,954.2208792,-0.203020942,-907.3128743,1429.314742,-4.25E-7,0.004010454,32.194433900000824,-6.91E-11,0.004011705,4.2E-7,0.0041768623264976995,0.0,0.0,54438.77246,1110.950634,0.002281095,2010.966054,513.5736192,-28.16824239,0.005953823,26.78924871,0.0,0.0,0.0,1.185220077,780.1358589
1.6,951.4173538,-0.215598016,-901.4518103,1519.752674,-4.83E-7,0.004271323,32.194155010000934,-7.84E-11,0.004272651,4.77E-7,0.0041768623264976995,0.0,0.0,54087.10862,1110.601804,0.002275033,2004.362653,513.2511533,-27.88173254,0.006279433,26.4229227,0.0,0.0,0.0,1.180128337,776.5404682
1.7,948.6422718,-0.228057682,-895.6270298,1609.606319,-5.43E-7,0.004531428,32.19387792000104,-8.84E-11,0.004532832,5.37E-7,0.0041768623264976995,0.0,0.0,53737.62179,1110.255117,0.00226901,1997.808502,512.9307697,-27.59946601,0.006596764,26.06226097,0.0,0.0,0.0,1.175075911,772.9745359
1.8,945.8952132,-0.240401282,-889.8379735,1698.879277,-6.08E-7,0.004790775,32.193602630001166,-9.88E-11,0.004792255,6.01E-7,0.0041768623264976995,0.0,0.0,53390.27841,1109.910566,0.002263026,1991.30343,512.612458,-27.3213607,0.006906008,25.70715281,0.0,0.0,0.0,1.170062273,769.4376659
1.9,943.1757658,-0.252630135,-884.0840929,1787.575092,-6.75E-7,0.005049373,32.1933291200013,-1.1E-10,0.005050927,6.68E-7,0.0041768623264976995,0.0,0.0,53045.04557,1109.568135,0.002257081,1984.846754,512.2962028,-27.04733649,0.007207353,25.35749014,0.0,0.0,0.0,1.165086913,765.9294703
2.0,940.4835256,-0.264745529,-878.3648501,1875.697256,-7.46E-7,0.005307229,32.193057390001435,-1.21E-10,0.005308857,7.39E-7,0.0041768623264976995,0.0,0.0,52701.89101,1109.227812,0.002251174,1978.438299,511.9819921,-26.77731684,0.007500983,25.01316903,0.0,0.0,0.0,1.160149328,762.449569
2.1,937.818096,-0.276748728,-872.6797177,1963.249205,-8.2E-7,0.00556435,32.192787410001586,-1.33E-10,0.005566052,8.12E-7,0.0041768623264976995,0.0,0.0,52360.78306,1108.889592,0.002245306,1972.077535,511.6698173,-26.51122366,0.007787075,24.67408488,0.0,0.0,0.0,1.155249022,758.9975899
2.2,935.1790879,-0.288640973,-867.0281782,2050.234325,-8.97E-7,0.005820745,32.19251919000175,-1.46E-10,0.005822518,8.9E-7,0.0041768623264976995,0.0,0.0,52021.69069,1108.553456,0.002239475,1965.764274,511.3596612,-26.24898567,0.008065803,24.34014019,0.0,0.0,0.0,1.15038552,755.5731683
2.3,932.5661196,-0.300423477,-861.409724,2136.655949,-9.78E-7,0.006076419,32.192252710001874,-1.59E-10,0.006078264,9.7E-7,0.0041768623264976995,0.0,0.0,51684.58344,1108.219398,0.002233682,1959.497987,511.0515153,-25.99052997,0.008337336,24.01123663,0.0,0.0,0.0,1.145558346,752.1759468
2.4,929.9788165,-0.31209743,-855.823857,2222.517361,-1.06E-6,0.00633138,32.19198796000205,-1.73E-10,0.006333297,1.05E-6,0.0041768623264976995,0.0,0.0,51349.43142,1107.887406,0.002227927,1953.27851,510.7453675,-25.73578533,0.00860184,23.68727819,0.0,0.0,0.0,1.140767037,748.8055755
2.5,927.4168109,-0.323663999,-850.2700886,2307.821796,-1.15E-6,0.006585636,32.1917249300022,-1.87E-10,0.006587622,1.14E-6,0.0041768623264976995,0.0,0.0,51016.20532,1107.55747,0.002222209,1947.105182,510.4412059,-25.48468382,0.008859474,23.36817256,0.0,0.0,0.0,1.136011143,745.4617114
2.6,924.879742,-0.335124329,-844.7479396,2392.572438,-1.24E-6,0.006839192,32.191463600002386,-2.02E-10,0.006841249,1.23E-6,0.0041768623264976995,0.0,0.0,50684.87638,1107.229575,0.002216529,1940.977956,510.1390166,-25.23715582,0.009110394,23.0538266,0.0,0.0,0.0,1.131290222,742.1440185
2.7,922.3672555,-0.346479541,-839.2569393,2476.772427,-1.33E-6,0.007092057,32.191203990002585,-2.17E-10,0.007094182,1.32E-6,0.0041768623264976995,0.0,0.0,50355.41636,1106.903718,0.002210885,1934.896445,509.8387929,-24.99313974,0.009354756,22.74415518,0.0,0.0,0.0,1.126603835,738.8521674
2.8,919.8790039,-0.357730735,-833.7966261,2560.424854,-1.43E-6,0.007344235,32.19094606000275,-2.33E-10,0.007346429,1.42E-6,0.0041768623264976995,0.0,0.0,50027.79756,1106.579883,0.002205278,1928.86011,509.540521,-24.75256741,0.009592705,22.43906781,0.0,0.0,0.0,1.12195156,735.5858354
2.9,917.4146455,-0.368878989,-828.3665467,2643.532765,-1.53E-6,0.007595735,32.19068981000296,-2.49E-10,0.007597996,1.52E-6,0.0041768623264976995,0.0,0.0,49701.9928,1106.258063,0.002199707,1922.868798,509.2441905,-24.51538012,0.00982439,22.13848325,0.0,0.0,0.0,1.117332979,732.3447061
3.0,914.9738453,-0.37992536,-822.9662564,2726.099161,-1.63E-6,0.007846562,32.19043524000313,-2.65E-10,0.00784889,1.62E-6,0.0041768623264976995,0.0,0.0,49377.97538,1105.938247,0.002194173,1916.922114,508.9497913,-24.28151263,0.010049949,21.842315,0.0,0.0,0.0,1.112747682,729.1284698
3.1,912.556274,-0.390870886,-817.5953185,2808.127,-1.74E-6,0.008096724,32.19018233000335,-2.83E-10,0.008099118,1.73E-6,0.0041768623264976995,0.0,0.0,49055.71911,1105.620425,0.002188675,1911.019901,508.6573112,-24.05090898,0.010269522,21.55048552,0.0,0.0,0.0,1.108195272,725.9368224
3.2,910.1616084,-0.401716584,-812.2533042,2889.619194,-1.84E-6,0.008346225,32.18993107000359,-3.0E-10,0.008348685,1.83E-6,0.0041768623264976995,0.0,0.0,48735.19825,1105.304588,0.002183212,1905.161523,508.3667417,-23.82350823,0.010483243,21.26291341,0.0,0.0,0.0,1.103675354,722.7694662
3.3,907.7895311,-0.412463452,-806.9397928,2970.578616,-1.96E-6,0.008595073,32.18968146000378,-3.18E-10,0.008597598,1.95E-6,0.0041768623264976995,0.0,0.0,48416.38757,1104.990725,0.002177786,1899.346953,508.0780708,-23.59925545,0.010691244,20.97952324,0.0,0.0,0.0,1.099187546,719.6261093
3.4,905.43973,-0.423112467,-801.6543709,3051.008094,-2.07E-6,0.008843274,32.18943349000403,-3.37E-10,0.008845864,2.06E-6,0.0041768623264976995,0.0,0.0,48099.26225,1104.678831,0.002172395,1893.575688,507.7912915,-23.37809232,0.010893652,20.70023714,0.0,0.0,0.0,1.094731468,716.5064656
3.5,903.111899,-0.43366459,-796.3966326,3130.910417,-2.19E-6,0.009090834,32.18918714000423,-3.56E-10,0.009093487,2.18E-6,0.0041768623264976995,0.0,0.0,47783.79796,1104.368892,0.002167039,1887.847448,507.5063903,-23.15996637,0.011090593,20.42498302,0.0,0.0,0.0,1.090306754,713.4102545
3.6,900.805737,-0.444120763,-791.1661796,3210.288334,-2.31E-6,0.009337758,32.18894241000449,-3.76E-10,0.009340475,2.3E-6,0.0041768623264976995,0.0,0.0,47469.97078,1104.060903,0.002161718,1882.162104,507.2233602,-22.94482325,0.011282188,20.15368768,0.0,0.0,0.0,1.085913041,710.337201
3.7,898.520948,-0.45448191,-785.9626201,3289.144554,-2.43E-6,0.009584053,32.18869930000471,-3.96E-10,0.009586833,2.42E-6,0.0041768623264976995,0.0,0.0,47157.7572,1103.754857,0.002156463,1876.545912,506.9421943,-22.73262775,0.011468566,19.88629522,0.0,0.0,0.0,1.08154997,707.2870354
3.8,896.2570591,-0.464748842,-780.7854103,3367.48174,-2.56E-6,0.009829725,32.188457790004975,-4.16E-10,0.009832566,2.54E-6,0.0041768623264976995,0.0,0.0,46847.12462,1103.450782,0.002151501,1871.196084,506.6629167,-22.52630812,0.011651384,19.62533186,0.0,0.0,0.0,1.07721694,704.2593497
3.9,894.0136709,-0.474922381,-775.634075,3445.302503,-2.69E-6,0.010074778,32.188217870005204,-4.37E-10,0.010077681,2.67E-6,0.0041768623264976995,0.0,0.0,46538.0445,1103.14863,0.002146571,1865.886248,506.385481,-22.32274343,0.011829242,19.36803319,0.0,0.0,0.0,1.072913513,701.2537959
4.0,891.7905101,-0.485003394,-770.5082517,3522.60941,-2.82E-6,0.01031922,32.187979540005436,-4.58E-10,0.010322184,2.8E-6,0.0041768623264976995,0.0,0.0,46230.4951,1102.848391,0.002141674,1860.616151,506.1098769,-22.12188713,0.012002248,19.11433565,0.0,0.0,0.0,1.068639366,698.2701267
4.1,889.5873084,-0.49499273,-765.4075843,3599.404996,-2.95E-6,0.010563054,32.18774278000573,-4.8E-10,0.010566079,2.94E-6,0.0041768623264976995,0.0,0.0,45924.45506,1102.550057,0.002136809,1855.385421,505.8360959,-21.92369357,0.012170508,18.86417695,0.0,0.0,0.0,1.064394183,695.3080993
4.2,887.4038017,-0.504891222,-760.3317228,3675.691758,-3.09E-6,0.010806287,32.18750760000597,-5.02E-10,0.010809372,3.07E-6,0.0041768623264976995,0.0,0.0,45619.90337,1102.253619,0.002131976,1850.193933,505.5641285,-21.72811664,0.012334126,18.61749488,0.0,0.0,0.0,1.060177651,692.3674757
4.3,885.2397304,-0.51469969,-755.2803232,3751.47216,-3.23E-6,0.011048925,32.187273980006275,-5.25E-10,0.011052068,3.21E-6,0.0041768623264976995,0.0,0.0,45316.81939,1101.95907,0.002127175,1845.041446,505.293967,-21.53511405,0.012493202,18.374231,0.0,0.0,0.0,1.055989467,689.4480226
4.4,883.0948393,-0.524418938,-750.2530475,3826.748631,-3.37E-6,0.011290971,32.18704192000652,-5.48E-10,0.011294174,3.36E-6,0.0041768623264976995,0.0,0.0,45015.18285,1101.666402,0.002122407,1839.927467,505.0256019,-21.34464156,0.012647836,18.13432564,0.0,0.0,0.0,1.051829331,686.549511
4.5,880.9688774,-0.534049754,-745.2495635,3901.523566,-3.51E-6,0.011532432,32.18681140000679,-5.72E-10,0.011535693,3.5E-6,0.0041768623264976995,0.0,0.0,44714.97381,1101.375606,0.00211767,1834.851998,504.7590238,-21.15665868,0.012798124,17.89772279,0.0,0.0,0.0,1.047696951,683.6717165
4.6,878.8615979,-0.543592914,-740.2695445,3975.79933,-3.66E-6,0.011773313,32.186582430007114,-5.95E-10,0.011776632,3.65E-6,0.0041768623264976995,0.0,0.0,44416.17267,1101.086676,0.002112965,1829.814802,504.4942258,-20.97112295,0.012944159,17.6643652,0.0,0.0,0.0,1.043592039,680.8144188
4.7,876.7727581,-0.553049178,-735.3126694,4049.578251,-3.81E-6,0.012013619,32.18635499000738,-6.2E-10,0.012016995,3.8E-6,0.0041768623264976995,0.0,0.0,44118.76016,1100.799604,0.002108291,1824.815395,504.2311994,-20.78799419,0.013086033,17.43419799,0.0,0.0,0.0,1.039514314,677.977402
4.8,874.7021192,-0.562419293,-730.3786225,4122.862628,-3.96E-6,0.012253354,32.186129080007724,-6.45E-10,0.012256787,3.95E-6,0.0041768623264976995,0.0,0.0,43822.71735,1100.514381,0.002103648,1819.853784,503.9699359,-20.60723443,0.013223838,17.20716856,0.0,0.0,0.0,1.035463499,675.1604542
4.9,872.6494464,-0.571703994,-725.4670936,4195.654729,-4.12E-6,0.012492524,32.185904680008,-6.7E-10,0.012496013,4.1E-6,0.0041768623264976995,0.0,0.0,43528.02562,1100.231002,0.002099037,1814.929487,503.7104277,-20.42880235,0.01335766,16.98322193,0.0,0.0,0.0,1.031439325,672.3633678
5.0,870.6145086,-0.580903999,-720.5777775,4267.956791,-4.28E-6,0.012731134,32.18568180000829,-6.95E-10,0.012734679,4.26E-6,0.0041768623264976995,0.0,0.0,43234.66665,1099.949458,0.002094457,1810.042515,503.4526661,-20.25266295,0.013487586,16.76230881,0.0,0.0,0.0,1.027441527,669.5859389
5.1,868.5970784,-0.590020018,-715.7103741,4339.771019,-4.44E-6,0.012969189,32.18546043000865,-7.21E-10,0.012972789,4.42E-6,0.0041768623264976995,0.0,0.0,42942.62244,1099.669742,0.002089908,1805.192514,503.1966443,-20.07877786,0.013613698,16.54437749,0.0,0.0,0.0,1.023469843,666.8279676
5.2,866.5969322,-0.599052744,-710.8645882,4411.09959,-4.6E-6,0.013206693,32.18524055000895,-7.48E-10,0.013210347,4.58E-6,0.0041768623264976995,0.0,0.0,42651.87529,1099.391848,0.002085389,1800.379251,502.9423537,-19.90711084,0.013736081,16.32937845,0.0,0.0,0.0,1.019524021,664.0892578
5.3,864.6138499,-0.608002861,-706.0401298,4481.944651,-4.77E-6,0.01344365,32.185022170009255,-7.75E-10,0.01344736,4.75E-6,0.0041768623264976995,0.0,0.0,42362.40779,1099.115768,0.002080901,1795.602494,502.6897866,-19.73762773,0.013854813,16.11726423,0.0,0.0,0.0,1.01560381,661.3696174
5.4,862.6476151,-0.616871039,-701.2367134,4552.308321,-4.93E-6,0.013680067,32.18480527000963,-8.02E-10,0.01368383,4.92E-6,0.0041768623264976995,0.0,0.0,42074.2028,1098.841494,0.002076444,1790.862138,502.4389353,-19.57029237,0.013969973,15.90798615,0.0,0.0,0.0,1.011708967,658.6688576
5.5,860.6980144,-0.625657936,-696.4540583,4622.192689,-5.1E-6,0.013915946,32.18458985000994,-8.29E-10,0.013919763,5.09E-6,0.0041768623264976995,0.0,0.0,41787.2435,1098.569021,0.002072017,1786.157711,502.1897928,-19.405072,0.014081638,15.70149866,0.0,0.0,0.0,1.00783925,655.9867933
5.6,858.7648382,-0.634364198,-691.6918883,4691.599819,-5.28E-6,0.014151294,32.18437591001026,-8.57E-10,0.014155163,5.26E-6,0.0041768623264976995,0.0,0.0,41501.5133,1098.298343,0.00206762,1781.489235,501.9423524,-19.24193055,0.014189882,15.49775389,0.0,0.0,0.0,1.003994424,653.3232432
5.7,856.84788,-0.642990463,-686.9499319,4760.531744,-5.45E-6,0.014386113,32.184163430010585,-8.86E-10,0.014390036,5.43E-6,0.0041768623264976995,0.0,0.0,41216.99592,1098.029451,0.002063253,1776.856479,501.6966054,-19.08083922,0.01429478,15.29671023,0.0,0.0,0.0,1.00017426,650.6780291
5.8,854.9469366,-0.651537353,-682.2279219,4828.990473,-5.63E-6,0.01462041,32.183952410010995,-9.14E-10,0.014624384,5.61E-6,0.0041768623264976995,0.0,0.0,40933.67532,1097.76234,0.002058916,1772.259102,501.4525459,-18.92176326,0.014396403,15.09832161,0.0,0.0,0.0,0.996378532,648.0509766
5.9,853.0618079,-0.660005482,-677.5255954,4896.977988,-5.81E-6,0.014854187,32.18374284001133,-9.44E-10,0.014858213,5.79E-6,0.0041768623264976995,0.0,0.0,40651.53572,1097.497002,0.002054609,1767.696999,501.2101651,-18.76467251,0.01449482,14.90254599,0.0,0.0,0.0,0.992607019,645.4419142
6.0,851.1922676,-0.66839543,-672.8426705,4964.496243,-5.99E-6,0.01508745,32.18353473001166,-9.73E-10,0.015091527,5.97E-6,0.0041768623264976995,0.0,0.0,40370.56023,1097.233486,0.002050435,1763.258452,500.9695062,-18.61032197,0.014590717,14.7099623,0.0,0.0,0.0,0.988859421,642.8506519
6.1,849.338016,-0.676707703,-668.1788095,5031.54716,-6.17E-6,0.015320202,32.18332805001201,-1.0E-9,0.01532433,6.16E-6,0.0041768623264976995,0.0,0.0,40090.72857,1096.971759,0.002046347,1758.903457,500.730539,-18.45853561,0.014684073,14.52040553,0.0,0.0,0.0,0.985135426,640.276945
6.2,847.4988566,-0.684942875,-663.5337588,5098.132635,-6.36E-6,0.015552448,32.18312282001244,-1.03E-9,0.015556627,6.34E-6,0.0041768623264976995,0.0,0.0,39812.02553,1096.711788,0.002042287,1754.581975,500.4932308,-18.30861111,0.01477443,14.33330116,0.0,0.0,0.0,0.981434846,637.7206283
6.3,845.6746048,-0.693101514,-658.9072756,5164.254534,-6.55E-6,0.015784192,32.182919010012796,-1.06E-9,0.01578842,6.53E-6,0.0041768623264976995,0.0,0.0,39534.43654,1096.453566,0.002038255,1750.293791,500.257575,-18.16051877,0.014861853,14.1486092,0.0,0.0,0.0,0.977757481,635.1815461
6.4,843.8650785,-0.70118418,-654.2991211,5229.914704,-6.74E-6,0.016015437,32.18271662001315,-1.09E-9,0.016019716,6.72E-6,0.0041768623264976995,0.0,0.0,39257.94726,1096.197086,0.002034252,1746.038814,500.0235645,-18.01423326,0.014946404,13.96629336,0.0,0.0,0.0,0.974103136,632.6595456
6.5,842.0700987,-0.709191423,-649.7090599,5295.114965,-6.93E-6,0.016246189,32.18251566001352,-1.13E-9,0.016250517,6.91E-6,0.0041768623264976995,0.0,0.0,38982.54359,1095.942343,0.002030276,1741.816829,499.7911925,-17.86972471,0.015028143,13.78631414,0.0,0.0,0.0,0.970471619,630.1544771
6.6,840.2894888,-0.717123785,-645.1368607,5359.857114,-7.13E-6,0.016476451,32.18231611001389,-1.16E-9,0.016480827,7.11E-6,0.0041768623264976995,0.0,0.0,38708.21164,1095.689332,0.002026329,1737.62763,499.5604538,-17.72696758,0.015107129,13.6086357,0.0,0.0,0.0,0.966862742,627.6661938
6.7,838.5230749,-0.724981796,-640.5822956,5424.142927,-7.33E-6,0.016706226,32.18211797001435,-1.19E-9,0.016710651,7.31E-6,0.0041768623264976995,0.0,0.0,38434.93774,1095.438046,0.002022409,1733.471005,499.3313417,-17.58593678,0.015183422,13.43322284,0.0,0.0,0.0,0.963276319,625.1945516
6.8,836.7706857,-0.732765978,-636.0451404,5487.974157,-7.52E-6,0.016935519,32.18192123001474,-1.22E-9,0.016939992,7.5E-6,0.0041768623264976995,0.0,0.0,38162.70842,1095.18848,0.002018517,1729.346865,499.1038491,-17.44660526,0.015257077,13.26003915,0.0,0.0,0.0,0.959712172,622.7394091
6.9,835.0321525,-0.740476847,-631.5251741,5551.352531,-7.73E-6,0.017164334,32.18172589001512,-1.25E-9,0.017168855,7.71E-6,0.0041768623264976995,0.0,0.0,37891.51045,1094.940629,0.002014653,1725.255006,498.8779711,-17.30895013,0.015328152,13.08905166,0.0,0.0,0.0,0.956170123,620.3006278
7.0,833.3073088,-0.748114905,-627.0221794,5614.27976,-7.93E-6,0.017392674,32.18153193001551,-1.29E-9,0.017397242,7.91E-6,0.0041768623264976995,0.0,0.0,37621.33077,1094.694486,0.002010816,1721.195219,498.6537007,-17.1729453,0.015396701,12.92022526,0.0,0.0,0.0,0.95265,617.8780717
7.1,831.5959909,-0.75568065,-622.5359423,5676.757529,-8.14E-6,0.017620543,32.18133937001591,-1.32E-9,0.017625158,8.12E-6,0.0041768623264976995,0.0,0.0,37352.15654,1094.450047,0.002007007,1717.16742,498.4310318,-17.03856638,0.015462776,12.7535264,0.0,0.0,0.0,0.949151632,615.4716075
7.2,829.8980372,-0.763174569,-618.0662519,5738.787503,-8.34E-6,0.017847944,32.18114819001631,-1.36E-9,0.017852606,8.32E-6,0.0041768623264976995,0.0,0.0,37083.97511,1094.207305,0.002003225,1713.171284,498.2099594,-16.90579062,0.01552643,12.58892304,0.0,0.0,0.0,0.945674854,613.0811045
7.3,828.2132886,-0.770597141,-613.6129007,5800.371326,-8.55E-6,0.018074883,32.18095838001672,-1.39E-9,0.01807959,8.53E-6,0.0041768623264976995,0.0,0.0,36816.77404,1093.966256,0.00199947,1709.206728,497.9904766,-16.7745945,0.015587716,12.42638285,0.0,0.0,0.0,0.942219503,610.7064346
7.4,826.5415884,-0.777948839,-609.1756844,5861.510623,-8.77E-6,0.01830136,32.18076994001723,-1.42E-9,0.018306114,8.74E-6,0.0041768623264976995,0.0,0.0,36550.54106,1093.726895,0.001995742,1705.273671,497.7725783,-16.64495496,0.015646682,12.26587406,0.0,0.0,0.0,0.93878542,608.3474719
7.5,824.8827817,-0.785230126,-604.7544017,5922.206997,-8.98E-6,0.018527382,32.180582880017646,-1.46E-9,0.018532181,8.96E-6,0.0041768623264976995,0.0,0.0,36285.2641,1093.489215,0.001992041,1701.371791,497.5562583,-16.51685169,0.01570338,12.10736721,0.0,0.0,0.0,0.935372448,606.0040932
7.6,823.2367163,-0.792441457,-600.3488544,5982.462031,-9.2E-6,0.018752951,32.18039717001807,-1.49E-9,0.018757795,9.17E-6,0.0041768623264976995,0.0,0.0,36020.93126,1093.253213,0.001988367,1697.501009,497.3415117,-16.39026009,0.015757856,11.95082994,0.0,0.0,0.0,0.931980435,603.6761777
7.7,821.6032419,-0.799583281,-595.9588473,6042.277288,-9.41E-6,0.01897807,32.1802128200185,-1.53E-9,0.018982958,9.39E-6,0.0041768623264976995,0.0,0.0,35757.53084,1093.018883,0.00198472,1693.661125,497.1283323,-16.2651595,0.015810157,11.79623303,0.0,0.0,0.0,0.928609232,601.3636069
7.8,819.9822104,-0.806656038,-591.5841882,6101.654314,-9.63E-6,0.019202743,32.18002982001893,-1.56E-9,0.019207676,9.61E-6,0.0041768623264976995,0.0,0.0,35495.05129,1092.78622,0.0019811,1689.852061,496.9167145,-16.14152963,0.01586033,11.64354778,0.0,0.0,0.0,0.925258692,599.0662645
7.9,818.3734758,-0.813660162,-587.2246877,6160.594634,-9.86E-6,0.019426973,32.17984816001936,-1.6E-9,0.01943195,9.83E-6,0.0041768623264976995,0.0,0.0,35233.48126,1092.555219,0.001977506,1686.07362,496.7066534,-16.01935056,0.015908422,11.49274598,0.0,0.0,0.0,0.921928671,596.7840366
8.0,816.7768941,-0.820596078,-582.8801593,6219.099754,-1.01E-5,0.019650764,32.179667850019804,-1.64E-9,0.019655785,1.01E-5,0.0041768623264976995,0.0,0.0,34972.80956,1092.325876,0.001973939,1682.325726,496.4981432,-15.89859932,0.015954474,11.34379744,0.0,0.0,0.0,0.91861903,594.5168116
8.1,815.1923234,-0.827464206,-578.5504192,6277.171161,-1.03E-5,0.019874119,32.17948888002025,-1.67E-9,0.019879183,1.03E-5,0.0041768623264976995,0.0,0.0,34713.02515,1092.098185,0.001970398,1678.607941,496.2911783,-15.77925788,0.015998532,11.19667581,0.0,0.0,0.0,0.915329632,592.2644801
8.2,813.6196236,-0.834264958,-574.2352865,6334.810327,-1.05E-5,0.020097041,32.179311240020695,-1.71E-9,0.020102149,1.05E-5,0.0041768623264976995,0.0,0.0,34454.11719,1091.872142,0.001966884,1674.920435,496.0857546,-15.66130741,0.016040639,11.05135433,0.0,0.0,0.0,0.912060341,590.0269347
8.3,812.0586568,-0.840998738,-569.9345828,6392.018702,-1.08E-5,0.020319534,32.17913493002115,-1.75E-9,0.020324684,1.07E-5,0.0041768623264976995,0.0,0.0,34196.07497,1091.647742,0.001963396,1671.26301,495.8818655,-15.54472718,0.016080835,10.90780515,0.0,0.0,0.0,0.908811028,587.8040702
8.4,810.5092867,-0.847665945,-565.6481326,6448.797721,-1.1E-5,0.0205416,32.17895994002161,-1.79E-9,0.020546793,1.1E-5,0.0041768623264976995,0.0,0.0,33938.88796,1091.42498,0.001959934,1667.635357,495.6795072,-15.42949795,0.016119161,10.76600169,0.0,0.0,0.0,0.905581562,585.5957837
8.5,808.9713791,-0.854266971,-561.3757628,6505.1488,-1.12E-5,0.020763244,32.17878628002208,-1.82E-9,0.020768479,1.12E-5,0.0041768623264976995,0.0,0.0,33682.54577,1091.203853,0.001956498,1664.037403,495.4786741,-15.31560303,0.016155658,10.6259194,0.0,0.0,0.0,0.902371818,583.4019741
8.6,807.4448015,-0.860802202,-557.1173028,6561.073339,-1.15E-5,0.020984467,32.17861393002255,-1.86E-9,0.020989744,1.14E-5,0.0041768623264976995,0.0,0.0,33427.03817,1090.984355,0.001953088,1660.469077,495.2793611,-15.20302382,0.016190366,10.48753257,0.0,0.0,0.0,0.899181674,581.2225424
8.7,805.9293752,-0.867271963,-552.8725517,6616.57272,-1.17E-5,0.021205273,32.17844289002303,-1.9E-9,0.021210592,1.17E-5,0.0041768623264976995,0.0,0.0,33172.3531,1090.766482,0.001949831,1657.037584,495.081563,-15.09261997,0.016224266,10.35141806,0.0,0.0,0.0,0.896010955,579.0573572
8.8,804.4249214,-0.873676574,-548.6413101,6671.648302,-1.19E-5,0.021425666,32.178273150023514,-1.94E-9,0.021431026,1.19E-5,0.0041768623264976995,0.0,0.0,32918.47861,1090.55023,0.0019466,1653.635736,494.8852757,-14.98358469,0.016256567,10.21700268,0.0,0.0,0.0,0.892859489,576.9062876
8.9,802.9313156,-0.880016399,-544.4234175,6726.301429,-1.22E-5,0.021645648,32.178104720024,-1.98E-9,0.021651049,1.22E-5,0.0041768623264976995,0.0,0.0,32665.40505,1090.335594,0.001943393,1650.262141,494.6904937,-14.87579049,0.016287186,10.08418649,0.0,0.0,0.0,0.889727164,574.7692427
9.0,801.4484343,-0.886291799,-540.2187154,6780.533428,-1.24E-5,0.021865221,32.17793759002449,-2.02E-9,0.021870663,1.24E-5,0.0041768623264976995,0.0,0.0,32413.12292,1090.12257,0.001940211,1646.916614,494.4972129,-14.76922154,0.016316161,9.952946724,0.0,0.0,0.0,0.886613869,572.6461331
9.1,799.9761559,-0.892503129,-536.0270475,6834.345609,-1.27E-5,0.02208439,32.17777175002498,-2.06E-9,0.022089872,1.26E-5,0.0041768623264976995,0.0,0.0,32161.62285,1089.911154,0.001937054,1643.59909,494.3054281,-14.66386119,0.016343527,9.823260291,0.0,0.0,0.0,0.883519499,570.5368713
9.2,798.5143604,-0.898650736,-531.8482599,6887.739269,-1.29E-5,0.022303157,32.177607200025484,-2.1E-9,0.022308679,1.29E-5,0.0041768623264976995,0.0,0.0,31910.89559,1089.701342,0.001933922,1640.309385,494.115135,-14.5596931,0.016369316,9.695104481,0.0,0.0,0.0,0.880443948,568.4413714
9.3,797.0629292,-0.904734964,-527.6822008,6940.715687,-1.32E-5,0.022521524,32.177443940025995,-2.14E-9,0.022527086,1.31E-5,0.0041768623264976995,0.0,0.0,31660.93205,1089.493129,0.001930814,1637.047435,493.9263287,-14.45670119,0.016393563,9.568456973,0.0,0.0,0.0,0.877387114,566.3595494
9.4,795.6217454,-0.910756151,-523.5287208,6993.27613,-1.34E-5,0.022739495,32.177281960026505,-2.18E-9,0.022745096,1.34E-5,0.0041768623264976995,0.0,0.0,31411.72325,1089.286513,0.00192773,1633.813178,493.7390052,-14.35487286,0.016416304,9.443297906,0.0,0.0,0.0,0.874348896,564.2913232
9.5,794.1906936,-0.916714626,-519.3876722,7045.421848,-1.37E-5,0.022957072,32.17712127002702,-2.22E-9,0.022962713,1.36E-5,0.0041768623264976995,0.0,0.0,31163.26033,1089.081487,0.001924671,1630.606313,493.5531596,-14.25418938,0.016437567,9.319603573,0.0,0.0,0.0,0.871329197,562.2366122
9.6,792.7696596,-0.922610718,-515.2589098,7097.154076,-1.39E-5,0.023174259,32.17696184002754,-2.26E-9,0.023179938,1.39E-5,0.0041768623264976995,0.0,0.0,30915.53459,1088.878049,0.001921636,1627.426777,493.3687878,-14.15463969,0.016457389,9.197355475,0.0,0.0,0.0,0.868327923,560.1953374
9.7,791.3585312,-0.928444748,-511.1422904,7148.474037,-1.42E-5,0.023391057,32.176803690028066,-2.3E-9,0.023396775,1.41E-5,0.0041768623264976995,0.0,0.0,30668.53743,1088.676195,0.001918625,1624.274511,493.1858852,-14.05620668,0.016475798,9.076531321,0.0,0.0,0.0,0.865344978,558.1674218
9.8,789.9571972,-0.934217031,-507.0376727,7199.382936,-1.44E-5,0.02360747,32.1766468000286,-2.34E-9,0.023613227,1.44E-5,0.0041768623264976995,0.0,0.0,30422.26036,1088.475921,0.001915638,1621.149336,493.0044477,-13.95887661,0.016492825,8.957111218,0.0,0.0,0.0,0.862380274,556.1527898
9.9,788.565548,-0.939927878,-502.9449176,7249.881969,-1.47E-5,0.0238235,32.17649118002913,-2.39E-9,0.023829295,1.46E-5,0.0041768623264976995,0.0,0.0,30176.69505,1088.277223,0.001912675,1618.051191,492.8244708,-13.862636,0.016508502,8.839075583,0.0,0.0,0.0,0.85943372,554.1513673
10.0,787.1834753,-0.945577595,-498.8638876,7299.972313,-1.49E-5,0.02403915,32.176336820029675,-2.43E-9,0.024044983,1.49E-5,0.0041768623264976995,0.0,0.0,29931.83326,1088.080097,0.001909737,1614.980019,492.6459507,-13.76747057,0.016522857,8.722404488,0.0,0.0,0.0,0.856505231,552.1630821
10.1,785.8108723,-0.951166483,-494.7944476,7349.655134,-1.52E-5,0.024254423,32.176183710030216,-2.47E-9,0.024260293,1.52E-5,0.0041768623264976995,0.0,0.0,29687.66686,1087.884539,0.001906822,1611.935522,492.4688827,-13.67336728,0.016535919,8.607078977,0.0,0.0,0.0,0.853594723,550.1878633
10.2,784.4476332,-0.956694838,-490.7364641,7398.931586,-1.54E-5,0.02446932,32.17603186003077,-2.51E-9,0.024475228,1.54E-5,0.0041768623264976995,0.0,0.0,29444.18785,1087.690546,0.001903931,1608.917645,492.2932634,-13.58031333,0.016547719,8.493080382,0.0,0.0,0.0,0.850702111,548.2256417
10.3,783.0936541,-0.962162952,-486.6898057,7447.802807,-1.57E-5,0.024683846,32.17588125003119,-2.56E-9,0.02468979,1.57E-5,0.0041768623264976995,0.0,0.0,29201.38834,1087.498115,0.001901064,1605.926328,492.119088,-13.48829411,0.016558281,8.380389075,0.0,0.0,0.0,0.847827318,546.2763495
10.4,781.7488319,-0.967571111,-482.6543425,7496.269922,-1.6E-5,0.024898001,32.17573189003175,-2.6E-9,0.024903983,1.59E-5,0.0041768623264976995,0.0,0.0,28959.26055,1087.30724,0.00189822,1602.961398,491.9463525,-13.39729828,0.016567636,8.268987615,0.0,0.0,0.0,0.844970264,544.3399204
10.5,780.4130649,-0.972919597,-478.6299468,7544.334046,-1.62E-5,0.025111789,32.17558378003231,-2.64E-9,0.025117807,1.62E-5,0.0041768623264976995,0.0,0.0,28717.79681,1087.11792,0.001895401,1600.02292,491.775054,-13.30731168,0.016575808,8.158856979,0.0,0.0,0.0,0.842130872,542.4162896
10.6,779.0862527,-0.978208688,-474.6164925,7591.996278,-1.65E-5,0.025325212,32.175436900032885,-2.69E-9,0.025331267,1.65E-5,0.0041768623264976995,0.0,0.0,28476.98955,1086.930151,0.001892604,1597.110481,491.6051875,-13.21832435,0.016582827,8.049980879,0.0,0.0,0.0,0.839309069,540.5053937
10.7,777.7682962,-0.983438656,-470.6138552,7639.257707,-1.68E-5,0.025538273,32.17529126003346,-2.73E-9,0.025544364,1.67E-5,0.0041768623264976995,0.0,0.0,28236.83131,1086.743928,0.001889831,1594.224263,491.4367491,-13.13032158,0.016588716,7.942340257,0.0,0.0,0.0,0.836504784,538.6071708
10.8,776.4590973,-0.988609772,-466.6219124,7686.119407,-1.7E-5,0.025750974,32.17514685003403,-2.78E-9,0.0257571,1.7E-5,0.0041768623264976995,0.0,0.0,27997.31475,1086.559249,0.001887082,1591.363978,491.2697359,-13.04329183,0.0165935,7.835918162,0.0,0.0,0.0,0.833717943,536.7215603
10.9,775.1585593,-0.993722298,-462.6405432,7732.582443,-1.73E-5,0.025963317,32.17500366003462,-2.82E-9,0.025969479,1.73E-5,0.0041768623264976995,0.0,0.0,27758.43259,1086.376109,0.001884356,1588.52969,491.1041432,-12.95722475,0.016597207,7.730698478,0.0,0.0,0.0,0.830948481,534.848503
11.0,773.8665866,-0.998776496,-458.6696284,7778.647866,-1.76E-5,0.026175305,32.17486171003521,-2.87E-9,0.026181502,1.76E-5,0.0041768623264976995,0.0,0.0,27520.17771,1086.194507,0.001881654,1585.721109,490.9399675,-12.87210819,0.01659986,7.626664158,0.0,0.0,0.0,0.828196329,532.9879412
11.1,772.5830846,-1.003772621,-454.7090505,7824.316715,-1.79E-5,0.02638694,32.17472098003565,-2.91E-9,0.026393173,1.78E-5,0.0041768623264976995,0.0,0.0,27282.54303,1086.014438,0.001878974,1582.938185,490.7772055,-12.78793023,0.016601483,7.523798426,0.0,0.0,0.0,0.825461422,531.1398182
11.2,771.3079601,-1.008710925,-450.7586935,7869.590019,-1.81E-5,0.026598224,32.17458146003625,-2.96E-9,0.026604492,1.81E-5,0.0041768623264976995,0.0,0.0,27045.52161,1085.835899,0.001876318,1580.180864,490.6158528,-12.70467912,0.016602098,7.422084772,0.0,0.0,0.0,0.822743698,529.3040789
11.3,770.0411208,-1.013591656,-446.8184431,7914.468793,-1.84E-5,0.02680916,32.17444316003686,-3.0E-9,0.026815463,1.84E-5,0.0041768623264976995,0.0,0.0,26809.10659,1085.658887,0.001873685,1577.44898,490.4559065,-12.62234523,0.01660173,7.321508053,0.0,0.0,0.0,0.820043096,527.4806694
11.4,768.7824755,-1.018415058,-442.8881866,7958.954042,-1.87E-5,0.02701975,32.17430608003747,-3.05E-9,0.027026087,1.87E-5,0.0041768623264976995,0.0,0.0,26573.2912,1085.483399,0.001871075,1574.742482,490.2973626,-12.54091719,0.016600402,7.222052232,0.0,0.0,0.0,0.817359555,525.669537
11.5,767.5319342,-1.023181372,-438.9678128,8003.046761,-1.9E-5,0.027229996,32.17417020003808,-3.1E-9,0.027236367,1.89E-5,0.0041768623264976995,0.0,0.0,26338.06877,1085.309432,0.001868489,1572.06132,490.1402178,-12.46038473,0.016598136,7.123702063,0.0,0.0,0.0,0.814693018,523.8706304
11.6,766.2894079,-1.027890833,-435.0572121,8046.747932,-1.93E-5,0.0274399,32.17403553003854,-3.14E-9,0.027446306,1.92E-5,0.0041768623264976995,0.0,0.0,26103.43273,1085.136981,0.001865925,1569.405327,489.9844681,-12.38073685,0.016594954,7.026441987,0.0,0.0,0.0,0.812043428,522.0838995
11.7,765.0548086,-1.032543674,-431.1562763,8090.058527,-1.95E-5,0.027649465,32.17390207003916,-3.19E-9,0.027655905,1.95E-5,0.0041768623264976995,0.0,0.0,25869.37658,1084.966045,0.001863384,1566.774456,489.8301106,-12.30196269,0.016590876,6.930256683,0.0,0.0,0.0,0.809410731,520.3092952
11.8,763.8280493,-1.037140124,-427.2648988,8132.979508,-1.98E-5,0.027858693,32.17376980003979,-3.24E-9,0.027865166,1.98E-5,0.0041768623264976995,0.0,0.0,25635.89393,1084.79662,0.001860866,1564.16854,489.6771419,-12.22405345,0.016585925,6.835132112,0.0,0.0,0.0,0.806794873,518.5467698
11.9,762.6090441,-1.041680408,-423.3829743,8175.511824,-2.01E-5,0.028067586,32.173638740040424,-3.28E-9,0.028074092,2.01E-5,0.0041768623264976995,0.0,0.0,25402.97846,1084.628703,0.00185837,1561.587531,489.525558,-12.14699862,0.016580122,6.741053382,0.0,0.0,0.0,0.804195804,516.7962768
12.0,761.3977041,-1.046164742,-419.510397,8217.656416,-2.04E-5,0.028276146,32.17350886004105,-3.33E-9,0.028282685,2.04E-5,0.0041768623264976995,0.0,0.0,25170.62382,1084.46231,0.001855933,1559.060716,489.3753734,-12.07095455,0.016573714,6.648097642,0.0,0.0,0.0,0.801613456,515.0577679
12.1,760.1939001,-1.050593281,-415.6470398,8259.414212,-2.07E-5,0.028484374,32.17338018004154,-3.38E-9,0.028490947,2.06E-5,0.0041768623264976995,0.0,0.0,24938.82239,1084.297451,0.001853577,1556.608165,489.2265958,-11.99618409,0.016567101,6.556397579,0.0,0.0,0.0,0.799047722,513.3311685
12.2,758.9975385,-1.054966225,-411.7927964,8300.786129,-2.1E-5,0.028692274,32.17325269004218,-3.43E-9,0.02869888,2.09E-5,0.0041768623264976995,0.0,0.0,24707.56778,1084.13409,0.001851242,1554.179504,489.0791932,-11.92222601,0.016559688,6.465688688,0.0,0.0,0.0,0.79649857,511.6164283
12.3,757.8085385,-1.059283785,-407.9475684,8341.773073,-2.13E-5,0.028899847,32.17312639004283,-3.48E-9,0.028906485,2.12E-5,0.0041768623264976995,0.0,0.0,24476.8541,1083.972226,0.00184893,1551.774449,488.9331619,-11.84907157,0.016551492,6.375957691,0.0,0.0,0.0,0.793965956,509.9135063
12.4,756.6268202,-1.06354617,-404.1112589,8382.375941,-2.15E-5,0.029107095,32.17300127004349,-3.52E-9,0.029113766,2.15E-5,0.0041768623264976995,0.0,0.0,24246.67553,1083.811854,0.001846639,1549.393199,488.7884994,-11.77671033,0.016542532,6.287190527,0.0,0.0,0.0,0.791449836,508.2223624
12.5,755.4523047,-1.067753583,-400.2837722,8422.59562,-2.18E-5,0.029314021,32.17287733004415,-3.57E-9,0.029320723,2.18E-5,0.0041768623264976995,0.0,0.0,24017.02633,1083.652973,0.00184437,1547.035589,488.6452019,-11.70513476,0.016532826,6.19937479,0.0,0.0,0.0,0.788950172,506.5429578
12.6,754.2849137,-1.071906228,-396.4650139,8462.432988,-2.21E-5,0.029520625,32.172754560044645,-3.62E-9,0.02952736,2.21E-5,0.0041768623264976995,0.0,0.0,23787.90084,1083.495579,0.001842122,1544.701342,488.5032664,-11.63433653,0.016522394,6.112497753,0.0,0.0,0.0,0.786466922,504.8752544
12.7,753.1245701,-1.076004302,-392.6548909,8501.888913,-2.24E-5,0.029726911,32.17263298004532,-3.67E-9,0.029733677,2.24E-5,0.0041768623264976995,0.0,0.0,23559.29346,1083.339669,0.001839896,1542.390655,488.3626904,-11.56430566,0.016511251,6.026545934,0.0,0.0,0.0,0.784000049,503.2192154
12.8,751.9711974,-1.080048002,-388.8533114,8540.964253,-2.27E-5,0.029932879,32.172512560045995,-3.72E-9,0.029939677,2.27E-5,0.0041768623264976995,0.0,0.0,23331.19868,1083.185241,0.001837691,1540.103246,488.22347,-11.49503499,0.016499417,5.941507439,0.0,0.0,0.0,0.781549516,501.5748048
12.9,750.8247201,-1.08403752,-385.0601847,8579.659858,-2.3E-5,0.030138533,32.172393320046496,-3.77E-9,0.030145362,2.3E-5,0.0041768623264976995,0.0,0.0,23103.61108,1083.032293,0.001835508,1537.839079,488.0856027,-11.4265157,0.016486908,5.857369611,0.0,0.0,0.0,0.779115288,499.9419877
13.0,749.6850633,-1.087973044,-381.2754214,8617.97657,-2.33E-5,0.030343873,32.172275240047185,-3.82E-9,0.030350733,2.33E-5,0.0041768623264976995,0.0,0.0,22876.52529,1082.88082,0.001833346,1535.598111,487.9490852,-11.35874088,0.016473743,5.77412087,0.0,0.0,0.0,0.77669733,498.32073
13.1,748.5521531,-1.091854763,-377.4989335,8655.915219,-2.36E-5,0.030548901,32.17215833004787,-3.87E-9,0.030555793,2.36E-5,0.0041768623264976995,0.0,0.0,22649.93601,1082.730821,0.001831205,1533.380304,487.8139147,-11.29170022,0.016459934,5.69174801,0.0,0.0,0.0,0.77429561,496.7109988
13.2,747.4259162,-1.095682858,-373.7306338,8693.476631,-2.39E-5,0.030753621,32.17204258004857,-3.92E-9,0.030760543,2.39E-5,0.0041768623264976995,0.0,0.0,22423.83803,1082.582293,0.001829086,1531.1855,487.6800883,-11.22538792,0.016445501,5.610240223,0.0,0.0,0.0,0.771910096,495.1127619
13.3,746.3062804,-1.099457512,-369.9704366,8730.661618,-2.42E-5,0.030958032,32.171927990049085,-3.97E-9,0.030964986,2.42E-5,0.0041768623264976995,0.0,0.0,22198.22619,1082.435234,0.001826988,1529.013663,487.5476035,-11.15979567,0.01643046,5.529585518,0.0,0.0,0.0,0.769540757,493.525988
13.4,745.1931739,-1.103178901,-366.2182572,8767.470987,-2.45E-5,0.031162138,32.17181455004979,-4.02E-9,0.031169122,2.45E-5,0.0041768623264976995,0.0,0.0,21973.09543,1082.28964,0.001824911,1526.86475,487.4164564,-11.09491617,0.016414826,5.449772503,0.0,0.0,0.0,0.767187564,491.9506468
13.5,744.0865259,-1.1068472,-362.4740121,8803.905535,-2.48E-5,0.03136594,32.17170228005049,-4.07E-9,0.031372954,2.48E-5,0.0041768623264976995,0.0,0.0,21748.44073,1082.14551,0.001822855,1524.73849,487.2866448,-11.03074135,0.016398613,5.37078951,0.0,0.0,0.0,0.764850489,490.3867089
13.6,742.9862661,-1.110462583,-358.737619,8839.966052,-2.51E-5,0.031569439,32.17159115005103,-4.12E-9,0.031576483,2.51E-5,0.0041768623264976995,0.0,0.0,21524.25714,1082.00284,0.001820821,1522.635083,487.1581661,-10.96726413,0.016381839,5.292625454,0.0,0.0,0.0,0.762529506,488.8341456
13.7,741.8923253,-1.114025218,-355.0089965,8875.653319,-2.54E-5,0.031772637,32.17148117005174,-4.17E-9,0.031779712,2.54E-5,0.0041768623264976995,0.0,0.0,21300.53979,1081.861629,0.001818807,1520.554254,487.0310169,-10.90447669,0.016364515,5.215268981,0.0,0.0,0.0,0.760224588,487.2929292
13.8,740.8046347,-1.117535273,-351.2880644,8910.968109,-2.57E-5,0.031975537,32.171372350052465,-4.23E-9,0.031982641,2.57E-5,0.0041768623264976995,0.0,0.0,21077.28387,1081.721873,0.001816814,1518.496087,486.9051952,-10.84237303,0.016346659,5.1387097,0.0,0.0,0.0,0.757935711,485.7630329
13.9,739.7231263,-1.120992912,-347.5747438,8945.911187,-2.6E-5,0.032178139,32.17126466005318,-4.28E-9,0.032185273,2.6E-5,0.0041768623264976995,0.0,0.0,20854.48463,1081.583571,0.001814843,1516.460426,486.7806973,-10.78094553,0.016328285,5.062936542,0.0,0.0,0.0,0.755662851,484.2444303
14.0,738.6477328,-1.124398296,-343.8689565,8980.48331,-2.63E-5,0.032380446,32.17115812005374,-4.33E-9,0.03238761,2.63E-5,0.0041768623264976995,0.0,0.0,20632.13739,1081.446719,0.001812892,1514.447118,486.6575213,-10.72018755,0.016309406,4.987938984,0.0,0.0,0.0,0.753405986,482.7370963
14.1,737.5783877,-1.127751585,-340.1706256,9014.685228,-2.66E-5,0.03258246,32.17105272005447,-4.38E-9,0.032589652,2.66E-5,0.0041768623264976995,0.0,0.0,20410.23754,1081.311316,0.001810962,1512.456247,486.5356644,-10.66009171,0.016290036,4.913706248,0.0,0.0,0.0,0.751165094,481.2410064
14.2,736.5150249,-1.131052936,-336.4796752,9048.517682,-2.7E-5,0.032784181,32.17094846005521,-4.44E-9,0.032791402,2.69E-5,0.0041768623264976995,0.0,0.0,20188.78051,1081.177359,0.001809054,1510.48778,486.4151242,-10.60065157,0.016270188,4.840228084,0.0,0.0,0.0,0.748940154,479.7561366
14.3,735.4575792,-1.134302503,-332.7960304,9081.981408,-2.73E-5,0.032985611,32.17084533005576,-4.49E-9,0.032992862,2.72E-5,0.0041768623264976995,0.0,0.0,19967.76182,1081.044845,0.001807165,1508.541323,486.2958968,-10.54186163,0.016249878,4.767494742,0.0,0.0,0.0,0.746731149,478.2824641
14.4,734.4059859,-1.137500437,-329.1196172,9115.077131,-2.76E-5,0.033186753,32.17074334005651,-4.54E-9,0.033194032,2.75E-5,0.0041768623264976995,0.0,0.0,19747.17703,1080.913773,0.001805298,1506.617203,486.1779813,-10.48371314,0.016229115,4.695495098,0.0,0.0,0.0,0.744538058,476.8199666
14.5,733.3601812,-1.140646889,-325.4503628,9147.805571,-2.79E-5,0.033387607,32.170642480057076,-4.59E-9,0.033394915,2.79E-5,0.0041768623264976995,0.0,0.0,19527.02177,1080.784139,0.001803452,1504.715148,486.0613743,-10.42620246,0.016207917,4.624220395,0.0,0.0,0.0,0.742360865,475.3686225
14.6,732.3201016,-1.143742006,-321.7881954,9180.167441,-2.82E-5,0.033588175,32.170542750057834,-4.65E-9,0.033595512,2.82E-5,0.0041768623264976995,0.0,0.0,19307.29172,1080.655943,0.001801625,1502.835006,485.9460733,-10.36932104,0.016186292,4.553659779,0.0,0.0,0.0,0.740199553,473.9284109
14.7,731.2856845,-1.146785932,-318.1330439,9212.163445,-2.85E-5,0.03378846,32.17044414005859,-4.7E-9,0.033795825,2.85E-5,0.0041768623264976995,0.0,0.0,19087.98263,1080.52918,0.00179982,1500.976983,485.8320755,-10.31306378,0.016164255,4.48380399,0.0,0.0,0.0,0.738054106,472.4993117
14.8,730.2568677,-1.149778809,-314.4848385,9243.794282,-2.88E-5,0.033988461,32.17034666005917,-4.75E-9,0.033995854,2.88E-5,0.0041768623264976995,0.0,0.0,18869.09031,1080.40385,0.001798036,1499.14081,485.7193794,-10.25742397,0.016141817,4.414643162,0.0,0.0,0.0,0.735924509,471.0813054
14.9,729.2335897,-1.15272078,-310.8435101,9275.060643,-2.91E-5,0.034188182,32.17025030005994,-4.81E-9,0.034195603,2.91E-5,0.0041768623264976995,0.0,0.0,18650.61061,1080.279949,0.001796271,1497.326454,485.607981,-10.20239667,0.016118991,4.34616825,0.0,0.0,0.0,0.733810749,469.6743733
15.0,728.2157897,-1.155611981,-307.2089907,9305.963212,-2.95E-5,0.034387623,32.170155070060716,-4.86E-9,0.034395072,2.94E-5,0.0041768623264976995,0.0,0.0,18432.53944,1080.157477,0.001794528,1495.533887,485.4978796,-10.14797457,0.016095787,4.278369284,0.0,0.0,0.0,0.731712812,468.278497
15.1,727.2034073,-1.158452548,-303.5812132,9336.502667,-2.98E-5,0.034586785,32.1700609500613,-4.92E-9,0.034594262,2.97E-5,0.0041768623264976995,0.0,0.0,18214.87279,1080.03643,0.001792805,1493.762959,485.3890716,-10.09415287,0.016072218,4.211237438,0.0,0.0,0.0,0.729630687,466.8936592
15.2,726.1963827,-1.161242616,-299.9601114,9366.679679,-3.01E-5,0.034785672,32.16996795006208,-4.97E-9,0.034793176,3.01E-5,0.0041768623264976995,0.0,0.0,17997.60668,1079.916806,0.001791102,1492.013756,485.2815549,-10.04092607,0.016048296,4.144763648,0.0,0.0,0.0,0.727564362,465.5198429
15.3,725.1946569,-1.163982317,-296.3456199,9396.494911,-3.04E-5,0.034984283,32.16987606006267,-5.03E-9,0.034991815,3.04E-5,0.0041768623264976995,0.0,0.0,17780.7372,1079.798602,0.00178942,1490.286131,485.175327,-9.988287131,0.01602403,4.078938304,0.0,0.0,0.0,0.725513826,464.1570318
15.4,724.1981711,-1.16667178,-292.7376744,9425.949022,-3.07E-5,0.03518262,32.16978528006346,-5.08E-9,0.035190179,3.07E-5,0.0041768623264976995,0.0,0.0,17564.26046,1079.681818,0.001787758,1488.580055,485.0703857,-9.936231516,0.015999433,4.013752893,0.0,0.0,0.0,0.723479069,462.8052101
15.5,723.2068673,-1.169311133,-289.1362113,9455.042663,-3.1E-5,0.035380685,32.16969562006426,-5.14E-9,0.035388271,3.1E-5,0.0041768623264976995,0.0,0.0,17348.17268,1079.566451,0.001786116,1486.895381,484.9667288,-9.884753951,0.015974514,3.949198668,0.0,0.0,0.0,0.721460083,461.4643627
15.6,722.220688,-1.171900503,-285.541168,9483.776479,-3.14E-5,0.035578479,32.16960706006486,-5.19E-9,0.035586092,3.13E-5,0.0041768623264976995,0.0,0.0,17132.47008,1079.452499,0.001784495,1485.232199,484.8643542,-9.833849245,0.015949286,3.885266981,0.0,0.0,0.0,0.719456859,460.134475
15.7,721.2395763,-1.174440011,-281.9524828,9512.15111,-3.17E-5,0.035776004,32.16951961006567,-5.25E-9,0.035783644,3.17E-5,0.0041768623264976995,0.0,0.0,16917.14897,1079.339959,0.001782894,1483.590361,484.763259,-9.783510726,0.015923756,3.821948672,0.0,0.0,0.0,0.717469389,458.815533
15.8,720.2634756,-1.176929782,-278.3700946,9540.167187,-3.2E-5,0.03597326,32.16943326006628,-5.3E-9,0.035980927,3.2E-5,0.0041768623264976995,0.0,0.0,16702.20568,1079.22883,0.001781314,1481.969721,484.6634413,-9.733734145,0.015897936,3.759235612,0.0,0.0,0.0,0.715497666,457.5075231
15.9,719.2923299,-1.179369934,-274.7939435,9567.825337,-3.23E-5,0.03617025,32.16934802006709,-5.36E-9,0.036177944,3.23E-5,0.0041768623264976995,0.0,0.0,16487.63661,1079.119109,0.001779753,1480.370372,484.5648991,-9.684514543,0.015871836,3.697119447,0.0,0.0,0.0,0.713541684,456.2104324
16.0,718.326084,-1.181760587,-271.2239701,9595.126182,-3.27E-5,0.036366975,32.16926387006791,-5.42E-9,0.036374695,3.26E-5,0.0041768623264976995,0.0,0.0,16273.43821,1079.010795,0.001778213,1478.792164,484.4676294,-9.635846266,0.015845465,3.635591629,0.0,0.0,0.0,0.711601437,454.9242483
16.1,717.3646829,-1.184101856,-267.6601162,9622.070336,-3.3E-5,0.036563435,32.16918083006853,-5.47E-9,0.036571181,3.29E-5,0.0041768623264976995,0.0,0.0,16059.60697,1078.903885,0.001776692,1477.235194,484.3716312,-9.587724503,0.015818833,3.574644,0.0,0.0,0.0,0.70967692,453.648959
16.2,716.4080721,-1.186393855,-264.102324,9648.658409,-3.33E-5,0.036759633,32.169098880069356,-5.53E-9,0.036767405,3.33E-5,0.0041768623264976995,0.0,0.0,15846.13944,1078.798378,0.001775192,1475.699196,484.2769016,-9.540145278,0.015791951,3.51426877,0.0,0.0,0.0,0.707768128,452.3845527
16.3,715.4561976,-1.188636699,-260.5505368,9674.891002,-3.36E-5,0.036955569,32.169018020069984,-5.58E-9,0.036963368,3.36E-5,0.0041768623264976995,0.0,0.0,15633.03221,1078.694272,0.001773712,1474.184263,484.1834388,-9.493101636,0.015764825,3.454457114,0.0,0.0,0.0,0.705875057,451.1310184
16.4,714.5090062,-1.190830497,-257.0046985,9700.768715,-3.4E-5,0.037151245,32.16893826007082,-5.64E-9,0.03715907,3.39E-5,0.0041768623264976995,0.0,0.0,15420.28191,1078.591564,0.001772252,1472.690249,484.0912395,-9.446590502,0.015737466,3.395201702,0.0,0.0,0.0,0.703997705,449.8883456
16.5,713.5664446,-1.192975359,-253.4647541,9726.29214,-3.43E-5,0.037346663,32.16885959007145,-5.7E-9,0.037354513,3.43E-5,0.0041768623264976995,0.0,0.0,15207.88525,1078.490252,0.001770812,1471.217131,484.0003027,-9.400606585,0.015709882,3.33649445,0.0,0.0,0.0,0.702136068,448.656524
16.6,712.6284605,-1.195071393,-249.9306491,9751.461862,-3.46E-5,0.037541822,32.1687820100723,-5.76E-9,0.037549699,3.46E-5,0.0041768623264976995,0.0,0.0,14995.83895,1078.390335,0.001769392,1469.764883,483.910626,-9.35514542,0.015682083,3.278327634,0.0,0.0,0.0,0.700290144,447.4355438
16.7,711.6950018,-1.197118706,-246.4023298,9776.278463,-3.49E-5,0.037736726,32.16870551007293,-5.81E-9,0.037744628,3.49E-5,0.0041768623264976995,0.0,0.0,14784.13979,1078.291811,0.001767992,1468.333483,483.8222083,-9.310202605,0.015654076,3.220693613,0.0,0.0,0.0,0.69845993,446.2253957
16.8,710.7660169,-1.1991174,-242.8797434,9800.74252,-3.53E-5,0.037931374,32.168630110073785,-5.87E-9,0.037939302,3.52E-5,0.0041768623264976995,0.0,0.0,14572.7846,1078.194677,0.001766611,1466.922784,483.7350455,-9.265773057,0.015625871,3.163584566,0.0,0.0,0.0,0.696645426,445.0260706
16.9,709.8414546,-1.20106758,-239.3628376,9824.854602,-3.56E-5,0.038125769,32.168555780074435,-5.93E-9,0.038133721,3.56E-5,0.0041768623264976995,0.0,0.0,14361.77026,1078.098933,0.001765251,1465.532766,483.6491376,-9.221852507,0.015597474,3.10699302,0.0,0.0,0.0,0.69484663,443.8375599
17.0,708.9212634,-1.202969345,-235.851561,9848.615276,-3.59E-5,0.038319911,32.168482540075296,-5.99E-9,0.038327889,3.59E-5,0.0041768623264976995,0.0,0.0,14151.09366,1078.004583,0.001763923,1464.174478,483.564488,-9.178479493,0.015568966,3.050925783,0.0,0.0,0.0,0.693063536,442.6598548
17.1,708.0053745,-1.204822763,-232.3458567,9872.025101,-3.63E-5,0.038513801,32.16841038007594,-6.05E-9,0.038521804,3.62E-5,0.0041768623264976995,0.0,0.0,13940.7514,1077.91164,0.001762654,1462.868389,483.4811077,-9.135829542,0.015540663,2.995433862,0.0,0.0,0.0,0.691296117,441.4929359
17.2,707.0937312,-1.206627921,-228.8456728,9895.084632,-3.66E-5,0.038707441,32.168339290076815,-6.1E-9,0.038715469,3.65E-5,0.0041768623264976995,0.0,0.0,13730.74037,1077.820079,0.001761403,1461.582069,483.3989746,-9.093669,0.015512184,2.940432752,0.0,0.0,0.0,0.68954438,440.3367913
17.3,706.1862849,-1.208384915,-225.3509605,9917.794419,-3.69E-5,0.038900832,32.168269290077696,-6.16E-9,0.038908885,3.69E-5,0.0041768623264976995,0.0,0.0,13521.05763,1077.7299,0.001760172,1460.315735,483.3180878,-9.051993933,0.015483536,2.885915394,0.0,0.0,0.0,0.687808327,439.1914142
17.4,705.2829871,-1.210093843,-221.8616719,9940.155006,-3.72E-5,0.039093975,32.16820036007835,-6.22E-9,0.039102053,3.72E-5,0.0041768623264976995,0.0,0.0,13311.70031,1077.6411,0.001758959,1459.069129,483.2384446,-9.010800464,0.015454727,2.831874797,0.0,0.0,0.0,0.68608796,438.0567982
17.5,704.3837899,-1.211754799,-218.3777596,9962.166933,-3.76E-5,0.039286871,32.16813250007924,-6.28E-9,0.039294974,3.75E-5,0.0041768623264976995,0.0,0.0,13102.66558,1077.553677,0.001757765,1457.842346,483.1600434,-8.970084044,0.015425764,2.778303815,0.0,0.0,0.0,0.684383279,436.9329369
17.6,703.4886457,-1.213367876,-214.899177,9983.830736,-3.79E-5,0.039479522,32.16806571007991,-6.34E-9,0.039487648,3.79E-5,0.0041768623264976995,0.0,0.0,12893.95062,1077.46763,0.00175659,1456.635129,483.0828817,-8.929841627,0.015396655,2.725195821,0.0,0.0,0.0,0.682694289,435.8198243
17.7,702.5975074,-1.214933166,-211.4258782,10005.14695,-3.82E-5,0.039671928,32.1680000000808,-6.4E-9,0.039680079,3.82E-5,0.0041768623264976995,0.0,0.0,12685.55269,1077.382957,0.001755434,1455.447696,483.0069584,-8.890068056,0.015367404,2.672543589,0.0,0.0,0.0,0.681020989,434.7174548
17.8,701.7103282,-1.216450759,-207.9578178,10026.11609,-3.86E-5,0.03986409,32.16793535008148,-6.46E-9,0.039872265,3.85E-5,0.0041768623264976995,0.0,0.0,12477.46907,1077.299656,0.001754297,1454.279906,482.9322711,-8.850761105,0.015338022,2.620340837,0.0,0.0,0.0,0.679363384,433.6258228
17.9,700.8270617,-1.217920744,-204.4949513,10046.73868,-3.89E-5,0.04005601,32.16787177008215,-6.52E-9,0.040064209,3.89E-5,0.0041768623264976995,0.0,0.0,12269.69708,1077.217725,0.001753178,1453.13174,482.8588181,-8.811915726,0.015308513,2.56858048,0.0,0.0,0.0,0.677721476,432.544923
18.0,699.9476618,-1.21934321,-201.0372348,10067.01525,-3.92E-5,0.040247688,32.167809260083054,-6.58E-9,0.040255912,3.92E-5,0.0041768623264976995,0.0,0.0,12062.23409,1077.137163,0.001752079,1452.002944,482.7865976,-8.773529071,0.015278884,2.517256138,0.0,0.0,0.0,0.676095267,431.4747504
18.1,699.0720828,-1.220718242,-197.5846249,10086.9463,-3.96E-5,0.040439126,32.167747810083746,-6.64E-9,0.040447374,3.95E-5,0.0041768623264976995,0.0,0.0,11855.0775,1077.057968,0.001750998,1450.89385,482.7156079,-8.735596914,0.015249141,2.466361075,0.0,0.0,0.0,0.674484762,430.4153
18.2,698.2002795,-1.222045927,-194.1370791,10106.53234,-3.99E-5,0.040630325,32.16768742008466,-6.7E-9,0.040638596,3.99E-5,0.0041768623264976995,0.0,0.0,11648.22475,1076.980138,0.001749935,1449.804086,482.6458464,-8.698115791,0.015219291,2.415888825,0.0,0.0,0.0,0.672889964,429.3665671
18.3,697.3322068,-1.223326348,-190.6945554,10125.77389,-4.02E-5,0.040821286,32.16762809008535,-6.76E-9,0.040829581,4.02E-5,0.0041768623264976995,0.0,0.0,11441.67332,1076.903672,0.001748892,1448.733754,482.5773132,-8.661082283,0.01518934,2.365832981,0.0,0.0,0.0,0.671310874,428.3285473
18.4,696.4678203,-1.224559588,-187.2570125,10144.67142,-4.06E-5,0.041012009,32.167569820086264,-6.82E-9,0.041020328,4.05E-5,0.0041768623264976995,0.0,0.0,11235.42075,1076.828567,0.001747867,1447.68283,482.5100039,-8.624492317,0.015159292,2.316187003,0.0,0.0,0.0,0.669747499,427.301236
18.5,695.6070756,-1.225745728,-183.8244096,10163.22545,-4.09E-5,0.041202496,32.167512610086966,-6.88E-9,0.041210838,4.09E-5,0.0041768623264976995,0.0,0.0,11029.46457,1076.754823,0.001746861,1446.651182,482.4439185,-8.588343268,0.015129156,2.26694479,0.0,0.0,0.0,0.66819984,426.2846292
18.6,694.7499289,-1.22688485,-180.3967067,10181.43647,-4.12E-5,0.041392748,32.1674564600879,-6.94E-9,0.041401114,4.12E-5,0.0041768623264976995,0.0,0.0,10823.8024,1076.682437,0.001745873,1445.63891,482.3790554,-8.552631848,0.015098937,2.218100101,0.0,0.0,0.0,0.666667902,425.2787225
18.7,693.8963365,-1.227977033,-176.9738643,10199.30496,-4.16E-5,0.041582765,32.167401360088604,-7.0E-9,0.041591155,4.15E-5,0.0041768623264976995,0.0,0.0,10618.43186,1076.611408,0.001744904,1444.64576,482.315412,-8.517354122,0.015068639,2.169646571,0.0,0.0,0.0,0.665151688,424.2835121
18.8,693.0462553,-1.229022354,-173.5558437,10216.8314,-4.19E-5,0.04177255,32.16734731008954,-7.06E-9,0.041780962,4.19E-5,0.0041768623264976995,0.0,0.0,10413.35062,1076.541733,0.001743953,1443.671948,482.2529865,-8.482506207,0.015038268,2.121577904,0.0,0.0,0.0,0.663651203,423.2989939
18.9,692.1996424,-1.230020891,-170.1426065,10234.01629,-4.23E-5,0.041962102,32.16729432009026,-7.12E-9,0.041970537,4.22E-5,0.0041768623264976995,0.0,0.0,10208.55639,1076.473413,0.001743021,1442.717226,482.191778,-8.448085642,0.015007829,2.073888208,0.0,0.0,0.0,0.662166449,422.3251642
19.0,691.3564551,-1.23097272,-166.7341153,10250.86008,-4.26E-5,0.042151422,32.1672423700912,-7.18E-9,0.042159881,4.26E-5,0.0041768623264976995,0.0,0.0,10004.04692,1076.406444,0.001742108,1441.781692,482.1317841,-8.414089312,0.014977328,2.026571462,0.0,0.0,0.0,0.66069743,421.3620191
19.1,690.5166512,-1.231877917,-163.3303329,10267.36327,-4.29E-5,0.042340512,32.167191470091915,-7.25E-9,0.042348994,4.29E-5,0.0041768623264976995,0.0,0.0,9799.819976,1076.340825,0.001741213,1440.865331,482.0730038,-8.380514142,0.014946771,1.979621693,0.0,0.0,0.0,0.65924415,420.4095549
19.2,689.6801888,-1.232736554,-159.9312231,10283.52631,-4.33E-5,0.042529373,32.167141630092644,-7.31E-9,0.042537878,4.32E-5,0.0041768623264976995,0.0,0.0,9595.873383,1076.276555,0.001740336,1439.96789,482.0154346,-8.347355738,0.014916159,1.933032665,0.0,0.0,0.0,0.657806613,419.4677679
19.3,688.8470263,-1.233548705,-156.5367498,10299.34967,-4.36E-5,0.042718005,32.1670928200936,-7.37E-9,0.042726533,4.36E-5,0.0041768623264976995,0.0,0.0,9392.204989,1076.213632,0.001739478,1439.089591,481.9590756,-8.314612468,0.014885501,1.886798832,0.0,0.0,0.0,0.656384821,418.5366544
19.4,688.0171223,-1.234314443,-153.146878,10314.83381,-4.39E-5,0.042906409,32.167045060094324,-7.43E-9,0.04291496,4.39E-5,0.0041768623264976995,0.0,0.0,9188.812681,1076.152055,0.001738638,1438.2303,481.9039251,-8.282280022,0.014854798,1.840914069,0.0,0.0,0.0,0.654978779,417.6162109
19.5,687.1904358,-1.235033837,-149.761573,10329.9792,-4.43E-5,0.043094587,32.1669983500953,-7.49E-9,0.04310316,4.42E-5,0.0041768623264976995,0.0,0.0,8985.694378,1076.091821,0.001737817,1437.389881,481.8499805,-8.250356834,0.014824059,1.795372909,0.0,0.0,0.0,0.65358849,416.7064335
19.6,686.3669262,-1.235706958,-146.3808006,10344.78628,-4.46E-5,0.043282538,32.16695267009603,-7.56E-9,0.043291134,4.46E-5,0.0041768623264976995,0.0,0.0,8782.848036,1076.032929,0.001737014,1436.568322,481.7972409,-8.218838002,0.014793283,1.750169189,0.0,0.0,0.0,0.652213956,415.8073187
19.7,685.546553,-1.236333876,-143.0045274,10359.25551,-4.5E-5,0.043470265,32.16690804009677,-7.62E-9,0.043478883,4.49E-5,0.0041768623264976995,0.0,0.0,8580.271644,1075.975377,0.001736229,1435.765726,481.7457048,-8.187722029,0.014762478,1.70529753,0.0,0.0,0.0,0.65085518,414.9188627
19.8,684.729276,-1.236914658,-139.6327205,10373.38733,-4.53E-5,0.043657767,32.16686444009775,-7.68E-9,0.043666408,4.53E-5,0.0041768623264976995,0.0,0.0,8377.963227,1075.919165,0.001735463,1434.982077,481.6953702,-8.157006101,0.014731648,1.660752299,0.0,0.0,0.0,0.649512166,414.0410618
19.9,683.9150556,-1.237449371,-136.2653474,10387.1822,-4.56E-5,0.043845046,32.16682188009849,-7.75E-9,0.043853709,4.56E-5,0.0041768623264976995,0.0,0.0,8175.920842,1075.864291,0.001734715,1434.217129,481.6462364,-8.126686109,0.014700795,1.61652764,0.0,0.0,0.0,0.648184914,413.1739122
20.0,683.1038521,-1.237938083,-132.9023763,10400.64055,-4.6E-5,0.044032102,32.16678036009948,-7.81E-9,0.044040787,4.59E-5,0.0041768623264976995,0.0,0.0,7974.142578,1075.810752,0.001733985,1433.470982,481.5983009,-8.096759983,0.014669924,1.572618155,0.0,0.0,0.0,0.646873429,412.31741
20.1,682.2956263,-1.238380859,-129.543776,10413.76282,-4.63E-5,0.044218937,32.16673987010023,-7.87E-9,0.044227644,4.63E-5,0.0041768623264976995,0.0,0.0,7772.626561,1075.758548,0.001733273,1432.743508,481.5515626,-8.067225013,0.01463904,1.529018347,0.0,0.0,0.0,0.645577711,411.4715512
20.2,681.4903392,-1.238777764,-126.1895158,10426.54945,-4.66E-5,0.044405551,32.16670042010097,-7.94E-9,0.04441428,4.66E-5,0.0041768623264976995,0.0,0.0,7571.370947,1075.707676,0.00173258,1432.034923,481.5060191,-8.038077865,0.014608144,1.485722642,0.0,0.0,0.0,0.644297764,410.6363317
20.3,680.6879521,-1.239128861,-122.8395654,10439.00087,-4.7E-5,0.044591944,32.166661990101986,-8.0E-9,0.044600695,4.7E-5,0.0041768623264976995,0.0,0.0,7370.373925,1075.658136,0.001731904,1431.34487,481.4616704,-8.009316554,0.014577241,1.442725755,0.0,0.0,0.0,0.643033586,409.8117474
20.4,679.8884266,-1.239434215,-119.4938953,10451.11751,-4.73E-5,0.044778119,32.16662460010274,-8.06E-9,0.044786892,4.73E-5,0.0041768623264976995,0.0,0.0,7169.633717,1075.609925,0.001731247,1430.673562,481.418513,-7.980937811,0.014546335,1.400022197,0.0,0.0,0.0,0.64178518,408.997794
20.5,679.0917246,-1.239693887,-116.1524763,10462.89979,-4.77E-5,0.044964074,32.166588240103756,-8.13E-9,0.044972869,4.76E-5,0.0041768623264976995,0.0,0.0,6969.148578,1075.563044,0.001730608,1430.020761,481.3765478,-7.952938404,0.014515427,1.357606533,0.0,0.0,0.0,0.640552546,408.194467
20.6,678.2978081,-1.239907939,-112.8152799,10474.34814,-4.8E-5,0.045149813,32.16655290010451,-8.19E-9,0.045158629,4.8E-5,0.0041768623264976995,0.0,0.0,6768.916792,1075.517488,0.001729987,1429.386683,481.3357714,-7.925317088,0.014484523,1.315473703,0.0,0.0,0.0,0.639335686,407.4017619
20.7,677.5066396,-1.240076432,-109.482278,10485.46299,-4.83E-5,0.045335334,32.166518600105285,-8.26E-9,0.045344172,4.83E-5,0.0041768623264976995,0.0,0.0,6568.936679,1075.473258,0.001729384,1428.771082,481.2961828,-7.898070038,0.014453623,1.273618243,0.0,0.0,0.0,0.638134598,406.6196738
20.8,676.7181816,-1.240199427,-106.1534431,10496.24474,-4.87E-5,0.045520638,32.16648531010631,-8.32E-9,0.045529498,4.87E-5,0.0041768623264976995,0.0,0.0,6369.206586,1075.430352,0.0017288,1428.173948,481.2577805,-7.87119541,0.014422733,1.232035054,0.0,0.0,0.0,0.636949282,405.8481979
