time,eiPosition_ft_X,eiPosition_ft_Y,eiPosition_ft_Z,gePosition_ft_X,gePosition_ft_Y,gePosition_ft_Z,eiVelocity_ft_s_X,eiVelocity_ft_s_Y,eiVelocity_ft_s_Z,feVelocity_ft_s_X,feVelocity_ft_s_Y,feVelocity_ft_s_Z,altitudeMsl_ft,longitude_deg,latitude_deg,localGravity_ft_s2,eulerAngle_deg_Yaw,eulerAngle_deg_Pitch,eulerAngle_deg_Roll,bodyAngularRateWrtEi_deg_s_Roll,bodyAngularRateWrtEi_deg_s_Pitch,bodyAngularRateWrtEi_deg_s_Yaw,altitudeRateWrtMsl_ft_min,speedOfSound_ft_s,airDensity_slug_ft3,ambientPressure_lbf_ft2,ambientTemperature_dgR,aero_bodyForce_lbf_X,aero_bodyForce_lbf_Y,aero_bodyForce_lbf_Z,aero_bodyMoment_ftlbf_L,aero_bodyMoment_ftlbf_M,aero_bodyMoment_ftlbf_N,mach,dynamicPressure_lbf_ft2,trueAirspeed_nmi_h,feVelocity_ft_s_Z
0.0,2.0925646325459316E7,0.0,0.0,2.0925646325459316E7,0.0,0.0,1000.0000000000002,1525.9221945457675,999.9999999999998,999.9999999999999,0.0,-1000.0000000000001,0.0,0.0,0.0,32.1988102141521,0.0,-0.0,0.0,0.004178074132240403,0.0,1.5996043844491983E-18,60000.00000000001,1116.4492075028113,0.002376899999999995,2116.22,518.67,-33.00089455844678,-0.0,33.00089455844678,0.0,0.0,0.0,1.2667065858840942,2376.89990234375,837.8986206054688,-1000.0000000000001
0.009999999776482582,2.092565632220001E7,15.259221945465919,9.998350483808457,2.092565632220558E7,-7.289732742776778E-6,9.998350483808458,999.3482301246165,1525.9221945484937,999.670167206598,999.6696864958753,-0.0014577077867848984,-999.3498237086475,9.996748669977233,-1.9959752444955202E-11,2.7560621481937558E-5,32.198779399805936,1.2868839070043411E-20,2.7560621500047384E-5,1.9959752440665595E-11,0.004178074132240403,2.3385717063745704E-40,1.5996043844491983E-18,59960.98942251885,1116.410838130222,0.002376204782325123,2115.455615823429,518.6343500118512,-32.96419252683871,4.806802601879072E-5,32.953613321408284,0.0,0.0,0.0,1.2661291360855103,2373.87548828125,837.4878540039062,-999.3498237086475
0.019999999552965164,2.092566631242545E7,30.518443890987097,19.993404531762565,2.0925666312447704E7,-2.914940100140484E-5,19.993404531762565,998.696942427634,1525.9221945566526,999.340708310606,999.3397476724302,-0.0029139861159141406,-998.700129118813,19.986998004535334,-7.981287801198596E-11,5.511217831825582E-5,32.198748605537794,8.57923145303263E-21,5.511217832383755E-5,7.981287800340677E-11,0.004178074132240403,4.677143412749141E-40,1.5996043844491983E-18,59922.00774712878,1116.3724924225776,0.0023755101727314268,2114.691952702952,518.5987232355045,-32.92755269448056,9.601377827716528E-5,32.9064144013338,0.0,0.0,0.0,1.2655521631240845,2370.8564453125,837.0774536132812,-998.700129118813
0.029999999329447746,2.092567629614037E7,45.777665836614254,29.98516582099166,2.092567629619044E7,-6.55647276701643E-5,29.98516582099166,998.0461266197982,1525.922194569593,999.0116153508261,999.0101755690423,-0.004368837018054213,-998.0509059403653,29.97075275241297,-1.795202280324347E-10,8.265458076048338E-5,32.198717831332964,8.579244763933431E-21,8.265458075428563E-5,1.7952022798953861E-10,0.004178074132240403,7.015715119123711E-40,1.5996043844491983E-18,59883.05435642192,1116.334170364017,0.002374816170559803,2113.929009787974,518.5631196539584,-32.89097440303651,1.4383757623780323E-4,32.85929702356277,0.0,0.0,0.0,1.264975666999817,2367.842529296875,836.66748046875,-998.0509059403653
0.03999999910593033,2.092568627334949E7,61.03688778239255,39.97363800778329,2.0925686273438513E7,-1.1652145491325427E-4,39.9736380077833,997.3957818864059,1525.9221945867835,998.6828877125909,998.680969569202,-0.00582226240131253,-997.4021533601406,39.948017636067846,-3.1904270674876877E-10,1.1018787772672925E-4,32.19868707717679,7.465517798002816E-26,1.1018787774012976E-4,3.190427067487687E-10,0.004178074132240403,9.354286825498282E-40,1.5996043844491983E-18,59844.12920160843,1116.295871938776,0.002374122775153569,2113.166786230823,518.5275392503054,-32.85445751448068,1.9153973450929243E-4,32.81226100408624,0.0,0.0,0.0,1.264399766921997,2364.833740234375,836.2578125,-997.4021533601406
0.05000000074505806,2.0925696244057517E7,76.29610972836183,49.958824742285216,2.092569624419661E7,-1.8200534401557888E-4,49.958824742285216,996.7459074145912,1525.9221946076939,998.3545247826111,998.3521290586168,-0.007274264167880146,-996.7538705659739,49.918797330861004,-4.983412709056873E-10,1.37712070183281E-4,32.19865634305479,4.8183525321544126E-26,1.3771207017828794E-4,4.983412708713705E-10,0.004178074132240403,1.1692858531872852E-39,1.5996043844491983E-18,59805.232233958435,1116.2575971312679,0.002373429985859902,2112.4052811883357,518.4919820078059,-32.81800189121704,2.3912056669891355E-4,32.765306159454795,0.0,0.0,0.0,1.263824224472046,2361.830078125,835.8485717773438,-996.7538705659739
0.05999999865889549,2.0925706208269145E7,91.55533167455661,59.94072966851917,2.092570620846944E7,-2.620021751340573E-4,59.94072966851918,996.0965023933205,1525.922194631795,998.0265259489713,998.0236534230809,-0.008724844217215014,-996.1060567488253,59.88309655105506,-7.173769290688574E-10,1.6522723332225024E-4,32.19862562895235,1.609555649465952E-25,1.6522723333340777E-4,7.173769289659068E-10,0.004178074132240403,1.4031430238247422E-39,1.5996043844491983E-18,59766.363404929514,1116.2193459257537,0.002372737802023863,2111.644493815282,518.4564479095818,-32.781607395995465,2.8658038551993595E-4,32.71843230669436,0.0,0.0,0.0,1.2632492780685425,2358.831787109375,835.4396362304688,-996.1060567488253
0.07000000029802322,2.0925716165989067E7,106.81455362100621,69.91935642439462,2.0925716166261688E7,-3.564977474610487E-4,69.91935642439464,995.4475660133872,1525.9221946585594,997.6988906011271,997.6955420509653,-0.010174004443540873,-995.4587111002722,69.84091997108479,-9.76110742072048E-10,1.9273337311727416E-4,32.198594934854974,-1.7158329827607808E-20,1.927333731149614E-4,9.76110741986256E-10,0.004178074132240403,1.6370001944621994E-39,1.5996043844491983E-18,59727.52266601633,1116.1811183066432,0.0023720462229938656,2110.884423270382,518.4209369388973,-32.74527389198608,3.3391950271273983E-4,32.6716392633799,-0.0,-0.0,0.0,1.2626748085021973,2355.838623046875,835.0311279296875,-995.4587111002722
0.07999999821186066,2.0925726117221966E7,122.07377556773461,79.89470864172239,2.092572611757804E7,-4.654778790467162E-4,79.8947086417224,994.799097467407,1525.9221946874611,997.3716181298997,997.3677943332092,-0.01162174673743889,-994.8118328125109,79.79227227140494,-1.2745038225304199E-9,2.202304265146607E-4,32.19856426074812,3.0083984745219044E-25,2.2023042652888434E-4,1.2745038223931522E-9,0.004178074132240403,1.8708573650996563E-39,1.5996043844491983E-18,59688.709968750656,1116.1429142583193,0.0023713552481184927,2110.125068712797,518.3854490789948,-32.70900124273385,3.811382290997996E-4,32.6249268475897,0.0,0.0,0.0,1.2621008157730103,2352.8505859375,834.6229858398438,-994.8118328125109
0.09000000357627869,2.0925736061972514E7,137.33299751476056,89.86678994622832,2.0925736062423166E7,-5.889284068132383E-4,89.86678994622832,994.1510959498119,1525.9221947179751,997.0447079274733,997.0404096620692,-0.013068072983346559,-994.1654210795986,89.73715811985286,-1.6125173348791038E-9,2.477183329720242E-4,32.198533606617346,-3.431638553763659E-20,2.477183329856115E-4,1.6125173347075188E-9,0.004178074132240403,2.1047145357371136E-39,1.5996043844491983E-18,59649.92526477591,1116.1047337652105,0.0023706648767477852,2109.3664293035563,518.3499843131624,-32.67278931217522,4.2823687450672547E-4,32.57829487792156,0.0,-0.0,0.0,1.2615272998809814,2349.86767578125,834.2152099609375,-994.1654210795986
0.10000000149011612,2.0925746000245377E7,152.59221946209757,99.83560395756695,2.0925746000801742E7,-7.268351864411216E-4,99.83560395756697,993.5035606568455,1525.9221947495782,996.7181593873908,996.7133874249104,-0.014512985064105187,-993.5194751036746,99.67558218517296,-1.9901124950615872E-9,2.7519739241196005E-4,32.19850297244817,-3.431661312225155E-20,2.751973924241732E-4,1.9901124949586367E-9,0.004178074132240403,2.3385717063745705E-39,1.5996043844491983E-18,59611.16850622048,1116.0665768117383,0.002369975108232304,2108.6085042045165,518.3145426246846,-32.63663796462389,4.752157479141809E-4,32.53174317347805,0.0,-0.0,0.0,1.2609542608261108,2346.889892578125,833.8077392578125,-993.5194751036746
0.10999999940395355,2.0925755932045218E7,167.85144140975393,109.80115428933496,2.0925755932718415E7,-8.791840925539418E-4,109.80115428933499,992.8564907865585,1525.922194781748,996.3919719045496,996.3867270215894,-0.01595648485641243,-992.8739940775142,109.60754911275812,-2.407250571035218E-9,3.0266726291681127E-4,32.19847235822618,-6.863337061047888E-20,3.026672629222204E-4,2.40725057089795E-9,0.004178074132240403,2.5724288770120277E-39,1.5996043844491983E-18,59572.439644650854,1116.0284433824093,0.0023692859419248125,2107.8512925802147,518.2791239969292,-32.60054706479257,5.220751573119865E-4,32.48527155388792,0.0,-0.0,0.0,1.260381817817688,2343.917236328125,833.4006958007812,-992.8739940775142
0.11999999731779099,2.0925765857376684E7,183.11066335773268,119.76344454908482,2.092576585817784E7,-0.0010459610183488621,119.76344454908482,992.2098855388025,1525.9221948139639,996.0661448751983,996.0604278433401,-0.017398574234232928,-992.2289772056992,119.53306355362238,-2.863892881759212E-9,3.30128177749957E-4,32.19844176393698,-3.431651244440069E-20,3.301281777479963E-4,2.8638928815876273E-9,0.004178074132240403,2.8062860476494837E-39,1.5996043844491983E-18,59533.73863234195,1115.9903334617063,0.002368597377178262,2107.0947935956547,518.2437284132446,-32.56451647776411,5.688154098133984E-4,32.438879839276694,0.0,-0.0,0.0,1.2598097324371338,2340.94970703125,832.9940185546875,-992.2289772056992
0.12999999523162842,2.0925775776244417E7,198.36988530603168,129.72247833833816,2.0925775777184665E7,-0.0012271518757245303,129.7224783383382,991.5637441152253,1525.9221948457061,995.7406776969328,995.7344892864297,-0.018839255065160317,-991.5844236909132,129.4521301447922,-3.3600007975445117E-9,3.5758015790994356E-4,32.19841118956613,-3.4316568645885473E-20,3.5758015791860764E-4,3.360000797372927E-9,0.004178074132240403,3.040143218286939E-39,1.5996043844491983E-18,59495.0654214548,1115.9522470341617,0.002367909413347156,2106.339006417801,518.2083558570289,-32.52854606900897,6.15436811539231E-4,32.392567850283825,0.0,-0.0,0.0,1.2592382431030273,2337.987060546875,832.5877075195312,-991.5844236909132
0.14000000059604645,2.0925785688653048E7,213.6291072546436,139.67825925259933,2.0925785689743508E7,-0.0014227425952526573,139.67825925259936,990.9180657192662,1525.9221948764568,995.4155697686921,995.4089107509038,-0.020278529214055246,-990.9403327351844,139.36475350242904,-3.895535739975647E-9,3.850230837389863E-4,32.19838063509937,-3.4316900040664413E-20,3.8502308374342226E-4,3.895535739872696E-9,0.004178074132240403,3.274000388924395E-39,1.5996043844491983E-18,59456.41996411106,1115.9141840843845,0.0023672220497880196,2105.5839302160975,518.1730063117544,-32.492635704390324,6.619396677399407E-4,32.34633540806721,0.0,-0.0,0.0,1.258667230606079,2335.02978515625,832.1817626953125,-990.9403327351844
0.15000000596046448,2.0925795594607208E7,228.88832920355597,149.6307908813688,2.0925795595859013E7,-0.0016327191262064389,149.63079088136882,990.2728495561507,1525.922194905699,995.0908204907547,995.0836916356278,-0.021716398542363236,-990.2967035448584,149.2709382740859,-4.470459181988219E-9,4.1245698120106897E-4,32.19835010052228,-6.863310929462849E-20,4.1245698120121225E-4,4.470459181782316E-9,0.004178074132240403,3.5078575595618505E-39,1.5996043844491983E-18,59417.8022126915,1115.87614459686,0.002366535285855781,2104.8295641584896,518.137679760782,-32.45678525011318,7.083242827750687E-4,32.300182334252156,0.0,-0.0,0.0,1.2580965757369995,2332.077392578125,831.7761840820312,-990.2967035448584
0.1599999964237213,2.0925805494111516E7,244.1475511527511,159.58007680815646,2.0925805495535787E7,-0.0018570674362479167,159.58007680815646,989.6280948328854,1525.922194932917,994.7664292647349,994.7588313382919,-0.023152864905840995,-989.6535353305844,159.17068904977327,-5.0847326470125625E-9,4.3988202175817816E-4,32.19831958582063,-6.863257387462058E-20,4.398820217684044E-4,5.08473264680666E-9,0.004178074132240403,3.741714730199306E-39,1.5996043844491983E-18,59379.212119835065,1115.838128556291,0.002365849120909926,2104.0759074181888,518.1023761876778,-32.420994572807594,7.545909600435959E-4,32.25410845101378,0.0,-0.0,0.0,1.2575265169143677,2329.13037109375,831.3709716796875,-989.6535353305844
0.17000000178813934,2.092581538717058E7,259.4067731022062,169.52612061049504,2.092581538877845E7,-0.002095773511655352,169.52612061049507,988.9838007582525,1525.9221949575967,994.4423954935793,994.4343292640614,-0.02458793015592065,-989.0108272986189,169.0640104538747,-5.738317709595973E-9,4.672980216518577E-4,32.198289090980076,-6.863313281525047E-20,4.672980216598285E-4,5.7383177095273374E-9,0.004178074132240403,3.975571900836762E-39,1.5996043844491983E-18,59340.64963791714,1115.800135947244,0.002365163554308139,2103.322959166679,518.0670955758852,-32.38526353944022,8.007400020295958E-4,32.20811358098846,-0.0,-0.0,0.0,1.256956934928894,2326.18798828125,830.966064453125,-989.0108272986189
0.18000000715255737,2.0925825273789E7,274.6659950518933,179.46892585995334,2.0925825275591597E7,-0.002348823357181118,179.46892585995337,988.3399665428061,1525.9221949792254,994.1187185815623,994.1101848144427,-0.02602159614084663,-988.3685786619986,178.95090706998528,-6.431175995013294E-9,4.947050857353957E-4,32.19825861598639,-6.86311531340592E-20,4.947050857638184E-4,6.43117599494466E-9,0.004178074132240403,4.209429071474217E-39,1.5996043844491983E-18,59302.11471971992,1115.7621667544397,0.002364478585411501,2102.570718579433,518.0318379089937,-32.34959201738416,8.467717103436603E-4,32.16219754734307,0.0,-0.0,0.0,1.2563878297805786,2323.2509765625,830.5615844726562,-988.3685786619986
0.1899999976158142,2.0925835153971374E7,289.9252170017793,189.40849612214953,2.0925835155979823E7,-0.0026162029960232758,189.40849612214956,987.6965913988658,1525.9221949972914,993.7953979342827,993.7863973934658,-0.02745386470408407,-987.7267886343241,188.83138349166796,-7.163269179188765E-9,5.221032497418551E-4,32.19822816082533,-6.863358954282942E-20,5.221032497471157E-4,7.163269179394664E-9,0.004178074132240403,4.443286242111673E-39,1.5996043844491983E-18,59263.60731805945,1115.724220962557,0.0023637942135809743,2101.8191848320453,517.9966031705566,-32.31397987436975,8.926863856727525E-4,32.116360173725454,0.0,-0.0,0.0,1.2558192014694214,2320.31884765625,830.157470703125,-987.7267886343241
0.20000000298023224,2.0925845027722288E7,305.18443895182605,199.3448349567644,2.092584502994771E7,-0.0028978984698824206,199.34483495676446,987.0536745405128,1525.9221950112844,993.4724329586606,993.4629664089066,-0.02888473768522831,-987.0854564285172,198.7054442944013,-7.934558988851344E-9,5.494924088525328E-4,32.19819772548274,-6.863170475288621E-20,5.494924088676954E-4,7.93455898878271E-9,0.004178074132240403,4.6771434127491285E-39,1.5996043844491983E-18,59225.127385711035,1115.68629855634,0.0023631104381793403,2101.0683571023646,517.9613913441924,-32.27842697850976,9.384843278132952E-4,32.070601284289076,0.0,-0.0,0.0,1.255251169204712,2317.391845703125,829.7537231445312,-987.0854564285172
0.20999999344348907,2.0925854895046324E7,320.4436609019903,209.27794591755458,2.0925854897499852E7,-0.003193895838364824,209.27794591755463,986.4112151835841,1525.9221950206957,993.1498230629328,993.1398912661205,-0.030314216920004935,-986.4445812630183,208.5730940749377,-8.745007199900158E-9,5.768726751718195E-4,32.19816730994435,-6.863254247731275E-20,5.76872675163778E-4,8.745007199831525E-9,0.004178074132240403,4.911000583386584E-39,1.5996043844491983E-18,59186.6748757811,1115.6483995204487,0.0023624272585684785,2100.318234567501,517.9262024134437,-32.242933198261,9.841658356728805E-4,32.0249207036545,0.0,-0.0,0.0,1.254683494567871,2314.4697265625,829.3502807617188,-986.4445812630183
0.2199999988079071,2.092586475594805E7,335.70288285222375,219.20783255236552,2.092586475864081E7,-0.0035041811802329903,219.20783255236552,985.7692125456682,1525.9221950250171,992.8275676566492,992.8171713742009,-0.03174230424004235,-985.8041623555772,218.43433738305947,-9.594575640828276E-9,6.042440202395978E-4,32.19813691419605,-6.863066722991298E-20,6.042440202457342E-4,9.594575640759644E-9,0.004178074132240403,5.14485775402404E-39,1.5996043844491983E-18,59148.249741334635,1115.610523839719,0.0023617446741140916,2099.568816409015,517.8910363620204,-32.207498402487616,0.001029731207267517,31.979318256971823,0.0,-0.0,0.0,1.2541162967681885,2311.552734375,828.947265625,-985.8041623555772
0.23000000417232513,2.0925874610432032E7,350.9621048024728,229.13449840314482,2.0925874613375142E7,-0.0038287405915298223,229.1344984031448,985.1276658461,1525.922195023743,992.5056661506698,992.4948061422817,-0.03316900147105291,-985.1641989269713,228.2891787723192,-1.0483226187586274E-8,6.316064895194904E-4,32.1981065382237,-6.86310171223843E-20,6.316064895382472E-4,1.0483226187792175E-8,0.004178074132240403,5.3787149246614973E-39,1.5996043844491983E-18,59109.85193561827,1115.5726714989698,0.0023610626841821824,2098.8201018090504,517.8558931736194,-32.17212246041177,0.0010751807396641073,31.933793769871194,0.0,-0.0,0.0,1.253549575805664,2308.640625,828.5445556640625,-985.1641989269713
0.23999999463558197,2.0925884458502825E7,366.2213267526791,239.05794700595519,2.0925884461707428E7,-0.004167560187511299,239.05794700595519,984.4865743059557,1525.9221950163676,992.1841179571599,992.1727949819924,-0.03459431043760764,-984.5246901985214,238.13762281871607,-1.1410920768873635E-8,6.58960059402209E-4,32.198076182013146,-6.863004240794702E-20,6.589600594288808E-4,1.1410920768393197E-8,0.004178074132240403,5.6125720952989556E-39,1.5996043844491983E-18,59071.481411911285,1115.5348424829301,0.002360381288137768,2098.07208994892,517.8207728318578,-32.136805241594935,0.0011205147291374136,31.888347068443935,0.0,-0.0,0.0,1.2529834508895874,2305.7333984375,828.1422729492188,-984.5246901985214
0.25,2.0925894300164975E7,381.48054870277906,248.97818189098743,2.0925894303642187E7,-0.004520626100600111,248.97818189098749,983.8459371480482,1525.9221950023878,991.8629224895877,991.8511373062244,-0.036018232956769945,-983.8856353933248,247.97967403572594,-1.2377621360535473E-8,6.863047087325159E-4,32.19804584555036,-6.86341540842254E-20,6.8630470872242E-4,1.2377621360192302E-8,0.004178074132240403,5.8464292659364144E-39,1.5996043844491983E-18,59033.13812359949,1115.4970367765654,0.0023597004853507563,2097.3247800155564,517.7856753205751,-32.10154661601672,0.0011657334709690994,31.84297797932025,0.0,-0.0,0.0,1.2524176836013794,2302.831298828125,827.7402954101562,-983.8856353933248
0.25999999046325684,2.0925904135423023E7,396.7397706527042,258.8952065825736,2.092590413918397E7,-0.00488792448214781,258.8952065825736,983.2057535969217,1525.9221949813007,991.5420791627198,991.5298325279006,-0.03744077084514407,-983.247033737487,257.815336971874,-1.3383289990386968E-8,7.136404901419263E-4,32.19801552882128,-6.863055206589556E-20,7.13640490152463E-4,1.3383289989631997E-8,0.004178074132240403,6.080286436573873E-39,1.5996043844491983E-18,58994.82202424922,1115.4592543647032,0.002359020275189192,2096.5781711940976,517.7506006234867,-32.066346453981645,0.0012108372596757544,31.797686329576372,0.0,-0.0,0.0,1.2518523931503296,2299.93408203125,827.3386840820312,-983.247033737487
0.27000001072883606,2.09259139642815E7,411.9989926023808,268.8090245992,2.0925913968337316E7,-0.005269441501525307,268.80902459920003,982.5660228788475,1525.9221949526045,991.2215873926176,991.2088800612036,-0.03886192591296345,-982.6088844588807,267.6446161615375,-1.4427888735722853E-8,7.409674587163011E-4,32.19798523181179,-6.863055819069435E-20,7.40967458729885E-4,1.4427888734693342E-8,0.004178074132240403,6.314143607211332E-39,1.5996043844491983E-18,58956.53306753284,1115.4214952322222,0.0023583406570226594,2095.8322626716226,517.715548724358,-32.031204626164374,0.0012558263888216706,31.75247194677897,0.0,-0.0,0.0,1.2512876987457275,2297.041748046875,826.9374389648438,-982.6088844588807
0.2800000011920929,2.092592378674493E7,427.2582145517303,278.7196394535197,2.0925923791106734E7,-0.005665163345781821,278.7196394535197,981.9267442218194,1525.9221949158,990.9014465966338,990.8882793252409,-0.0402816999663645,-981.9711867834328,277.4675161088408,-1.5511379722383285E-8,7.68285457636766E-4,32.19795495450797,-1.3726530026258934E-19,7.682854576406198E-4,1.5511379721285147E-8,0.004178074132240403,6.54800077784879E-39,1.5996043844491983E-18,58918.27120700597,1115.383759364114,0.002357661630223399,2095.087053638373,517.6805196070625,-31.99612100362357,0.0013007011510959366,31.707334658998533,0.0,-0.0,0.0,1.2507233619689941,2294.154541015625,826.5365600585938,-981.9711867834328
0.28999999165534973,2.0925933602817833E7,442.5174365006692,288.6270546523661,2.0925933607496757E7,-0.006075076220270148,288.62705465236616,981.2879168555475,1525.9221948703882,990.581656193409,990.5680297342474,-0.04170009480852342,-981.3339399450049,287.2840413404376,-1.6633725126465513E-8,7.9559468958223E-4,32.19792469689577,-1.3726587737925893E-19,7.955946895750572E-4,1.66337251252301E-8,0.004178074132240403,6.781857948486248E-39,1.5996043844491983E-18,58880.03639670029,1115.3460467452799,0.0023569831941626478,2094.3425432837416,517.6455132553938,-31.96109545775112,0.0013454618383498993,31.662274294758507,-0.0,-0.0,0.0,1.2501596212387085,2291.27197265625,826.1360473632812,-981.3339399450049
0.30000001192092896,2.0925943412504707E7,457.77665844910894,298.53127369676514,2.092594341751188E7,-0.006499166347964547,298.5312736967652,980.6495400114546,1525.9221948158715,990.2622156028677,990.2481307073782,-0.04311711223806466,-980.6971431755023,297.09419635013705,-1.779488717245595E-8,8.22895145323833E-4,32.19789445896125,-1.3725907163102794E-19,8.228951453541182E-4,1.7794887171495073E-8,0.004178074132240403,7.015715119123707E-39,1.5996043844491983E-18,58841.82859053014,1115.308357360744,0.0023563053482144737,2093.5987308004737,517.6105296532622,-31.92612786032277,0.0013901087415504752,31.617290683085137,0.0,-0.0,0.0,1.2495962381362915,2288.39453125,825.73583984375,-980.6971431755023
0.3100000023841858,2.0925953215810064E7,473.0358803969559,308.4323000819487,2.092595322115661E7,-0.006937419970654446,308.4323000819487,980.0116129226714,1525.922194751754,989.9431242462151,989.9285816662521,-0.044532754049288234,-980.0607957073445,306.89798563621054,-1.8994828136498225E-8,8.50186746629346E-4,32.19786424069048,-1.372624217148282E-19,8.501867466534645E-4,1.8994828135811887E-8,0.004178074132240403,7.249572289761166E-39,1.5996043844491983E-18,58803.64774244067,1115.2706911955102,0.002355628091753192,2092.855615381835,517.5755687845627,-31.89121808346218,0.0014346421507888418,31.57238365347147,0.0,-0.0,0.0,1.2490333318710327,2285.52197265625,825.3360595703125,-980.0607957073445
0.3199999928474426,2.0925963012738395E7,488.2951023441117,318.3301372973667,2.0925963018435434E7,-0.007389823347239144,318.3301372973667,979.3741348240309,1525.922194677541,989.6243815459329,989.6093820324996,-0.04594702203216981,-979.4248967759299,316.69541368751976,-2.0233510341723747E-8,8.774694891141312E-4,32.197834042069495,4.6364293238162785E-24,8.774694891220993E-4,2.0233510340076532E-8,0.004178074132240403,7.483429460398624E-39,1.5996043844491983E-18,58765.493806555794,1115.2330482346154,0.0023549514241543276,2092.1131962226636,517.5406306332236,-31.856365999652567,0.0014790623552836664,31.52755303588837,0.0,0.0,0.0,1.2484710216522217,2282.654296875,824.9365844726562,-979.4248967759299
0.33000001311302185,2.0925972803294193E7,503.5543242904728,328.2247888267006,2.092597280935286E7,-0.007856362754637303,328.22478882670066,978.7371049520644,1525.9221945927384,989.3059869257766,989.2905312289888,-0.047359917974634416,-978.789445618393,326.4864850019665,-2.151089616074157E-8,9.047433706817432E-4,32.19780386308441,-1.3726386786225294E-19,9.047433706799404E-4,2.1510896159780692E-8,0.004178074132240403,7.717286631036082E-39,1.5996043844491983E-18,58727.36673710358,1115.1954284630574,0.00235427534479333,2091.3714725179657,517.5057151831412,-31.821571481718294,0.0015233696434561472,31.482798660765994,-0.0,-0.0,0.0,1.2479090690612793,2279.79150390625,824.5374755859375,-978.789445618393
0.3400000035762787,2.092598258748193E7,518.8135462359309,338.11625814787567,2.0925982593913354E7,-0.008337024488014322,338.1162581478757,978.1005225449969,1525.9221944968538,988.9879398107713,988.9720286773797,-0.04877144365937321,-978.154441476066,336.2712040413041,-2.2826948016260713E-8,9.32008534369117E-4,32.197773703721346,-1.372678600346231E-19,9.320085343628957E-4,2.2826948015025306E-8,0.004178074132240403,7.951143801673542E-39,1.5996043844491983E-18,58689.26648856396,1115.1578318659706,0.0023535998530487025,2090.6304434663402,517.4708224183406,-31.78683440286591,0.0015675643028320817,31.43812035903391,-0.0,-0.0,0.0,1.2473475933074951,2276.933349609375,824.1387329101562,-978.154441476066
0.3499999940395355,2.0925992365306072E7,534.0727681803727,348.0045487330736,2.0925992372121368E7,-0.008831794859361253,348.0045487330736,977.4643868427414,1525.9221943893963,988.6702396272083,988.6538738042204,-0.050181600862706684,-977.5198835883092,346.04957525409327,-2.4181628377198824E-8,9.592649114350326E-4,32.197743563966526,-1.3725965630001839E-19,9.592649114646232E-4,2.4181628375414338E-8,0.004178074132240403,8.185000972311E-39,1.5996043844491983E-18,58651.19301529855,1115.1202584285365,0.002352924948300409,2089.8901082682382,517.4359523228947,-31.752154636661462,0.0016116466200072697,31.393517962098255,0.0,-0.0,0.0,1.2467867136001587,2274.080322265625,823.7403564453125,-977.5198835883092
0.36000001430511475,2.092600213677109E7,549.3319901236802,357.88966404874554,2.0926002143981397E7,-0.009340660199654849,357.8896640487456,976.828697086895,1525.9221942698757,988.3528858026415,988.3360660360646,-0.05159039136140579,-976.8857711974408,355.82160313290296,-2.557489976459612E-8,9.865125068904362E-4,32.197713443806016,-1.372665342999251E-19,9.865125068895403E-4,2.5574899762811637E-8,0.004178074132240403,8.418858142948458E-39,1.5996043844491983E-18,58613.146271846446,1115.0827081357636,0.002352250629925927,2089.1504661216245,517.4011048807184,-31.717532056976168,0.0016556168808666075,31.348991301787645,-0.0,-0.0,0.0,1.246226191520691,2271.23193359375,823.34228515625,-976.8857711974408
0.3700000047683716,2.0926011901881438E7,564.5912120657301,367.7716075556244,2.0926011909497876E7,-0.009863606856470142,367.7716075556245,976.193452520734,1525.9221941378037,988.035877765884,988.0186048019,-0.05299781692518873,-976.2521035462663,365.5872921045261,-2.7006724745078337E-8,0.0010137512567617143,32.19768334322608,-1.3726812578194414E-19,0.0010137512567466665,2.700672474329386E-8,0.004178074132240403,8.652715313585916E-39,1.5996043844491983E-18,58575.12621277598,1115.0451809729107,0.0023515768973078255,2088.4115162302955,517.3662800759627,-31.682966538087285,0.0016994753703506906,31.304540210452444,-0.0,-0.0,0.0,1.2456661462783813,2268.388671875,822.9446411132812,-976.2521035462663
0.3799999952316284,2.0926021660641562E7,579.8504340063945,377.65038270873754,2.092602166867526E7,-0.010400621196140492,377.6503827087376,975.5586523892093,1525.9221939926924,987.719214947005,987.7014895282879,-0.05440387932104095,-975.6188798829949,375.34664662400985,-2.847706593677062E-8,0.001040981313366924,32.19765326221293,-1.3726339717165207E-19,0.001040981313378211,2.8477065934711602E-8,0.004178074132240403,8.886572484223376E-39,1.5996043844491983E-18,58537.13279297969,1115.0076769251236,0.0023509037498272703,2087.6732577967523,517.3314778926767,-31.6484579545896,0.0017432223725928203,31.260164520876884,0.0,-0.0,0.0,1.24510657787323,2265.550048828125,822.5473022460938,-975.6188798829949
0.38999998569488525,2.0926031413055908E7,595.1096559455406,387.52599295741913,2.092603142151799E7,-0.010951689601711223,387.52599295741925,974.9242959389418,1525.9221938340559,987.4028967773248,987.3847196454371,-0.055808580311851055,-974.9860994550818,385.09967112305117,-2.998588600369426E-8,0.0010682026886904659,32.19762320075279,-1.3726499841658688E-19,0.0010682026886921715,2.9985886001635255E-8,0.004178074132240403,9.120429654860834E-39,1.5996043844491983E-18,58499.16596730491,1114.9701959776357,0.0023502311868675864,2086.9356900261087,517.2966983149937,-31.614006181442203,0.001786858170880255,31.21586406632494,-0.0,-0.0,0.0,1.2445474863052368,2262.71630859375,822.1503295898438,-974.9860994550818
0.4000000059604645,2.09260411591289E7,610.3688778830307,397.3984417453228,2.092604116803049E7,-0.011516798473962808,397.39844174532277,974.2903824182174,1525.922193661409,987.0869226894137,987.0682945871936,-0.05721192165572856,-974.3537615092297,394.84637002461994,-3.15331476585679E-8,0.001095415254465393,32.19759315883197,-1.372636292226715E-19,0.0010954152544676685,3.153314765678342E-8,0.004178074132240403,9.354286825498292E-39,1.5996043844491983E-18,58461.22569055378,1114.9327381157095,0.002349559207813246,2086.1988121249765,517.2619413270776,-31.579611093953634,0.0018303830476343063,31.171638680525106,0.0,-0.0,0.0,1.2439888715744019,2259.88720703125,821.753662109375,-974.3537615092297
0.4099999964237213,2.0926050898864966E7,625.6280998187224,407.2677325104344,2.09260509082172E7,-0.012095934231524552,407.2677325104344,973.6569110769824,1525.9221934742682,986.7712921170857,986.7522137861807,-0.05861390510827773,-973.7218652963002,404.58674776419747,-3.311881366311843E-8,0.0011226190273735236,32.19756313643673,-1.372530273967147E-19,0.0011226190273962548,3.311881366078488E-8,0.004178074132240403,9.58814399613575E-39,1.5996043844491983E-18,58423.31191777801,1114.8953033245573,0.002348887812048404,2085.462623299867,517.2272069130483,-31.545272567761238,0.0018737972844845787,31.12748819764977,0.0,-0.0,0.0,1.243430733680725,2257.06298828125,821.357421875,-973.7218652963002
0.41999998688697815,2.0926060632268526E7,640.8873217524681,417.1338686850838,2.0926060642082524E7,-0.012689083310419846,417.13386868508394,973.0238811668394,1525.9221932721507,986.4560044953977,986.4364766738054,-0.060014532419414304,-973.0904100713036,414.3208087358145,-3.47428468268357E-8,0.0011498141689791081,32.19753313355337,-1.372582667061959E-19,0.0011498141689864976,3.474284682505122E-8,0.004178074132240403,9.82200116677321E-39,1.5996043844491983E-18,58385.42460427822,1114.8578915895464,0.0023482169989606184,2084.7271227612605,517.1924950571732,-31.51099047887985,0.0019171011621725847,31.0834124523628,-0.0,-0.0,0.0,1.2428730726242065,2254.24365234375,820.9614868164062,-973.0904100713036
0.4300000071525574,2.0926070359343994E7,656.1465436841158,426.9968536959579,2.0926070369630884E7,-0.013296232164634603,426.9968536959579,972.3912919410421,1525.9221930545752,986.1410592606442,986.1210826875221,-0.061413805337913005,-972.4593950860267,424.04855736706855,-3.640521000852848E-8,0.0011770005579722213,32.19750315016825,-1.3725889044544524E-19,0.0011770005579829332,3.640521000619492E-8,0.004178074132240403,1.0055858337410668E-38,1.5996043844491983E-18,58347.5637051616,1114.820502895912,0.002347546767935676,2083.99230971794,517.1578057436006,-31.47676470363118,0.001960294960695574,31.039411279749405,0.0,-0.0,0.0,1.2423158884048462,2251.428955078125,820.56591796875,-972.4593950860267
0.4399999976158142,2.0926080080095775E7,671.4057656135085,436.85669096411243,2.0926080090866685E7,-0.013917367264639324,436.85669096411254,971.7591426544916,1525.922192821062,985.8264558503549,985.8060312623514,-0.06281172560595062,-971.8288195976262,433.76999805045654,-3.8105866112277626E-8,0.0012041782892430698,32.197473186267736,-1.3726155579647573E-19,0.001204178289255147,3.810586610912047E-8,0.004178074132240403,1.0289715508048127E-38,1.5996043844491983E-18,58309.729175857574,1114.7831372290216,0.002346877118362323,2083.2581833821714,517.1231389566035,-31.4425951187065,0.002003378959138507,30.995484515377708,-0.0,-0.0,0.0,1.241759181022644,2248.618896484375,820.170654296875,-971.8288195976262
0.44999998807907104,2.0926089794528257E7,686.6649875404844,446.7133839049848,2.092608980579431E7,-0.014552475098525974,446.71338390498494,971.1274325637307,1525.9221925711317,985.5121937032908,985.4913218369271,-0.06420829496274394,-971.1986828624841,443.485135168169,-3.984477809054858E-8,0.0012313473174142074,32.19744324183819,-1.372564432259847E-19,0.0012313473174293474,3.9844778087391426E-8,0.004178074132240403,1.0523572678685585E-38,1.5996043844491983E-18,58271.920971749045,1114.7457945742779,0.002346208049630558,2082.524742967837,517.0884946804921,-31.408481601142114,0.002046353435791531,30.951631995274024,0.0,-0.0,0.0,1.2412028312683105,2245.81396484375,819.7758178710938,-971.1986828624841
0.46000000834465027,2.0926099502645828E7,701.924209464877,456.5669359284061,2.092609951441816E7,-0.01520154217223535,456.5669359284062,970.49616092694,1525.922192304307,985.1982722594406,985.1769538510724,-0.06560351514409504,-970.5689841386583,453.19397311194007,-4.162190894481353E-8,0.001258507599415402,32.19741331686603,-1.3726231196851333E-19,0.0012585075994153811,4.16219089419309E-8,0.004178074132240403,1.0757429849323044E-38,1.5996043844491983E-18,58234.1390483195,1114.7084749170447,0.002345539561130262,2081.791987688927,517.0538728995426,-31.374424028300265,0.002089218668136745,30.907853555903728,0.0,-0.0,0.0,1.2406470775604248,2243.013427734375,819.3812866210938,-970.5689841386583
0.4699999988079071,2.0926109204452876E7,717.1834313865149,466.41735043861337,2.0926109216742594E7,-0.015864555009102332,466.41735043861337,969.8653270039332,1525.9221920201107,984.8846909600179,984.8629267433831,-0.06699738788148177,-969.9397226883304,462.8965162449479,-4.3437221724306074E-8,0.0012856592369827188,32.197383411337704,-1.372612329033439E-19,0.0012856592369909997,4.343722172005078E-8,0.004178074132240403,1.0991287019960502E-38,1.5996043844491983E-18,58196.38336129983,1114.6711782427917,0.0023448716522538166,2081.059916762415,517.0192735981332,-31.340422277902938,0.0021319749328239926,30.864149034204118,0.0,-0.0,0.0,1.2400916814804077,2240.2177734375,818.9871215820312,-969.9397226883304
0.47999998927116394,2.0926118899953768E7,732.442653305222,476.264630834262,2.0926118912772015E7,-0.01654150014815059,476.2646308342621,969.2349300561527,1525.9221917180682,984.571449247457,984.5492399560557,-0.06838991490273998,-969.3108977728971,472.59276895602346,-4.5290679521351736E-8,0.0013128021916288771,32.19735352523963,-1.3726418869941771E-19,0.0013128021916269654,4.529067951819458E-8,0.004178074132240403,1.1225144190597961E-38,1.5996043844491983E-18,58158.653866373825,1114.6339045368868,0.0023442043223923783,2080.3285294041684,516.9846967605504,-31.306476227980983,0.0021746225056918085,30.82051826753395,-0.0,-0.0,0.0,1.2395368814468384,2237.4267578125,818.59326171875,-969.3108977728971
0.49000000953674316,2.0926128589152873E7,747.7018752208176,486.10878050843775,2.0926128602510773E7,-0.017232364148185297,486.10878050843786,968.604969346665,1525.922191397705,984.2585465654105,984.2358929288521,-0.06978109793183601,-968.682508659086,482.28273559889215,-4.718224548257366E-8,0.0013399366407808367,32.19732365855829,-2.745296659178468E-19,0.0013399366407918691,4.7182245479004696E-8,0.004178074132240403,1.1459001361235419E-38,1.5996043844491983E-18,58120.950519545164,1114.5966537848296,0.0023435375709400575,2079.5978248335314,516.9501423712063,-31.272585756928716,0.0022171616617664056,30.77696109372674,0.0,-0.0,0.0,1.2389824390411377,2234.640625,818.1997680664062,-968.682508659086
0.5,2.0926138272054546E7,762.9610971331159,495.9498028486691,2.0926138285963222E7,-0.01793713358358673,495.9498028486692,967.9754441401562,1525.9221910585486,983.9459823587448,983.9228851111432,-0.07117093868841211,-968.0545546067214,491.966420523461,-4.9111882797375084E-8,0.0013670622657110897,32.1972938112802,-1.3726317029209759E-19,0.0013670622657178005,4.911188279339434E-8,0.004178074132240403,1.1692858531872878E-38,1.5996043844491983E-18,58083.273276403284,1114.5594259721315,0.002342871397291757,2078.8678022709555,516.9156104145268,-31.23875074347421,0.002259592675247855,30.733477351061246,0.0,-0.0,0.0,1.2384284734725952,2231.85888671875,817.806640625,-968.0545546067214
0.5099999904632568,2.092614794866315E7,778.2203190419268,505.78770123693903,2.0926147963133726E7,-0.01865579504658399,505.78770123693903,967.3463537029278,1525.9221907001272,983.6337560735379,983.6102159426389,-0.07255943888960528,-967.4270348882859,501.6438280797536,-5.10795547041645E-8,0.0013941793907854062,32.19726398339187,-2.7453176077951456E-19,0.0013941793907768104,5.107955469949739E-8,0.004178074132240403,1.1926715702510337E-38,1.5996043844491983E-18,58045.622093297156,1114.5222210842996,0.002342205800842912,2078.1384609377105,516.8811008749371,-31.204971066674485,0.002301915819570038,30.69006687825622,0.0,-0.0,0.0,1.237874984741211,2229.08203125,817.413818359375,-967.4270348882859
0.5199999809265137,2.092615761898301E7,793.4795409470553,515.6224790496975,2.092615763402662E7,-0.01938833514475391,515.6224790496976,966.7176973028916,1525.9221903219698,983.3218671570754,983.2978848738462,-0.0739466002468643,-966.7999487681315,511.3149626098417,-5.308522448350739E-8,0.001421287773074939,32.19723417487986,-2.7453635248821334E-19,0.0014212877730699388,5.308522447966389E-8,0.004178074132240403,1.2160572873147796E-38,1.5996043844491983E-18,58007.996926087886,1114.4850391068687,0.0023415407809900322,2077.4098000564827,516.8466137368913,-31.171246605921823,0.0023441313673025653,30.646729514476284,0.0,-0.0,0.0,1.2373218536376953,2226.309814453125,817.0213623046875,-966.7999487681315
0.5299999713897705,2.092616728301848E7,808.7387628483017,525.4541396578735,2.092616729864625E7,-0.02013474050545483,525.4541396578736,966.0894742095658,1525.9221899236074,983.0103150578468,982.9858913504255,-0.07533242447004211,-966.1732955183635,520.979828445608,-5.5128855470265605E-8,0.0014483875278607516,32.19720438573069,-1.3725329354240577E-19,0.0014483875278668511,5.512885546683393E-8,0.004178074132240403,1.2394430043785253E-38,1.5996043844491983E-18,57970.39773110181,1114.4478800254094,0.002340876337130862,2076.6818188515463,516.8121489848794,-31.137577240944672,0.00238623959028327,30.603465099332453,-0.0,-0.0,0.0,1.2367693185806274,2223.54248046875,816.6292724609375,-966.1732955183635
0.5400000214576721,2.0926176940773882E7,823.9979847454615,535.2826864268865,2.0926176956996936E7,-0.020894997771847557,535.2826864268866,965.4616836940704,1525.922189504572,982.6990992255429,982.6742348192097,-0.07671691326284867,-965.5470744127233,530.6384299115014,-5.7210411042702494E-8,0.0014754787726040895,32.19717461593099,-1.372626248442432E-19,0.0014754787725999876,5.721041103844719E-8,0.004178074132240403,1.2628287214422713E-38,1.5996043844491983E-18,57932.8244647634,1114.4107438255176,0.0023402124686641873,2075.9545165485533,516.7777066034186,-31.10396285180409,0.0024282407594762843,30.560273472878194,0.0,-0.0,0.0,1.2362172603607178,2220.779541015625,816.237548828125,-965.5470744127233
0.550000011920929,2.0926186592253536E7,839.2572066383256,545.1081227166592,2.092618660908299E7,-0.02166909360369118,545.1081227166592,964.8343250291231,1525.9221890643967,982.3882191110521,982.3629147329905,-0.07810006832671618,-964.9212847217048,540.290771307189,-5.932985462466152E-8,0.0015025613424088516,32.19714486546743,-2.7452138251671124E-19,0.0015025613424084789,5.932985462026894E-8,0.004178074132240403,1.286214438506017E-38,1.5996043844491983E-18,57895.27708330229,1114.3736304928816,0.002339549174991026,2075.227892375836,516.7432865771141,-31.07040331890846,0.0024701351450982898,30.51715447562356,0.0,-0.0,0.0,1.2356655597686768,2218.021240234375,815.8461303710938,-964.9212847217048
0.5600000023841858,2.092619623746176E7,854.5164285266801,554.9304518816291,2.0926196254908755E7,-0.02245701467802519,554.9304518816292,964.2073974890341,1525.9221886026153,982.0776741664572,982.0519305397247,-0.07948189135966222,-964.2959257235336,549.9368569778303,-6.148714968743348E-8,0.0015296354303444165,32.197115134326495,-2.7452716194921983E-19,0.0015296354303456345,6.148714968331545E-8,0.004178074132240403,1.309600155569763E-38,1.5996043844491983E-18,57857.755543412015,1114.3365400130115,0.0023388864555097984,2074.501945559116,516.7088888904093,-31.036898522948313,0.0025119230165797594,30.47410794847072,-0.0,-0.0,0.0,1.235114336013794,2215.267578125,815.4550170898438,-964.2959257235336
0.5699999928474426,2.0926205876402862E7,869.775650410307,564.7496772707605,2.0926205894478522E7,-0.02325874768951053,564.7496772707606,963.5809003497023,1525.9221881187632,981.7674638450321,981.7412816945141,-0.08086238405469816,-963.6709966919612,559.5766912052976,-6.368225975069032E-8,0.0015567008760462942,32.19708542249492,-1.3725437912439355E-19,0.0015567008760606108,6.368225974588594E-8,0.004178074132240403,1.3329858726335089E-38,1.5996043844491983E-18,57820.25980151768,1114.2994723716567,0.0023382243096238017,2073.7766753296905,516.6745135279731,-31.00344834499435,0.0025536046425249045,30.431133732809887,0.0,-0.0,0.0,1.2345635890960693,2212.518798828125,815.0642700195312,-963.6709966919612
0.5799999833106995,2.092621550908114E7,885.0348722889831,574.5658022275562,2.092621552779658E7,-0.024074279348269556,574.5658022275562,962.9548328886116,1525.922187612377,981.4575876012387,981.430967650019,-0.08224154810142086,-963.0464969060191,569.2102782773267,-6.591514837657043E-8,0.0015837577347783784,32.19705572995944,3.209267229762405E-24,0.0015837577347742,6.591514837190334E-8,0.004178074132240403,1.3563715896972546E-38,1.5996043844491983E-18,57782.789814361146,1114.2624275545422,0.002337562736736455,2073.0520809192244,516.6401604744538,-30.970052666433507,0.00259518029075957,30.388231670456143,0.0,0.0,0.0,1.234013319015503,2209.7744140625,814.6738891601562,-963.0464969060191
0.5899999737739563,2.092622513550089E7,900.2940941624809,584.3788300900699,2.092622515486725E7,-0.024903596382500837,584.37883009007,962.3291943848246,1525.922187082994,981.1480448907231,981.1209878612459,-0.08361938518783152,-962.4224256451378,578.8376225104779,-6.81857791768376E-8,0.0016108059929176946,32.19702605670667,2.2747270215018318E-23,0.0016108059929436005,6.818577917217049E-8,0.004178074132240403,1.3797573067610005E-38,1.5996043844491983E-18,57745.345538708265,1114.225405547278,0.002336901736249723,2072.328161558023,516.6058297143967,-30.936711368946824,0.002636650228389066,30.34540160362734,-0.0,0.0,0.0,1.2334635257720947,2207.03466796875,814.2838745117188,-962.4224256451378
0.6000000238418579,2.0926234755666398E7,915.5533160305679,594.1887641909173,2.09262347756948E7,-0.025746685537342273,594.1887641909174,961.7039841189803,1525.9221865301538,980.8388351703128,980.8113417831516,-0.08499589699419673,-961.7987821915759,588.4587281610274,-7.049411580976823E-8,0.00163784571016447,32.19699640272335,-2.7451769506816767E-19,0.0016378457101596882,7.049411580455206E-8,0.004178074132240403,1.4031430238247462E-38,1.5996043844491983E-18,57707.926931494556,1114.1884063357027,0.002336241307570233,2071.6049164817327,516.5715212325626,-30.903424334589452,0.0026780147216136814,30.302643375022207,-0.0,-0.0,0.0,1.2329140901565552,2204.299560546875,813.8941650390625,-961.7987821915759
0.6100000143051147,2.0926244369581938E7,930.8125378930074,603.9956078572883,2.0926244390283506E7,-0.02660353357339318,603.9956078572884,961.0792013732886,1525.9221859533955,980.5299578980132,980.5020288718391,-0.08637108520009705,-961.1755658291996,598.0735995169883,-7.284012197610429E-8,0.00166487694842445,32.196966767996265,1.2130165935571028E-23,0.001664876948436918,7.284012197116266E-8,0.004178074132240403,1.4265287408884921E-38,1.5996043844491983E-18,57670.533949751974,1114.1514299055302,0.00233558145010296,2070.882344924419,516.5372350135991,-30.870191445706062,0.0027192740359464535,30.259956827737014,0.0,0.0,0.0,1.2323651313781738,2201.56884765625,813.5048217773438,-961.1755658291996
0.6200000047683716,2.0926253977251787E7,946.0717597495578,613.799364410959,2.0926253998637646E7,-0.0274741272691017,613.7993644109591,960.4548454315262,1525.922185352261,980.2214125330047,980.1930485869383,-0.08774495148033423,-960.5527758410433,607.6822408369121,-7.522376142558983E-8,0.0016918996295918589,32.196937152512156,-2.7451051106112223E-19,0.0016918996296163414,7.52237614214718E-8,0.004178074132240403,1.449914457952238E-38,1.5996043844491983E-18,57633.1665504626,1114.1144762425847,0.0023349221632554176,2070.160446123163,516.5029710422589,-30.83701258498524,0.002760428436091141,30.217341805318537,0.0,-0.0,0.0,1.2318166494369507,2198.843017578125,813.1157836914062,-960.5527758410433
0.6299999952316284,2.092626357868021E7,961.3309815999733,623.6000371683032,2.0926263600761488E7,-0.02835845341928689,623.6000371683033,959.8309155790328,1525.9221847262922,979.9131985356389,979.8844003868273,-0.08911749750675026,-959.9304115141754,617.2846563934406,-7.764499795292416E-8,0.0017189138200054445,32.19690755625783,-2.7452385399439305E-19,0.001718913820012525,7.764499794825704E-8,0.004178074132240403,1.4733001750159838E-38,1.5996043844491983E-18,57595.824690850524,1114.0775453326319,0.002334263446434676,2069.4392193147887,516.4687293032441,-30.80388763541896,0.002801478185998454,30.174798151723948,0.0,-0.0,0.0,1.2312686443328857,2196.12158203125,812.72705078125,-959.9304115141754
0.6399999856948853,2.0926273173871458E7,976.5902034440028,633.3976294403035,2.092627319665928E7,-0.029256498836048195,633.3976294403035,959.2074111027057,1525.9221840750326,979.6053153674359,979.5760837334024,-0.09048872494640837,-959.3084721348258,626.8808504253933,-8.010379540025175E-8,0.001745919446014528,32.19687797922004,-2.74503900712415E-19,0.001745919446027434,8.010379539503556E-8,0.004178074132240403,1.4966858920797297E-38,1.5996043844491983E-18,57558.50832808955,1114.0406371615654,0.0023336052990506465,2068.718663739462,516.4345097813783,-30.770816480344934,0.002842423548815066,30.13232571136192,0.0,-0.0,0.0,1.230721116065979,2193.40478515625,812.3387451171875,-959.3084721348258
0.6499999761581421,2.0926282762829788E7,991.8494252813914,643.1921445325643,2.0926282786335293E7,-0.030168250347060166,643.1921445325644,958.5843312909969,1525.9221833980268,979.2977624910807,979.2680980884963,-0.09185863546409419,-958.6869569920328,636.4708271990471,-8.260011765249272E-8,0.0017729165072757963,32.19684842138566,1.425232123717516E-23,0.001772916507285765,8.260011764810014E-8,0.004178074132240403,1.5200716091434757E-38,1.5996043844491983E-18,57521.21741952197,1114.0037517151702,0.0023329477205118743,2067.9987786360857,516.400312461387,-30.737799003390197,0.002883264786959575,30.08992432903701,-0.0,0.0,0.0,1.230173945426941,2190.6923828125,811.9507446289062,-958.6869569920328
0.6600000262260437,2.092629234555944E7,1007.1086471118795,652.9835857453219,2.0926292369793735E7,-0.031093694797391436,652.9835857453219,957.961675433908,1525.9221826948203,978.9905393704206,978.9604429126925,-0.09322723071913248,-958.0658653788461,646.0545909218598,-8.513392864232331E-8,0.0017999051477124365,32.19681888274161,-2.7453518976515836E-19,0.0017999051477076199,8.51339286398525E-8,0.004178074132240403,1.5434573262072214E-38,1.5996043844491983E-18,57483.95192273076,1113.9668889794532,0.0023322907102314543,2067.27956324877,516.3661373282051,-30.704835088547817,0.00292400216203202,30.047593850024374,0.0,-0.0,0.0,1.2296273708343506,2187.984619140625,811.5630493164062,-958.0658653788461
0.6700000166893005,2.092630192206465E7,1022.3678689352025,662.7719563734574,2.0926301947038874E7,-0.032032819048708916,662.7719563734576,957.339442822986,1525.9221819649601,978.6836454704612,978.6531176712674,-0.09459451236879776,-957.4451965862562,655.632145853472,-8.770519234799609E-8,0.0018268853002896736,32.19678936327464,1.2719733872933945E-23,0.001826885300297794,8.770519234525076E-8,0.004178074132240403,1.5668430432709673E-38,1.5996043844491983E-18,57446.711795175375,1113.9300489402185,0.002331634267619423,2066.5610168185085,516.3319843665821,-30.671924620075885,0.0029646359349139897,30.005334119970573,0.0,0.0,0.0,1.229081153869629,2185.28125,811.1757202148438,-957.4451965862562
0.6800000071525574,2.0926311492349647E7,1037.6270907510918,672.5572597065076,2.092631151807492E7,-0.032985609978595676,672.5572597065076,956.7176327513193,1525.922181207994,978.3770802573639,978.346121829428,-0.09596048206581327,-956.8249499080423,665.2034962035511,-9.03138727914726E-8,0.001853856971165436,32.19675986297178,2.2314631128199617E-23,0.0018538569711820379,9.031387278653097E-8,0.004178074132240403,1.590228760334713E-38,1.5996043844491983E-18,57409.496994482535,1113.8932315834588,0.0023309783920897552,2065.8431385908343,516.2978535614455,-30.639067482588455,0.0030051663657010693,29.963144984982144,0.0,0.0,0.0,1.2285352945327759,2182.58251953125,810.7887573242188,-956.8249499080423
0.6899999976158142,2.0926321056418654E7,1052.886312559274,682.3394990286766,2.0926321082906097E7,-0.03395205448123306,682.3394990286765,956.0962445135336,1525.9221804234714,978.0708431984423,978.0394548546844,-0.09732514145971513,-956.2051246383465,674.768646190593,-9.295993404029036E-8,0.0018808200977471824,32.19673038181984,-2.74510970666679E-19,0.0018808200977606768,9.295993403672139E-8,0.004178074132240403,1.613614477398459E-38,1.5996043844491983E-18,57372.30747830079,1113.8564368951302,0.0023303230830563374,2065.1259278114107,516.2637448976916,-30.606263561001597,0.003045593713742962,29.921026291572446,0.0,-0.0,0.0,1.2279900312423706,2179.888427734375,810.402099609375,-956.2051246383465
0.699999988079071,2.0926330614275884E7,1068.1455343594714,692.1186776188475,2.0926330641536634E7,-0.03493213946785545,692.1186776188475,955.4752774057871,1525.9221796109423,977.7649337621594,977.7331162109225,-0.09868849219662502,-955.5857200777277,684.3276000386635,-9.564334020880776E-8,0.0019077749035698516,32.196700919805835,-2.7451481398134144E-19,0.0019077749035821775,9.564334020523879E-8,0.004178074132240403,1.637000194462205E-38,1.5996043844491983E-18,57335.14320466366,1113.8196648611636,0.0023296683399331827,2064.4093837262694,516.2296583601965,-30.57351274053525,0.0030859182376388105,29.878977886663144,0.0,-0.0,0.0,1.227445125579834,2177.19873046875,810.0157470703125,-955.5857200777277
0.7099999785423279,2.0926340165925547E7,1083.4047561514017,701.8947987505936,2.092634019397073E7,-0.03592585186561337,701.8947987505937,954.8547307257669,1525.922178769958,977.459351418124,977.4271053702488,-0.10005053591834073,-954.9667355210355,693.880361943931,-9.83640554550912E-8,0.001934721188332552,32.19667147691668,1.0707320289065187E-23,0.0019347211883352072,9.836405545234583E-8,0.004178074132240403,1.6603859115259506E-38,1.5996043844491983E-18,57298.00413126213,1113.7829154675942,0.0023290141621367336,2063.693505584328,516.1955939339365,-30.540814906742373,0.0031261401952140744,29.836999617612328,0.0,0.0,0.0,1.2269006967544556,2174.513427734375,809.6297607421875,-954.9667355210355
0.7200000286102295,2.0926349711371846E7,1098.663977934778,711.6678656921903,2.0926349740212582E7,-0.036933178618483,711.6678656921903,954.2346037726847,1525.9221779000711,977.154095637088,977.121421801139,-0.10141127426370032,-954.3481702695279,703.4269360993187,-1.011220439834048E-7,0.00196165903790657,32.1966420531394,-2.7452422483942787E-19,0.0019616590379138276,1.0112204398093399E-7,0.004178074132240403,1.6837716285896966E-38,1.5996043844491983E-18,57260.890216171676,1113.746188700467,0.0023283605490841616,2062.978292635527,516.161551603899,-30.50816994548568,0.0031662598435633084,29.7950913321914,0.0,-0.0,0.0,1.2263567447662354,2171.832763671875,809.2440795898438,-954.3481702695279
0.7300000190734863,2.0926359250618964E7,1113.9231997093088,721.4378817066258,2.0926359280266386E7,-0.03795410668612931,721.437881706626,953.6148958472725,1525.922177000835,976.849165890943,976.8160649743621,-0.10277070886721801,-953.7300236248072,712.9673266915883,-1.0391727004109749E-7,0.0019885884693106393,32.19661264846099,7.243676460818158E-24,0.0019885884693085633,1.0391727003780307E-7,0.004178074132240403,1.7071573456534425E-38,1.5996043844491983E-18,57223.80141748844,1113.709484545847,0.0023277075001935737,2062.2637441310576,516.127531355094,-30.47557774293935,0.0032062774390100635,29.753252878586355,-0.0,0.0,0.0,1.2258132696151733,2169.156494140625,808.8587646484375,-953.7300236248072
0.7400000095367432,2.09263687836711E7,1129.182421474699,731.2048500516132,2.0926368814136326E7,-0.038988623045042914,731.2048500516133,952.9956062517782,1525.922176071805,976.5445616527172,976.511034364149,-0.10412884135999358,-953.1122948876063,722.501537906478,-1.0674969792171543E-7,0.002015509359780013,32.19658326286851,4.0263819944827407E-23,0.0020155093598072547,1.0674969791732284E-7,0.004178074132240403,1.7305430627171882E-38,1.5996043844491983E-18,57186.73769325638,1113.6728029898009,0.0023270550148836514,2061.5498593229677,516.0935331725349,-30.443038185583163,0.0032461932371370783,29.71148410539171,0.0,0.0,0.0,1.22527015209198,2166.484619140625,808.4738159179688,-953.1122948876063
0.75,2.092637831053243E7,1144.4416432306482,740.9687739796016,2.092637834182659E7,-0.04003671468808534,740.9687739796017,952.3767342899624,1525.9221751125363,976.2402823965728,976.2063294399268,-0.10548567337084931,-952.494983366256,732.029573926237,-1.096192919637566E-7,0.002042421943558145,32.196553896348945,1.6644220594965368E-23,0.00204242194357506,1.096192919604622E-7,0.004178074132240403,1.7539287797809342E-38,1.5996043844491983E-18,57149.69900197536,1113.6361440184044,0.0023264030925738252,2060.836637464347,516.0595570412474,-30.410551160204076,0.0032860074928241696,29.669784861611724,-0.0,0.0,0.0,1.2247275114059448,2163.817138671875,808.0891723632812,-952.494983366256
0.7599999904632568,2.0926387831207123E7,1159.7008649768516,750.7296567377871,2.0926387863341343E7,-0.0410983686228974,750.7296567377872,951.7582792670935,1525.922174122586,975.9363275978017,975.9019496781252,-0.10684120652314683,-951.8780883645792,741.5514389092036,-1.1252601654631293E-7,0.0020693261021314416,32.19652454888942,9.37089398332407E-24,0.0020693261021363218,1.1252601654411666E-7,0.004178074132240403,1.77731449684468E-38,1.5996043844491983E-18,57112.68530187475,1113.5995076178233,0.002325751732685669,2060.124077810856,516.025602946343,-30.37811655391313,0.0033257204601531793,29.628154996676432,0.0,0.0,0.0,1.2241853475570679,2161.154296875,807.704833984375,-951.8780883645792
0.7699999809265137,2.092639734569935E7,1174.9600867130002,760.4875015681247,2.092639737868476E7,-0.04217357187599191,760.4875015681248,951.1402404899436,1525.9221731015116,975.6326967328239,975.5978945539044,-0.10819544243819744,-951.2616091903593,751.0671370284074,-1.154698361002754E-7,0.0020962218611230085,32.19649522047702,2.4212240778980957E-23,0.0020962218611263093,1.1546983609972633E-7,0.004178074132240403,1.8007002139084258E-38,1.5996043844491983E-18,57075.696551421555,1113.562893774163,0.0023251009346402594,2059.412179617836,515.9916708728811,-30.34573425411027,0.003365332392512849,29.5865943604071,-0.0,0.0,0.0,1.2236435413360596,2158.49560546875,807.3208618164062,-951.2616091903593
0.7799999713897705,2.0926406854013268E7,1190.2193084387807,770.2423117073388,2.0926406887860984E7,-0.04326231148820625,770.2423117073388,950.5226172667846,1525.9221720488724,975.3293892791836,975.2941635435171,-0.10954838273367089,-950.6455451529123,760.576672426626,-1.184507150958834E-7,0.0021231092482656266,32.19646591109888,2.0403642757723815E-23,0.00212310924826674,1.184507150942362E-7,0.004178074132240403,1.8240859309721718E-38,1.5996043844491983E-18,57038.732709174736,1113.526302473643,0.002324450697861242,2058.700942143663,515.9577608060282,-30.31340414852311,0.003404843542555723,29.5451028030535,0.0,0.0,0.0,1.223102331161499,2155.841552734375,806.9371948242188,-950.6455451529123
0.7900000214576721,2.0926416356153026E7,1205.4785301538752,779.9940903869353,2.092641639087418E7,-0.04436457451674869,779.9940903869356,949.905408907384,1525.9221709642288,975.0264047155457,974.990756125481,-0.11090002902200355,-950.0298955618787,770.0800492608535,-1.2146861804832691E-7,0.002149988222454876,32.19643662074209,4.1980274406556585E-24,0.0021499882224521255,1.2146861804722876E-7,0.004178074132240403,1.8474716480359175E-38,1.5996043844491983E-18,57001.79373371272,1113.489733702424,0.002323801021771797,2057.9903646464268,515.923872730901,-30.281126125166605,0.003444254162146642,29.503680175254406,0.0,0.0,0.0,1.2225613594055176,2153.19189453125,806.5538940429688,-950.0298955618787
0.800000011920929,2.0926425852122772E7,1220.7377518579615,789.7428408332122,2.0926425887728486E7,-0.045480348035198404,789.7428408332122,949.288614723001,1525.9221698471424,974.723742521694,974.6876717782205,-0.11225038291312693,-949.4146597296308,779.5772716590537,-1.2452350951774648E-7,0.0021768588156810217,32.196407349393866,3.6174991843913236E-23,0.0021768588156852084,1.245235095171974E-7,0.004178074132240403,1.8708573650996634E-38,1.5996043844491983E-18,56964.879583777845,1113.4531874467764,0.0023231519057975917,2057.2804463871607,515.8900066327197,-30.248900072380376,0.003483564502454098,29.46232632807347,0.0,0.0,0.0,1.2220209836959839,2150.546630859375,806.1708984375,-949.4146597296308
0.8100000023841858,2.0926435341926645E7,1235.9969735507127,799.4885662672706,2.0926435378428053E7,-0.046609619133505475,799.4885662672706,948.6722340263827,1525.922168697175,974.421402178527,974.3849099812443,-0.11359944601492247,-948.7998369700651,789.0683437782934,-1.2761535410923277E-7,0.0022037210620344657,32.196378097041325,3.095222626704299E-23,0.0022037210620488154,1.2761535410978183E-7,0.004178074132240403,1.8942430821634094E-38,1.5996043844491983E-18,56927.99021820391,1113.4166636928544,0.002322503349362807,2056.5711866254933,515.8561624966004,-30.216725878776106,0.0035227748139605468,29.421041112947698,0.0,0.0,0.0,1.2214809656143188,2147.90576171875,805.7882080078125,-948.7998369700651
0.8199999928474426,2.0926444825568777E7,1251.2561952317983,809.2312699050266,2.0926444862977E7,-0.04775237491662665,809.2312699050268,948.0562661317596,1525.9221675138904,974.1193831680556,974.082470215141,-0.11494721992981098,-948.1854265985934,798.5532697269535,-1.3074411646909134E-7,0.002230574997673834,32.19634886367172,-3.6494996520943775E-24,0.0022305749976613246,1.307441164696404E-7,0.004178074132240403,1.917628799227155E-38,1.5996043844491983E-18,56891.125595915604,1113.3801624269975,0.002321855351895448,2055.8625846254604,515.8223403078331,-30.184603433305675,0.0035618853463666804,29.379824381753437,0.0,0.0,0.0,1.220941424369812,2145.269287109375,805.4058837890625,-948.1854265985934
0.8299999833106995,2.092645430305329E7,1266.5154169008829,818.9709549572216,2.0926454341379452E7,-0.0489086025056622,818.9709549572218,947.4407103548413,1525.9221662968528,973.8176849733995,973.7803519627488,-0.11629370625679894,-947.5714279309365,808.0320536258699,-1.3390976128795477E-7,0.002257420589996924,32.19631964927226,2.6100087574785534E-23,0.0022574205899983874,1.3390976128740568E-7,0.004178074132240403,1.941014516290901E-38,1.5996043844491983E-18,56854.28567585619,1113.3436836354936,0.0023212079128231726,2055.1546396509375,515.7885400516637,-30.15253262520585,0.0036008963486509867,29.338675986752154,-0.0,0.0,0.0,1.2204023599624634,2142.63720703125,805.02392578125,-947.5714279309365
