time,eiPosition_ft_X,eiPosition_ft_Y,eiPosition_ft_Z,gePosition_ft_X,gePosition_ft_Y,gePosition_ft_Z,eiVelocity_ft_s_X,eiVelocity_ft_s_Y,eiVelocity_ft_s_Z,feVelocity_ft_s_X,feVelocity_ft_s_Y,feVelocity_ft_s_Z,altitudeMsl_ft,longitude_deg,latitude_deg,localGravity_ft_s2,eulerAngle_deg_Yaw,eulerAngle_deg_Pitch,eulerAngle_deg_Roll,bodyAngularRateWrtEi_deg_s_Roll,bodyAngularRateWrtEi_deg_s_Pitch,bodyAngularRateWrtEi_deg_s_Yaw,altitudeRateWrtMsl_ft_min,speedOfSound_ft_s,airDensity_slug_ft3,ambientPressure_lbf_ft2,ambientTemperature_dgR,aero_bodyForce_lbf_X,aero_bodyForce_lbf_Y,aero_bodyForce_lbf_Z,aero_bodyMoment_ftlbf_L,aero_bodyMoment_ftlbf_M,aero_bodyMoment_ftlbf_N,mach,dynamicPressure_lbf_ft2,trueAirspeed_nmi_h
0.0,2.092564632546E7,0.0,0.0,2.092564632546E7,0.0,0.0,1000.0000000000002,1525.9221945458175,999.9999999999998,999.9999999999998,0.0,-1000.0000000000002,0.0,0.0,0.0,32.19881021407498,0.0,1.2722218725854067E-14,0.0,0.0041780741322344,0.0,9.277188200394804E-19,60000.000000000015,1116.449481741113,0.0023768988323037404,2116.22,518.67,-33.00087834614464,0.0,33.00087834614463,0.0,0.0,0.0,1.266706273326059,2376.8988323037406,837.888482492907
0.10000000000000007,2.0925745998602677E7,152.59221946209814,99.83395761751521,2.0925745999159034E7,-7.268232067661057E-4,99.83395761751521,993.4871789337421,1525.9221947492554,996.7017757542347,996.6970358942955,-0.014512746143037904,-993.5030611750691,99.6739371791482,-1.9900796942453484E-9,2.732616216978548E-4,32.19850297743667,1.6077834166631399E-21,2.7335056174139266E-4,1.990079695143773E-9,0.0041780741322344,0.0,9.277188200394804E-19,59610.18367050414,1116.066857271412,0.0023699741999842414,2108.608755876926,518.3145484905385,-32.63555170105354,4.75199919145404E-4,32.53065873953462,0.0,0.0,0.0,1.2609332386529755,2346.8116293870085,833.7839433624303
0.20000000000000015,2.0925845024447106E7,305.1844389517363,199.3415558862601,2.0925845026672523E7,-0.0028978507939445286,199.3415558862601,987.0374000959985,1525.922195009699,993.4561569057223,993.4467540381085,-0.028884263094998492,-987.069117891402,198.7021619938314,-7.934428451516537E-9,5.465782909925847E-4,32.19819773550311,3.2191961477619096E-21,5.458049516829603E-4,7.934428449540713E-9,0.0041780741322344,0.0,9.277188200394804E-19,59224.14707348412,1115.6865852125347,0.0023631097866639666,2101.068857498441,517.961403048292,-32.27735877745875,9.384532255881942E-4,32.06953660839264,0.0,0.0,0.0,1.2552301722768522,2317.314960925652,829.7300213774128
0.3000000000000002,2.0925943407607656E7,457.7766584487612,298.5263725603922,2.0925943412614826E7,-0.006499059563974702,298.5263725603922,980.6333708961206,1525.922194812272,990.2460453469433,990.2320552012709,-0.0431164050278308,-980.6808783898196,297.08928418904543,-1.7794594799267583E-8,8.198389837603203E-4,32.19789447398071,8.975345471212241E-20,8.173730035888763E-4,1.7794594803397748E-8,0.0041780741322344,0.0,9.277188200394804E-19,58840.85270338917,1115.3086501896069,0.002356304950768043,2093.5994770318293,517.6105471689904,-31.925077320401822,0.0013900628981813141,31.616245299326273,0.0,0.0,0.0,1.24957541148057,2288.319085171811,825.7123194168119
0.4000000000000003,2.092604115262043E7,610.3688778821847,397.39192903141634,2.0926041161522023E7,-0.011516609472656869,397.39192903141634,974.2743167284896,1525.922193655071,987.0708564868095,987.0523536960267,-0.05721098479523479,-974.3375688768316,394.83983531966805,-3.153263018028154E-8,0.0010931170093469755,32.19759317881817,0.0,0.0010880643963078695,3.1532630193163756E-8,0.0041780741322344,0.0,9.277188200394804E-19,58460.254132609894,1114.9330370937735,0.0023495590618120106,2086.199801350538,517.2619646282374,-31.578577824863846,0.0018303229771357069,31.170612136292306,0.0,0.0,0.0,1.243968212300005,2259.8130134602443,821.7302789645381
0.5000000000000003,2.0926138263944916E7,762.9610971314601,495.94168887320825,2.0926138277853593E7,-0.017936839554956396,495.94168887320825,967.9594800169872,1525.9221910487724,983.9300185041861,983.9070766299418,-0.07116977506734856,-968.0384325695389,491.95827040821314,-4.9111077765836485E-8,0.0013663867714182396,32.19729383620148,1.1724124900644943E-19,0.0013578886498125159,4.9111077770543255E-8,0.0041780741322344,0.0,9.277188200394804E-19,58082.305954172334,1114.5597310765684,0.0023428715001558866,2078.8690317011437,516.9156394755761,-31.237734365702902,0.00225951887392947,30.732469206654045,0.0,0.0,0.0,1.2384078478525098,2231.786060701721,817.783354233837
0.6000000000000004,2.0926234745965667E7,915.55331602772,594.1790591013132,2.0926234765994065E7,-0.025746263953673687,594.1790591013132,961.6881197465858,1525.9221865162601,980.8229719958896,980.7956635531742,-0.08499450942920711,-961.7827292277648,588.448969617486,-7.049296155142471E-8,0.0016371566661805234,32.19699643254862,3.7365862167876565E-19,0.0016268551286604592,7.049296154399283E-8,0.0041780741322344,0.0,9.277188200394804E-19,57706.963753665885,1114.188717544204,0.0023362416567609973,2071.6063833752614,516.5715560285016,-30.90242447902837,0.0026779276688881195,30.301653203190778,0.0,0.0,0.0,1.2328936078755246,2204.2278353216284,813.8710118210905
0.7000000000000005,2.092633060299392E7,1068.1455343549842,692.1073913976242,2.092633063025467E7,-0.034931568075826425,692.1073913976242,955.4595110104234,1525.922179592277,977.749169636301,977.7175661173882,-0.09868688342807687,-955.5697347016494,684.3162398822606,-9.564177580302425E-8,0.001906452111206416,32.19670095450454,4.2001302883484044E-19,0.0018949730453572803,9.564177578369648E-8,0.0041780741322344,0.0,9.277188200394804E-19,57334.18408209896,1113.8199821519997,0.002329668932953383,2064.4110853905,516.2296988666208,-30.572529048155456,0.0030858183964813657,29.878005272207506,0.0,0.0,0.0,1.2274247982804491,2177.1282295871038,809.9927303710854
0.8000000000000006,2.092642583926926E7,1220.737751851324,789.7299833015901,2.0926425874874976E7,-0.04547960484962754,789.7299833015901,949.2729445717816,1525.9221698230708,974.7080758481808,974.6722477458914,-0.1122485556113502,-949.398740494134,779.5643165484071,-1.2452147477964569E-7,0.0021767442301654227,32.19640738893611,1.1647446320009996E-18,0.0021622514636368967,1.2452147474698515E-7,0.0041780741322344,0.0,9.277188200394804E-19,56963.92442964804,1113.4535107987595,0.0023231527401902925,2057.282380176604,515.8900528257859,-30.247932193897192,0.0034834523201375885,29.461370867435914,0.0,0.0,0.0,1.222000740721413,2150.477410302657,806.1480002533276
0.9000000000000007,2.0926520458961107E7,1373.329968209994,887.0500793690431,2.0926520504024386E7,-0.05737739106947004,887.0500793690431,943.1277264403906,1525.9221567660675,971.699166484235,971.6591833145493,-0.1256811485072953,-943.2690533377524,874.1973648779094,-1.5709646269765858E-7,0.00244432435147335,32.19611572292743,7.764895992923583E-19,0.0024286993016529577,1.5709646267685704E-7,0.0041780741322344,0.0,9.277188200394804E-19,56596.14320026515,1113.0892896216485,0.002316692499839377,2050.2195232772283,515.5526029927073,-29.9285211691307,0.003871083195540372,29.05159960959726,0.0,0.0,0.0,1.216620772177763,2124.2658098671736,802.336323248971
1.0000000000000007,2.092661446617016E7,1525.9221830805413,984.0708722997027,2.0926614521803584E7,-0.07061210385265426,984.0708722997027,937.0231774625021,1525.922139989549,968.7219285190153,968.6778588430599,-0.1389862495789129,-937.1799947851822,968.2194814756513,-1.9333158400185696E-7,0.0027115076020419516,32.19582594377536,1.1647467969204191E-18,0.0026943253350523414,1.933315840090744E-7,0.0041780741322344,0.0,9.277188200394804E-19,56230.799687110935,1112.72730499135,0.0023102876429665553,2043.2217830628624,515.2173346998452,-29.614186257400803,0.004248957523811742,28.648545151329778,0.0,0.0,0.0,1.2112842445499574,2098.4841176729183,798.5572122479458
1.0999999999999897,2.0926707864930045E7,1678.5143960698697,1080.795504034373,2.092670793224619E7,-0.08517107719325567,1080.795504034373,930.9586329242288,1525.9221190723376,965.7758597507816,965.7277711961972,-0.15216541217088647,-931.1309008130323,1061.6346959508955,-2.3319211390325444E-7,0.0029784127477184646,32.1955380389845,1.1647236671757148E-18,0.002959138200013007,2.3319211393157925E-7,0.0041780741322344,0.0,9.277188200394804E-19,55867.85404878194,1112.3675435063014,0.0023039376101111667,2036.2884404314846,514.8842335194656,-29.304820675117547,0.004617314795558463,28.252065046987944,0.0,0.0,0.0,1.205990524269673,2073.123271812664,794.81019095591
1.1999999999999786,2.092680065920853E7,1831.1066067432766,1177.2270668228107,2.0926800739319947E7,-0.10104179857735407,1177.2270668228107,924.9334421676392,1525.9220936035,962.860468512944,962.8084277946589,-0.1652201563863718,-925.1211214383733,1154.4469721131027,-2.7664374908562763E-7,0.0032451011198435754,32.19525199626335,1.164753805035581E-18,0.003223146396172643,2.7664374914720836E-7,0.0041780741322344,0.0,9.277188200394804E-19,55507.2672863024,1112.0099919887068,0.002297641851096005,2029.4187885489082,514.5532852593575,-29.000320477798017,0.004976387724318026,27.862020627691095,0.0,0.0,0.0,1.2007389919206848,2048.1744511246407,791.0947936106552
1.2999999999999676,2.0926892852909014E7,1983.6988146254707,1273.3686042631887,2.0926892946928248E7,-0.11821190571242401,1273.3686042631887,918.9469682191267,1525.9220631820544,959.9752733947143,959.9193463351703,-0.178151969968132,-919.1500203475529,1246.6602094881237,-3.236525987253403E-7,0.0035092683635755493,32.19496780351964,1.1647444532574169E-18,0.0034863582894856023,3.2365259880791714E-7,0.0041780741322344,0.0,9.277188200394804E-19,55149.00122085317,1111.6546374792958,0.0022913998248185793,2022.6121325701176,514.2244759574069,-28.700584469506047,0.0053264024719827385,27.478276880743223,0.0,0.0,0.0,1.1955290418733533,2023.629067513041,787.4105647076103
1.3999999999999566,2.0926984449871916E7,2136.291019201546,1369.22311231409,2.09269845589115E7,-0.13666918334479816,1369.22311231409,912.99858742961,1525.922027416697,957.1198029706422,957.0600545194424,-0.19096230913638673,-913.2169745367877,1338.2782446667552,-3.741851757529982E-7,0.0037736380650362786,32.194685448856234,1.164754181736398E-18,0.003748782115004266,3.7418517585854287E-7,0.0041780741322344,0.0,9.277188200394804E-19,54793.01847220726,1111.3014672327151,0.0022852109990567776,2015.86778937782,513.8977918767707,-28.405514115769957,0.005667578865151819,27.1007023336423,0.0,0.0,0.0,1.1903600819301805,1999.4787585619315,783.757058734094
1.4999999999999456,2.0927075453875914E7,2288.883219917939,1464.7935402798682,2.0927075579048358E7,-0.15640156014677742,1464.7935402798682,907.0876891261091,1525.9219859255186,954.2935955386915,954.2300897917264,-0.2036525994100901,-907.3213739641448,1429.3048525713384,-4.2820838830646316E-7,0.004037143257773371,32.19440492056709,1.1647509263653588E-18,0.004010425979587263,4.2820838843616773E-7,0.0041780741322344,0.0,9.277188200394804E-19,54439.282437848684,1110.9504687132162,0.002279074850282911,2009.1850873315523,513.5732195013427,-28.115013459759414,0.006000130603559898,26.729168942413526,0.0,0.0,0.0,1.1852315329824066,1975.7153804249836,780.1338399120069
1.5999999999999346,2.092716586863922E7,2441.4754161833507,1560.0827917702409,2.0927166011057027E7,-0.17739710568705847,1560.0827917702409,901.2136752742869,1525.9219383357524,951.4961988665485,951.4289990846048,-0.21622423638783797,-901.4626212124717,1519.743747714907,-4.856895314126328E-7,0.004299938668521319,32.19412620713344,7.765233361154483E-19,0.004271297864536831,4.856895315735594E-7,0.0041780741322344,0.0,9.277188200394804E-19,54087.757272748306,1110.6016295903592,0.0022729908634810305,2002.563366021721,513.2507455312459,-27.82898904152186,0.006324265460186183,26.363551984024827,0.0,0.0,0.0,1.1801428286775095,1952.33100097503,776.5404819486415
1.6999999999999236,2.0927255697820917E7,2594.0676073696613,1655.09372563491,2.0927255858596575E7,-0.1996440274805722,1655.09372563491,895.3759601515579,1525.9218842835212,948.7271699458605,948.6563385727301,-0.22867858651915632,-895.6401311628766,1609.5985855571926,-5.465962788872655E-7,0.00456216022802211,32.19384929721955,1.5529698861136284E-18,0.004531405628167531,5.46596279076647E-7,0.0041780741322344,0.0,9.277188200394804E-19,53738.4078697726,1110.254937734327,0.0022669585319604196,1996.0019760208315,512.9303568779812,-27.54734982006693,0.006640185474247317,26.003729952635098,0.0,0.0,0.0,1.1750934150976513,1929.3178931967243,772.9765677953184
1.7999999999999126,2.0927344945022088E7,2746.659792812788,1749.8291568739855,2.0927345125268076E7,-0.22313066812252202,1749.8291568739855,889.573970030366,1525.9218234135803,945.9860747541129,945.9116734342158,-0.2410169878511958,-889.8533306783656,1698.8729636073112,-6.108966754659474E-7,0.004823030539767427,32.19357417966932,1.5530841945254977E-18,0.004790757008308448,6.108966756833285E-7,0.0041780741322344,0.0,9.277188200394804E-19,53391.19984070194,1109.9103812122007,0.002260977357188765,1989.5002786574246,512.6120406604791,-27.27000709846562,0.0069480871369789,25.649584459786247,0.0,0.0,0.0,1.1700827504472275,1906.6685288322126,769.4416894135545
1.8999999999999015,2.0927433613787033E7,2899.251971813552,1844.291857524972,2.0927433814615812E7,-0.2478455024744357,1844.291857524972,883.8071428712807,1525.921755379094,943.272488023869,943.1945776194055,-0.25324075073743946,-884.1016582972875,1787.570422641933,-6.785591290780561E-7,0.005083580768724211,32.193300843502485,2.329549406234162E-18,0.0050493596247409775,6.785591293244208E-7,0.0041780741322344,0.0,9.277188200394804E-19,53046.09949783725,1109.567948283777,0.00225504684862005,1983.0576457855225,512.2957842007398,-26.996874451541295,0.007248161570040792,25.301000138092427,0.0,0.0,0.0,1.1651103047506954,1884.3755722484032,765.9354475485005
1.9999999999998905,2.0927521707604405E7,3051.8441436384933,1938.484557527038,2.0927521930128425E7,-0.2737771349433493,1938.484557527038,878.0749280255355,1525.9216798413956,940.5859930191075,940.5046336267627,-0.2653511585441103,-878.3845639362147,1875.694447863847,-7.495524033762782E-7,0.005343076634088297,32.19302927791104,1.552980356591832E-18,0.005307220981574168,7.495524036516876E-7,0.0041780741322344,0.0,9.277188200394804E-19,52703.07383617288,1109.227627397601,0.002249166523528919,1976.6734595623295,511.98157501968694,-26.72786765618769,0.0075405946978800145,24.95786454841695,0.0,0.0,0.0,1.1601755595595886,1862.4318745266526,762.4574515093774
2.0999999999998797,2.0927609229908373E7,3204.436307520693,2032.4099455632586,2.0927609475240074E7,-0.3009142968121685,2032.4099455632586,872.3767859466913,1525.921596469772,937.9261813184012,937.8414322856073,-0.2773494683215169,-872.701508601934,1963.2484700419009,-8.238456104067965E-7,0.005601670475108828,32.192759472255716,1.552951812112667E-18,0.005564348469559505,8.238456107090822E-7,0.0041780741322344,0.0,9.277188200394804E-19,52362.09051611604,1108.8894071870573,0.0022433359068486703,1970.347112231054,511.6694008330878,-26.46290462417365,0.007825567413346531,24.62006809036362,0.0,0.0,0.0,1.1552780076685565,1840.830467763504,759.0073189566632
2.1999999999998687,2.092769618407971E7,3357.0284626605444,2126.0706698815093,2.0927696453331515E7,-0.32924584365480136,2126.0706698815093,866.7121879110855,1525.9215049412462,935.2926526046946,935.204572545465,-0.2892369114623476,-867.0519641122085,2050.2358665950596,-9.014082035121078E-7,0.005859478184250563,32.19249141606259,1.5529166433851422E-18,0.0058207493683470075,9.01408203838264E-7,0.0041780741322344,0.0,9.277188200394804E-19,52023.11784673251,1108.5532764666639,0.0022375545310152813,1964.07800591143,511.35924954767324,-26.201905337363243,0.008103255737450446,24.287503915974877,0.0,0.0,0.0,1.1504171528399474,1819.5645595759327,755.5846756957877
2.2999999999998577,2.092778257344683E7,3509.620608226523,2219.4693390946554,2.092778286773115E7,-0.35876075279167297,2219.4693390946554,861.080615746758,1525.9214049403677,932.6850144614418,932.5936612717899,-0.3010146943364025,-861.4354128250098,2136.659962646663,-9.822099703449195E-7,0.0061172734565189965,32.19222509901987,1.5529586576452551E-18,0.006076430848684426,9.822099707024006E-7,0.0041780741322344,0.0,9.277188200394804E-19,51686.12476950059,1108.2192242284686,0.002231821935815656,1957.86555239592,511.051109257364,-25.94479178523305,0.008373830973185142,23.960067846487412,0.0,0.0,0.0,1.1455925095367376,1798.6275278013939,752.1891554771022
2.3999999999998467,2.092786840128681E7,3662.2127433559285,2312.6085229606756,2.0927868721716054E7,-0.38944812082195,2312.6085229606756,855.4815615705554,1525.9212961590108,930.1028821748853,930.0083130478587,-0.312683998906009,-855.8513473759336,2222.5240320414305,-1.0662210260925698E-6,0.006373760980048665,32.191960510974674,7.765580134655253E-19,0.006331399974561328,1.0662210264744942E-6,0.0041780741322344,0.0,9.277188200394804E-19,51351.08084255602,1107.8872396385782,0.002226137668240479,1951.7091729519902,510.7449682396306,-25.691487904600383,0.008637459853762686,23.637658292027858,0.0,0.0,0.0,1.140803602663484,1778.0129153852497,748.8203998019112
2.4999999999998357,2.0927953670826472E7,3814.804867155605,2405.490753143293,2.092795401851302E7,-0.4212971612230154,2405.490753143293,849.9145275331248,1525.9211782961856,927.5458785422544,927.4481499825638,-0.3242459833233857,-850.2992704234657,2307.8312983997166,-1.1534118068860552E-6,0.006629723620464584,32.191697641929814,7.764631796542084E-19,0.0065856637052995,1.1534118072942243E-6,0.0041780741322344,0.0,9.277188200394804E-19,51017.95622540794,1107.5573120335291,0.002220501282336735,1945.6082981250618,510.4408149517208,-25.441919521416718,0.008894304685488786,23.320176174077876,0.0,0.0,0.0,1.1360499673152866,1757.7144254441118,745.4780577343332
2.5999999999998247,2.0928038385243375E7,3967.396978702643,2498.118523953725,2.0928038761299603E7,-0.4542972020077354,2498.118523953725,844.3790255715282,1525.9210510578405,925.0136336856831,924.9128015239653,-0.33570178252055355,-844.7786944018826,2392.584936141968,-1.2437530633677514E-6,0.006885208268290005,32.19143648204062,7.764914706398203E-19,0.006839228897591518,1.2437530638040686E-6,0.0041780741322344,0.0,9.277188200394804E-19,50686.721664112956,1107.2294309167642,0.002214912339064241,1939.5623675468332,510.1386380269932,-25.19601429459671,0.009144523485781842,23.00752485064737,0.0,0.0,0.0,1.131331148534247,1737.725916501756,742.1617857188099
2.6999999999998137,2.0928122547666702E7,4119.989077045072,2590.494293074106,2.0928122953204982E7,-0.488437683411453,2590.494293074106,838.8745771692006,1525.9209141566816,922.5057848716423,922.4019042783565,-0.34705250876370114,-839.2891412814823,2476.788071371615,-1.3372158543409915E-6,0.0071396937048377514,32.19117702161219,2.3294931809917477E-18,0.007092102307488963,1.3372158548060988E-6,0.0041780741322344,0.0,9.277188200394804E-19,50357.34847688894,1106.903585955644,0.0022093704061635164,1933.5708297568542,509.83842627175625,-24.95370166188468,0.00938827011578684,22.69961004412346,0.0,0.0,0.0,1.1266467010726984,1718.0413978964427,738.871247403051
2.7999999999998026,2.0928206161178276E7,4272.581161202516,2682.620482263103,2.092820659731096E7,-0.5237081556756142,2682.620482263103,833.4007131230069,1525.9207673120013,920.0219763356959,919.9151018346697,-0.3582992522007484,-833.8301423359042,2560.443782866001,-1.4337715406846398E-6,0.00739384066201121,32.1909192510963,2.329388674902583E-18,0.007344290592341646,1.4337715411858845E-6,0.0041780741322344,0.0,9.277188200394804E-19,50029.80854015425,1106.5797669780309,0.002203875058018429,1927.6331420193915,509.54016866172265,-24.71491278749266,0.009625694408499074,22.396339771519123,0.0,0.0,0.0,1.1219961891639474,1698.6550253400565,735.6061134662301
2.8999999999997916,2.0928289228813462E7,4425.173230166866,2774.499478044296,2.092828969665289E7,-0.5600982768445522,2774.499478044296,827.9569733171473,1525.9206102494963,917.561859112398,917.4520445940285,-0.36944308140106114,-828.401237916286,2643.5551029853523,-1.5333917793041267E-6,0.007646605931655511,32.190663161088594,2.329494537399171E-18,0.007595800312689463,1.5333917798218176E-6,0.0041780741322344,0.0,9.277188200394804E-19,49704.07427497716,1106.2579639691767,0.0021984258755261134,1921.748770149093,509.2438543387558,-24.479580511581542,0.009856942292581038,22.09762427715687,0.0,0.0,0.0,1.1173791862995306,1679.5610966328543,732.36606145225
2.9999999999997806,2.0928371753562015E7,4577.765282902882,2866.133632377762,2.092837225422051E7,-0.5975978106526547,2866.133632377762,822.5429065036848,1525.9204427011084,915.1250908701605,915.0123896042818,-0.38048504385986864,-823.0019772320377,2726.12501854077,-1.6360485173303554E-6,0.007899162931326783,32.19040874232595,2.329660996167581E-18,0.007846637934108098,1.6360485178828377E-6,0.0041780741322344,0.0,9.277188200394804E-19,49380.11863392226,1105.9381670687624,0.002193022445971386,1915.9171883423999,508.9494726077629,-24.247639301483137,0.010082155911293638,21.803375967664202,0.0,0.0,0.0,1.1127952750129166,1660.7540475256487,729.1507756079048
3.0999999999997696,2.0928453738369092E7,4730.357318348819,2957.5252633154096,2.0928454272958986E7,-0.6361966244625821,2957.5252633154096,817.1580700894591,1525.92026440486,912.7113357509139,912.5958003993468,-0.3914261665133843,-817.6319181379996,2808.156471800059,-1.7417139864587633E-6,0.008151025596148394,32.19015598568329,2.32950571757244E-18,0.008096809829010038,1.7417139870336037E-6,0.0041780741322344,0.0,9.277188200394804E-19,49057.91508827997,1105.6203665673909,0.0021876643628938974,1910.1378790020035,508.657012933097,-24.019025204467273,0.010301473737883302,21.513509349075356,0.0,0.0,0.0,1.1082440466701313,1642.2284477148976,725.959946725774
3.1999999999997586,2.0928535186135896E7,4882.949335417047,3048.6766556405173,2.092853575576949E7,-0.6758846871698734,3048.6766556405173,811.8020299291791,1525.9200751047001,910.3202642143996,910.2019468431907,-0.40226745620646365,-812.290626927768,2889.6523610912263,-1.8503606971967943E-6,0.008402256849739428,32.18990488217173,2.32933828968743E-18,0.008346322278402266,1.8503606977958967E-6,0.0041780741322344,0.0,9.277188200394804E-19,48737.43761566608,1105.304552904629,0.002182351225983317,1904.410332592389,508.3664649363935,-23.793675802380303,0.010515030686187686,21.227940966305475,0.0,0.0,0.0,1.1037251012649731,1623.9789969920253,722.7932719916805
3.2999999999997476,2.0928616099720735E7,5035.54133299461,3139.590061491902,2.0928616705510326E7,-0.7166520673026797,3139.590061491902,806.4743601244772,1525.9198745503488,907.9515528869424,907.8305049782911,-0.41300990018627265,-806.9776781329676,2970.61554190889,-1.9619614336459183E-6,0.00865291215587253,32.18965542293522,2.32956061235486E-18,0.008595181473601507,1.9619614342619645E-6,0.0041780741322344,0.0,9.277188200394804E-19,48418.66068797806,1104.9907166650935,0.002177082640943293,1898.7340474625203,508.0778183926146,-23.57153016743982,0.01072295821828268,20.94658934432707,0.0,0.0,0.0,1.099238047222135,1606.0005214969667,719.6504548365577
3.3999999999997366,2.0928696481939673E7,5188.133309943812,3230.2677009732083,2.0928697124997552E7,-0.7584889310501186,3230.2677009732083,801.1746428287356,1525.9196624971544,905.6048844145481,905.4811568784424,-0.4236544665449316,-801.6926543282985,3051.0488275550306,-2.0764892480886415E-6,0.008903037503626818,32.189407599248405,3.1061736856867394E-18,0.008843393517908759,2.0764892486578324E-6,0.0041780741322344,0.0,9.277188200394804E-19,48101.55925969791,1104.678848576329,0.0021718582193874466,1893.1085297038742,507.79106322775294,-23.35252881982612,0.01092538444756694,20.669374931599165,0.0,0.0,0.0,1.0947825012042827,1588.2879701188467,716.5312047925883
3.4999999999997256,2.0928776335567385E7,5340.725265102768,3320.711762747703,2.0928777017005824E7,-0.80138554034093,3320.711762747703,795.9024680574793,1525.9194387059465,903.2799473201813,903.1535905057585,-0.4342021046743547,-796.4351459421517,3130.9549899585545,-2.193917455713579E-6,0.009152226595082968,32.18916140251427,3.1058841403215373E-18,0.009090964428243987,2.193917456157349E-6,0.0041780741322344,0.0,9.277188200394804E-19,47786.1087565291,1104.3689395059866,0.0021666775787252375,1887.5332929983194,507.50618951589973,-23.13661368654915,0.011122434238888866,20.396220045255895,0.0,0.0,0.0,1.0903580879253876,1570.8364110071648,713.435237353462
3.5999999999997145,2.0928855663337957E7,5493.317197285935,3410.9244046189933,2.092885638426922E7,-0.8453322510115853,3410.9244046189933,790.6574335041641,1525.9192029429,900.9764358650905,900.8474995717073,-0.44465374570031485,-791.204751072592,3210.336760520935,-2.3142196295857717E-6,0.009400554068273169,32.18891682426137,3.1059474809824603E-18,0.009337900136741958,2.3142196299100414E-6,0.0041780741322344,0.0,9.277188200394804E-19,47472.28506435552,1104.0609804588914,0.0021615403420476745,1882.0078584665916,507.2231874762185,-22.92372806164998,0.011314229305017198,20.12704881808573,0.0,0.0,0.0,1.0859644399695283,1553.6410281966942,710.3622738386126
3.6999999999997035,2.0928934467945583E7,5645.909105284662,3500.907754098105,2.0928935229481924E7,-0.8903195110218074,3500.907754098105,785.4391443611688,1525.918954979404,898.6940499140375,898.562583402075,-0.45501030289529626,-786.0010753085512,3289.196830794215,-2.437369595747153E-6,0.009648514089322775,32.18867385614178,1.5531503118595137E-18,0.00958420649231073,2.4373695959398954E-6,0.0041780741322344,0.0,9.277188200394804E-19,47160.06451851307,1103.7549625747508,0.0021564461380253978,1876.5317545308183,506.94204747051805,-22.713816567819915,0.011500888299641422,19.861787147350856,0.0,0.0,0.0,1.0816011976142514,1536.697118350854,707.3120412613085
3.7999999999996925,2.0929012752045408E7,5798.5009878676765,3590.6639089572395,2.0929013555299066E7,-0.9363378587148259,3590.6639089572395,780.2472131458309,1525.9186945919241,896.4324948043092,896.2985468057175,-0.46527267210331336,-780.8237315560631,3367.537853296846,-2.5633414284398003E-6,0.009896134859524118,32.188432489928616,1.5527915490515005E-18,0.009829889262153477,2.5633414285055665E-6,0.0041780741322344,0.0,9.277188200394804E-19,46849.42389336378,1103.4508771253213,0.002151394600799249,1871.1045167696718,506.6627600003333,-22.506825119175257,0.011682526907761911,19.600362645193545,0.0,0.0,0.0,1.0772680086594864,1520.0000876049278,704.2842722004673
3.8999999999996815,2.0929090518254124E7,5951.092843781621,3680.194937770625,2.092909136433734E7,-0.9833779210318645,3680.194937770625,775.0812595313527,1525.918421561883,894.1914812183834,894.0550999469748,-0.47544173212325086,-775.6723398693579,3445.362442165613,-2.692109445204235E-6,0.0101426256281872,32.188192717513985,3.1062515681309204E-18,0.010074954133254904,2.6921094451436935E-6,0.0041780741322344,0.0,9.277188200394804E-19,46540.34039216147,1103.148715512203,0.0021463853698828494,1865.7256877871284,506.38531570459173,-22.302700885349246,0.011859257932321971,19.342704590749825,0.0,0.0,0.0,1.072964528260695,1503.5454485192681,701.2787046760715
3.9999999999996705,2.0929167769150786E7,6103.684671751502,3769.5028804428352,2.0929168659175776E7,-1.0314304118971385,3769.5028804428352,769.9409101824233,1525.918135675534,891.9707250601342,891.8319582216263,-0.48551834510753417,-770.5465272866633,3522.673173904419,-2.823648202444817E-6,0.010388863851302218,32.187954530906595,1.5529911243824662E-18,0.010319406713833093,2.8236482022557816E-6,0.0041780741322344,0.0,9.277188200394804E-19,46232.79163719979,1102.848469264249,0.00214141809006027,1860.3948170766205,506.1097053569336,-22.101392256676753,0.01203119137854349,19.088743883753178,0.0,0.0,0.0,1.0686904187670914,1487.328817126518,698.2950820280635
4.099999999999704,2.0929244507277418E7,6256.2764704812025,3858.5897487248653,2.0929245442356396E7,-1.080486130509846,3858.5897487248653,764.8257985954018,1525.9178367238435,889.7699473344583,889.6288421362734,-0.4955033569308636,-765.4459276705644,3599.472588047385,-2.9579324907408375E-6,0.010634474389685353,32.18771792222978,3.106228431317281E-18,0.010563252534757778,2.9579324904321177E-6,0.0041780741322344,0.0,9.277188200394804E-19,45926.75566023387,1102.5501300353005,0.002136492411290545,1855.1114608931935,505.83591986333886,-21.90284881055338,0.012198434534986312,18.838412999679804,0.0,0.0,0.0,1.064445349564083,1471.345910077628,695.33315279861
4.199999999999737,2.092932073513977E7,6408.868238653934,3947.4575267183623,2.092932171638494E7,-1.1305359597824283,3947.4575267183623,759.7355649429172,1525.9175245023775,887.5888740302094,887.4454771910501,-0.5053975975619404,-760.3701815527849,3675.7631878890097,-3.094937330558328E-6,0.010879123682948976,32.187482883719255,3.1060656558925064E-18,0.010806497050936092,3.0949373301299843E-6,0.0041780741322344,0.0,9.277188200394804E-19,45622.21089316709,1102.253689601655,0.0021316079886091674,1849.8751821230683,505.5639502595148,-21.707021278825525,0.012361092052203137,18.591645946291724,0.0,0.0,0.0,1.0602289969203722,1455.5925418762747,692.3926706176306
4.299999999999771,2.0929396455207884E7,6561.459974932681,4036.108171368298,2.092939748373144E7,-1.1815708647464906,4036.108171368298,754.6698559227358,1525.9171988111834,885.4272360063393,885.281593765536,-0.5152018814185715,-755.3189359832157,3751.5474410392344,-3.234637967873646E-6,0.011123616865573628,32.187249407721275,3.1059319926267262E-18,0.011049145642666508,3.2346379673215596E-6,0.0041780741322344,0.0,9.277188200394804E-19,45319.136158992944,1101.9591398602058,0.002126764482042062,1844.685550167195,505.2937877089081,-21.513861516330724,0.012519266018680504,18.34837822166148,0.0,0.0,0.0,1.0560410438386465,1440.0646222089865,689.4733940914718
4.399999999999804,2.092947166991687E7,6714.051677960657,4124.543612944417,2.0929472746830992E7,-1.233581891039238,4124.543612944417,749.6283246107716,1525.9168594546868,883.2847688811463,883.1369270077761,-0.5249170077179377,-750.2918443830893,3826.8277802094817,-3.377009870017725E-6,0.011367238652077939,32.18701748669039,4.6589869952997655E-18,0.011291203616961839,3.3770098693203484E-6,0.0041780741322344,0.0,9.277188200394804E-19,45017.510662985354,1101.6664728256771,0.002121961556505971,1839.5421408108516,505.02542349989375,-21.32332247028454,0.012673056034298913,18.108546773399738,0.0,0.0,0.0,1.0518811799112657,1424.758153349927,686.5750866946387
4.4999999999998375,2.0929546381667376E7,6866.643346361727,4212.76575551176,2.0929547508084238E7,-1.2865601633715018,4212.76575551176,744.6106303180993,1525.9165062415852,881.1612129245188,881.0112167263165,-0.5345437608055918,-745.2885664021483,3901.6066037006676,-3.5220287214702433E-6,0.011610394842388945,32.18678711318769,3.1060563606511666E-18,0.011532676208842406,3.522028720652575E-6,0.0041780741322344,0.0,9.277188200394804E-19,44717.313984128894,1101.3756806290123,0.002117198881729109,1834.444536115541,504.7588490440267,-21.135358150822874,0.012822559281194756,17.872089959332857,0.0,0.0,0.0,1.047749101178818,1409.6692276603862,683.6975166644783
4.599999999999871,2.0929620592826333E7,7019.234978740843,4300.776477390556,2.0929621769858096E7,-1.3404968840782234,4300.776477390556,739.6164384518379,1525.916138984745,879.0563129530877,878.904207285156,-0.5440829104904065,-740.3087677796938,3975.8862761221826,-3.6696704198797565E-6,0.011852771040299522,32.18655827987883,3.1060057295267643E-18,0.011773568582599843,3.6696704189312456E-6,0.0041780741322344,0.0,9.277188200394804E-19,44418.526066781626,1101.0867555148548,0.0021124761321581783,1829.3923242968556,504.49405587347024,-20.949923602320286,0.012967870592571209,17.638947509289277,0.0,0.0,0.0,1.0436445099934015,1394.794025156936,680.840456898723
4.699999999999904,2.092969430572751E7,7171.826573684442,4388.577631605766,2.092969553448633E7,-1.3953833316803688,4388.577631605766,734.6454203798007,1525.915757501098,876.9698182282003,876.8156475015055,-0.55353521236743,-735.3521202093737,4049.66912894696,-3.819911072115396E-6,0.0120947529737768,32.186330979532144,3.1059934209097046E-18,0.012013885833032483,3.819911071043705E-6,0.0041780741322344,0.0,9.277188200394804E-19,44121.12721256242,1100.7996898396618,0.0021077929868769927,1824.385099615318,504.2310356390089,-20.766974875707163,0.0131090825192424,17.409060488168812,0.0,0.0,0.0,1.039567114885029,1380.128811162567,678.0036848557996
4.799999999999938,2.0929767522672083E7,7324.418129760863,4476.171046326582,2.09297688042701E7,-1.4512108594651867,4476.171046326582,729.6972532987749,1525.9153616115525,874.9014823566184,874.7452905462967,-0.5629014081183541,-730.4183012076129,4122.957461088896,-3.972726990369046E-6,0.01233602990987509,32.18610520501689,3.106006984628863E-18,0.012253632986653152,3.972726989172218E-6,0.0041780741322344,0.0,9.277188200394804E-19,43825.09807245677,1100.5144760697244,0.0021031491295247333,1819.4224622673698,503.96978010798193,-20.586469001632395,0.013246285393678413,17.182371260148223,0.0,0.0,0.0,1.0355166304317418,1365.669934029952,675.1869824578215
4.899999999999971,2.0929840245929282E7,7477.009645520714,4563.558525296096,2.0929841581478633E7,-1.5079708941556027,4563.558525296096,724.7716201063313,1525.914951140891,872.8510631938575,872.6928938473258,-0.5721822258292955,-725.5069939855633,4195.7535395585,-4.128094688501743E-6,0.012576968264246747,32.18588094930122,1.5526871020108032E-18,0.012492815002869938,4.128094687181253E-6,0.0041780741322344,0.0,9.277188200394804E-19,43530.4196391338,1100.2311067788762,0.00209854424821033,1814.504018272743,503.71028116193804,-20.40836396440755,0.013379567392543597,16.958823453955198,0.0,0.0,0.0,1.031492777133514,1351.4138229320533,672.3901359961758
5.000000000000004,2.0929912477736853E7,7629.601119497283,4650.741848251467,2.0929913868349664E7,-1.5656549345090305,4650.741848251467,719.8682092760424,1525.9145259176835,870.8183227500882,870.6582189949755,-0.5813783802721473,-720.617887324462,4268.059599909931,-4.285990878197145E-6,0.012817265879673627,32.18565820545086,1.5528671449392657E-18,0.01273143677514088,4.285990876742336E-6,0.0041780741322344,0.0,9.277188200394804E-19,43237.07323946772,1099.9495746470077,0.002093978035441078,1809.6293793775617,503.4525307950341,-20.232618676881103,0.013509014596636672,16.738361929319513,0.0,0.0,0.0,1.027495281288786,1337.3569857293592,669.6129360396245
5.100000000000038,2.0929984220301695E7,7782.192550206904,4737.722771334771,2.092998566709008E7,-1.6242545500299208,4737.722771334771,714.9867147360148,1525.914085774199,868.8030270985176,868.6410316504126,-0.590490573199424,-715.7506754542967,4339.877846866846,-4.446392465426544E-6,0.013056960159080517,32.1854369666271,3.1059020229565406E-18,0.012969503132103015,4.446392463851311E-6,0.0041780741322344,0.0,9.277188200394804E-19,42945.0405272578,1099.6698724578805,0.0020894501880409505,1804.7981629469182,503.1965211117964,-20.059192955973153,0.013634711049328714,16.520932744362256,0.0,0.0,0.0,1.023523874874941,1323.496006895343,666.8551773448384
5.200000000000071,2.0930055475800335E7,7934.783936149312,4824.503027494828,2.0930056979876403E7,-1.683761379682375,4824.503027494828,710.126835750623,1525.913630546319,866.8049462861705,866.641101456184,-0.5995194936195358,-710.9050579356633,4411.210454829037,-4.609276546914309E-6,0.013296082174884627,32.185217226085165,1.553044597505105E-18,0.01320701883867656,4.609276545226136E-6,0.0041780741322344,0.0,9.277188200394804E-19,42654.3034761398,1099.3919930973977,0.002084960407077406,1800.009991867017,502.9422443253072,-19.88804749902793,0.013756738812900585,16.30648312404065,0.0,0.0,0.0,1.019578295431524,1309.8275455100766,664.1166587692878
5.300000000000105,2.0930126246379506E7,8087.375275808002,4911.084326880225,2.093012780885535E7,-1.7441671306372775,4911.084326880225,705.2882768053593,1525.9131600734495,864.8238542470087,864.658201949181,-0.6084658180760522,-706.0807395447541,4482.0595684200525,-4.774620406698029E-6,0.01353435770861704,32.18499897717269,3.1061883365339233E-18,0.013443988597145073,4.7746204048955865E-6,0.0041780741322344,0.0,9.277188200394804E-19,42364.84437268525,1099.1159295517107,0.0020805083977865793,1795.2644944460665,502.68969275524523,-19.719143860860655,0.013875178023327836,16.09496142953259,0.0,0.0,0.0,1.0156582859467165,1296.3483333133174,661.3971831864294
5.400000000000138,2.0930196534156684E7,8239.966567650597,4997.468357223749,2.0930198156144395E7,-1.8054635770369751,4997.468357223749,700.4707474946889,1525.9126741984453,862.8595287173033,862.6921104758359,-0.6173302109103599,-701.2774301613288,4552.4273030385375,-4.942401512736903E-6,0.013772429457999948,32.18478221332788,3.1061670493127256E-18,0.013680417048211813,4.942401510791071E-6,0.0041780741322344,0.0,9.277188200394804E-19,42076.64580967973,1098.841674905304,0.0020760938694991816,1790.56130431638,502.4388588259134,-19.552444431495132,0.013990106943108045,15.886317128545434,0.0,0.0,0.0,1.011763594746791,1283.05517281638,658.6965574030946
5.500000000000171,2.0930266341220498E7,8392.557810129161,5083.656784218496,2.0930268023832157E7,-1.8676425587757022,5083.656784218496,695.6739624128381,1525.912172767529,860.9117511531972,860.7426081095203,-0.6261133245149014,-696.4948446596221,4622.315745268017,-5.112597513563468E-6,0.014010014027624126,32.184566928078276,1.5531513310307347E-18,0.013916308772033347,5.112597511485861E-6,0.0041780741322344,0.0,9.277188200394804E-19,41789.690679577325,1098.5692223396284,0.0020717165355761875,1785.9000603473658,502.18973506477084,-19.38791241465492,0.014101602012421064,15.68050076658779,0.0,0.0,0.0,1.0078939753879652,1269.9449354764472,656.0145920790303
5.600000000000205,2.093033566963129E7,8545.149001680551,5169.651251885809,2.0930337413978964E7,-1.930695980324531,5169.651251885809,690.8976410474048,1525.9116556302145,858.9803066503957,858.809479570079,-0.6348157995896029,-691.7327028020712,4691.726953424513,-5.2851862350573915E-6,0.014246842582695905,32.18435311503904,1.552823925494747E-18,0.014151668289230632,5.285186232873376E-6,0.0041780741322344,0.0,9.277188200394804E-19,41503.96216812427,1098.2985651311913,0.0020673761133367316,1781.2804065506377,501.94231410047394,-19.225511806817558,0.014209737898844436,15.477463939035832,0.0,0.0,0.0,1.00404918655156,1257.014559920331,653.3511016485182
5.700000000000238,2.0930404521421637E7,8697.740140726743,5255.453382935314,2.093040632861739E7,-1.994615809592629,5255.453382935314,686.1415076757245,1525.911122639228,857.0649838659114,856.8925131454282,-0.6434382653941079,-686.9907291358022,4760.662958096713,-5.4601456773188385E-6,0.014483242770467739,32.18414076791132,1.5530568239587977E-18,0.014386500061878449,5.460145675003116E-6,0.0041780741322344,0.0,9.277188200394804E-19,41219.44374814813,1098.0296966496683,0.002063072323987367,1776.7019919870195,501.6965886609443,-19.06520737689835,0.01431458754556194,15.277159264038529,0.0,0.0,0.0,1.000228991941851,1244.261050221674,650.7059042440121
5.800000000000272,2.0930472898596734E7,8850.331225675136,5341.064779117214,2.0930474769752618E7,-2.0593940767714045,5341.064779117214,681.4052912639033,1525.9105736504414,855.1655749418078,854.9915006151408,-0.6519813399752141,-682.2686528917649,4829.125762507319,-5.637454011495237E-6,0.014719229920388372,32.18392988048112,1.5529929548007235E-18,0.014620808494473475,5.637454009049389E-6,0.0041780741322344,0.0,9.277188200394804E-19,40936.11917350589,1097.7626103567127,0.0020588048925633358,1772.164470686739,501.45255157207424,-18.906964646639913,0.01441622221773319,15.079540356310677,0.0,0.0,0.0,0.9964331601859144,1231.6814742361198,648.0788216217242
5.900000000000305,2.0930540803134907E7,9002.922254918862,5426.487021567074,2.0930542739362966E7,-2.1250228732491943,5426.487021567074,676.6887253684346,1525.9100085227983,853.2818754308897,853.1062371759942,-0.6604456304066936,-677.5662078864602,4897.117343045771,-5.817089576801285E-6,0.014954549507165151,32.1837204466176,0.0,0.0148545979348818,5.817089574232833E-6,0.0041780741322344,0.0,9.277188200394804E-19,40653.97247318761,1097.4972998040846,0.0020545735478599337,1767.6675015594828,501.21019575582096,-18.75074987148338,0.014514711547757304,14.884561801621928,0.0,0.0,0.0,0.9926614647366545,1219.2729619793915,645.4696790891134
6.000000000000338,2.0930608236988068E7,9155.51322683712,5511.721671143247,2.0930610239400342E7,-2.191494350493989,5511.721671143247,671.9915480403251,1525.9094271182441,851.413684224256,851.2365213693777,-0.6688317330177128,-672.8831324261697,4964.639649711549,-5.999030877451667E-6,0.015189506499666184,32.183512460271764,2.832529618965046E-23,0.015087872675266102,5.999030874769504E-6,0.0041780741322344,0.0,9.277188200394804E-19,40372.98794557018,1097.2337586321307,0.0020503780223702617,1763.210748311645,500.96951422862037,-18.596530022052832,0.014610123579051261,14.692179132078273,0.0,0.0,0.0,0.9889136837779726,1207.0327040565105,642.8783054341989
6.100000000000372,2.0930675202082198E7,9308.104139795432,5596.770268757151,2.093067727179071E7,-2.2588007190515533,5596.770268757151,667.3135017316614,1525.908829301663,849.5608034806955,849.3821550105587,-0.6771402336147313,-668.2191692136308,5031.694606587291,-6.183256579909833E-6,0.015423846354102287,32.18330591547501,1.5528603122097037E-18,0.015320636952993344,6.183256577087705E-6,0.0041780741322344,0.0,9.277188200394804E-19,40093.15015281785,1096.9719805681384,0.0020462180522219033,1758.793879362815,500.7305000996946,-18.444272766166385,0.0147025248084481,14.502348802115499,0.0,0.0,0.0,0.9851896001324706,1194.9579501361143,640.3045328566712
6.200000000000405,2.0930741700317666E7,9460.694992145975,5681.634335696601,2.0930743838434435E7,-2.326934247409909,5681.634335696601,662.654333204538,1525.9082149408093,847.7230385578433,847.5429431196974,-0.6853717076917254,-663.5740652570557,5098.284112188965,-6.369745509771142E-6,0.015657597060034743,32.18310080633792,3.106359705737189E-18,0.015552894951523257,6.369745506818743E-6,0.0041780741322344,0.0,9.277188200394804E-19,39814.44391542334,1096.7119594251683,0.0020420933771219804,1754.4165677715391,500.4931465697974,-18.293946451439723,0.014791980227214832,14.315028165247016,0.0,0.0,0.0,0.9814890011710339,1183.046007473785,637.7481969007182
6.300000000000439,2.093080773356977E7,9613.2857822278,5766.315373942318,2.0930809941206813E7,-2.395887261095594,5766.315373942318,658.0137934422767,1525.9075839062455,845.9001979450527,845.7186938545831,-0.6935267206483869,-658.9475717814482,5164.410039965063,-6.558476649280606E-6,0.015891045956931363,32.18289712704888,3.1060305433119666E-18,0.015784650801278034,6.558476646201815E-6,0.0041780741322344,0.0,9.277188200394804E-19,39536.8543068869,1096.453689100298,0.0020380037402937035,1750.0784911524086,500.25744692942914,-18.145520088311986,0.014878553361038138,14.130175451421964,0.0,0.0,0.0,0.977811678725198,1171.2942394729919,635.2091363895227
6.400000000000472,2.093087330368912E7,9765.876508367199,5850.8148664778,2.093087558195843E7,-2.4656521415714083,5850.8148664778,653.3916375628797,1525.9069360712822,844.0920931979497,843.9092184450727,-0.7016058279923043,-654.3394441421582,5230.07423870638,-6.74942913430742E-6,0.0161236950101567,32.182694871872705,1.5528841994753133E-18,0.01601590858049396,6.749429131137516E-6,0.0041780741322344,0.0,9.277188200394804E-19,39260.36664852949,1096.1971635732136,0.002033948888419185,1745.779331600157,500.0233945573702,-17.998963333613013,0.014962306308599148,13.947749745078369,0.0,0.0,0.0,0.9741574290014169,1159.700064291029,632.6871933614037
6.500000000000505,2.0930938412502017E7,9918.467168877907,5935.134277592761,2.0930940762515597E7,-2.5362213253195494,5935.134277592761,648.7876247346426,1525.9062713119145,842.2985388745923,842.1143311291178,-0.70960957554131,-649.7494417405807,5295.278532933444,-6.942582251827122E-6,0.016356079035340053,32.18249403514944,1.5528482855009593E-18,0.016246672316055196,6.942582248513816E-6,0.0041780741322344,0.0,9.277188200394804E-19,38984.96650443484,1095.9423769048815,0.002029928571584334,1741.5187756163152,499.7909829192944,-17.85424647461457,0.015043299779099042,13.767710963837148,0.0,0.0,0.0,0.9705260524973525,1148.2609534859093,630.1822130075143
6.600000000000539,2.093100306181092E7,10071.0577620614,6019.275053180248,2.093100548468075E7,-2.6075873028683336,6019.275053180248,644.2015180938712,1525.905589506769,840.5193524732084,840.333849090379,-0.7175384996174661,-645.1773279419608,5360.024723321199,-7.1379154372494816E-6,0.016587964324064498,32.182294611293095,3.1059920462854313E-18,0.016476945984310206,7.137915433802708E-6,0.0041780741322344,0.0,9.277188200394804E-19,38710.63967651765,1095.6893232360724,0.0020259425432221354,1737.2965140344825,499.56020556624964,-17.71134041351913,0.015121593128561145,13.590019837791838,0.0,0.0,0.0,0.96691735392037,1136.974430700875,627.6940436110767
6.700000000000572,2.0931067253394753E7,10223.648286207117,6103.238621027592,2.093106975023282E7,-2.6797426178626393,6103.238621027592,639.633084664632,1525.90489053704,838.7543543714648,838.5675923973803,-0.7253931272413984,-640.6228699952349,5424.314587064087,-7.335408271866236E-6,0.01681912297283345,32.18209659479048,3.1065226400855966E-18,0.016706733511871352,7.335408268316406E-6,0.0041780741322344,0.0,9.277188200394804E-19,38437.37219971409,1095.4379967861125,0.0020219905600602685,1733.1122419505311,499.3310561333511,-17.570216652423607,0.015197244395173897,13.414637889414491,0.0,0.0,0.0,0.9633311421078292,1125.8380703886342,625.2225364881025
6.800000000000606,2.0931130989009343E7,10376.238739592774,6187.026391101391,2.093113356092761E7,-2.7526798660003333,6187.026391101391,635.0820952804951,1525.904174286443,837.0033677672113,836.8153839441396,-0.7331739763104597,-636.0858389548589,5488.149878244847,-7.535040479932115E-6,0.017050071671293226,32.18189998020008,2.5992624973047773E-22,0.01693603877639803,7.535040476548703E-6,0.0041780741322344,0.0,9.277188200394804E-19,38165.15033729153,1095.18839185162,0.0020180723820691342,1728.9656586535614,499.1035283384616,-17.43084727870797,0.015270310333332005,13.241527414031127,0.0,0.0,0.0,0.9597672299493262,1114.849496571806,622.767545929548
6.900000000000639,2.093119427038777E7,10528.829120484574,6270.639755826621,2.0931196918498196E7,-2.8263916944787297,6270.639755826621,630.5483245081882,1525.9034406411536,835.2662186206704,835.0770493922407,-0.7408815557891961,-631.5660096045408,5551.532328244299,-7.736791927142148E-6,0.017280577289434575,32.181704762150744,3.1061977396152382E-18,0.017164865607363577,7.736791923948493E-6,0.0041780741322344,0.0,9.277188200394804E-19,37893.960576272446,1094.9405028050717,0.002014187772407996,1724.8564675551718,498.87761598072524,-17.2932049508155,0.015340846446990125,13.070651460832815,0.0,0.0,0.0,0.9562254343109546,1104.0063816371355,620.3289291448648
7.000000000000672,2.0931257099240802E7,10681.419427137465,6354.080090360047,2.093125982465535E7,-2.9008708008003614,6354.080090360047,626.0315505731348,1525.9026894897584,833.5427355980298,833.3524171143196,-0.7485163658865254,-627.0631603828637,5614.463646166027,-7.940642617355294E-6,0.017510421747865875,32.18151093534043,3.1062101472366873E-18,0.017393217786806588,7.940642614340828E-6,0.0041780741322344,0.0,9.277188200394804E-19,37623.78962297182,1094.694324093313,0.0020103364973708604,1720.784376118768,498.653312939049,-17.15726288442702,0.015408907021831385,12.901973814417671,0.0,0.0,0.0,0.9527055759614546,1093.3064451633793,617.9065462069112
7.100000000000706,2.093131947725719E7,10834.009657795357,6437.348752858049,2.0931322281087797E7,-2.9761099320109103,6437.348752858049,621.5315552868026,1525.9019207232025,831.8327500163899,831.6413181388989,-0.7560788982264894,-622.5770733107075,5676.945519078523,-8.14657269050126E-6,0.017739864954893447,32.18131849453542,3.1056943714287495E-18,0.017621099050066917,8.146572687666796E-6,0.0041780741322344,0.0,9.277188200394804E-19,37354.62439864245,1094.4498502367753,0.0020065183263441224,1716.7490958016124,498.4306131712345,-17.02299483911734,0.015474545156521203,12.735458976922011,0.0,0.0,0.0,0.9492074794994989,1082.747452788206,615.5002599981735
7.200000000000739,2.0931381406104017E7,10986.599810691378,6520.447084739013,2.0931384289462633E7,-3.052101883815836,6520.447084739013,617.0481239758192,1525.9011342347428,830.1360957900338,829.9435860965648,-0.7635696360142648,-618.1075339204497,5738.979612439871,-8.354562420155326E-6,0.017968691505008124,32.181127434569,3.106420650659273E-18,0.017848513086506743,8.354562417553373E-6,0.0041780741322344,0.0,9.277188200394804E-19,37086.45203522698,1094.2070758279763,0.002002733031753627,1712.7503419859647,498.2095107124593,-16.89037510529033,0.015537812792942066,12.571072150579349,0.0,0.0,0.0,0.9457309732833314,1072.3272151008262,613.1099361582651
7.3000000000007725,2.0931442887427077E7,11139.189884048084,6603.376410940431,2.0931445851425625E7,-3.128839499788427,6603.376410940431,612.5810454128062,1525.9003299198998,828.4526093779818,828.2590571674101,-0.7709890542020107,-613.6543311868662,5800.567570418119,-8.564592211363615E-6,0.018197151137263,32.1809377503405,3.1067002048297414E-18,0.01807546354021703,8.564592208927259E-6,0.0041780741322344,0.0,9.277188200394804E-19,36819.25987121197,1093.9659955304255,0.0019989803890186715,1708.7878339178517,497.98999967413016,-16.759378491530825,0.01559876074566368,12.408779220805096,0.0,0.0,0.0,0.9422758893617122,1062.0435865689508,610.735443032663
7.400000000000806,2.093150392285127E7,11291.779876077737,6686.138040170792,2.0931506968601674E7,-3.2063156705258775,6686.138040170792,608.1301117488821,1525.8995076764065,826.7821297328004,826.5875700297424,-0.7783376196605515,-609.2172574597078,5861.711016315967,-8.776642598326144E-6,0.01842525921430157,32.1807494368139,3.1062466337165596E-18,0.01830195401070957,8.776642596068403E-6,0.0041780741322344,0.0,9.277188200394804E-19,36553.035447582464,1093.7266040771171,0.0019952601765002415,1704.861294640023,497.77207424236474,-16.62998031225436,0.01565743873069518,12.248546739710743,0.0,0.0,0.0,0.9388420634068371,1051.8944644922358,608.376651622647
7.500000000000839,2.093156451398078E7,11444.369784982418,6768.7332651564375,2.0931567642594963E7,-3.2845233328705916,6768.7332651564375,603.695118447786,1525.8986674041653,825.124498250611,824.9289658100057,-0.7856157913212594,-604.7961083979012,5922.411552742124,-8.990694242258659E-6,0.018652804726114677,32.18056248901745,6.2113162018700365E-18,0.018527988053595592,8.990694240190967E-6,0.0041780741322344,0.0,9.277188200394804E-19,36287.766503874074,1093.488896270013,0.001991572175465193,1700.9704509420126,497.55572867737595,-16.502156375825475,0.01571389539299424,12.090341910167774,0.0,0.0,0.0,0.9354293346479726,1041.8777879928143,606.0334355364055
7.600000000000873,2.0931624662399605E7,11596.959608954347,6851.163362883441,2.093162787498947E7,-3.3634554691337533,6851.163362883441,599.275864221582,1525.8978090052037,823.4795587222936,823.283088033881,-0.7928240203434241,-600.3906829053161,5982.670762125403,-9.206727929260671E-6,0.018879809573386037,32.180376902041864,3.1066004301440248E-18,0.018753569181250165,9.206727927397868E-6,0.0041780741322344,0.0,9.277188200394804E-19,36023.44097431897,1093.2528669781775,0.0019879161700301325,1697.1150332890334,497.34095731163535,-16.375882972830286,0.015768178333595968,11.934132570181792,0.0,0.0,0.0,0.9320375458077723,1031.9915370227511,603.7056709412735
7.700000000000906,2.093168436967169E7,11749.549346176038,6933.429594834729,2.0931687667349145E7,-3.4431051062721387,6933.429594834729,594.8721509678946,1525.8969323836307,821.8471572858275,821.6497825785377,-0.7999627502535241,-596.0007830680707,6042.490206882358,-9.424724568055728E-6,0.0191065090378275,32.180192671040025,3.1063690183401945E-18,0.018978700863463906,9.424724566373786E-6,0.0041780741322344,0.0,9.277188200394804E-19,35760.04698408424,1093.0185111372703,0.0019842919471268726,1693.2947757739023,497.12775454927095,-16.251136864842966,0.01582033413563028,11.779887177821823,0.0,0.0,0.0,0.9286665430389023,1022.233731409711,601.3932365170684
7.8000000000009395,2.093174363734134E7,11902.138994820525,7015.5332072224455,2.093174702121827E7,-3.5234653151743895,7015.5332072224455,590.4837837086361,1525.8960374455964,820.2271423797508,820.0288976259994,-0.807032417094192,-591.6262140933227,6101.8714297786355,-9.644665188031364E-6,0.01933269904003646,32.18000979122567,3.1066332067032653E-18,0.019203386528081495,9.644665186552654E-6,0.0041780741322344,0.0,9.277188200394804E-19,35497.57284559936,1092.785823748272,0.0019806992964566217,1689.5094160573215,496.9161148647749,-16.127895273401833,0.01587040838975672,11.6275747964888,0.0,0.0,0.0,0.9253161758627559,1012.6024299226186,599.0960134104923
7.900000000000973,2.0931802466933556E7,12054.728553051547,7097.4754312157,2.093180593812185E7,-3.6045292099439195,7097.4754312157,586.1105705301895,1525.8951240992474,818.6193646977034,818.4202836176067,-0.8140334495761122,-587.2667842495206,6160.815954323858,-9.866530937269927E-6,0.019558397345968405,32.179828257872344,3.1058425092153527E-18,0.01942762956162742,9.866530935958576E-6,0.0041780741322344,0.0,9.277188200394804E-19,35236.00705497123,1092.5547998760799,0.001977138010442664,1685.7586953068271,496.70603280159196,-16.006135869268675,0.015918445718971688,11.477165080572917,0.0,0.0,0.0,0.9219862971096753,1003.0957293618013,596.8138851905738
8.000000000001005,2.0931860859954275E7,12207.318019023769,7179.257483163862,2.0931864419565815E7,-3.6862899471183885,7179.257483163862,581.7523225250003,1525.894192254688,817.0236771440292,816.8237932095268,-0.8209662692083327,-582.922304808056,6219.325284961611,-1.0090303080405962E-5,0.01978383089502792,32.17964806631265,3.106438270250281E-18,0.019651433309919645,1.0090303079250517E-5,0.0041780741322344,0.0,9.277188200394804E-19,34975.338288483355,1092.3254346489016,0.0019736078841959314,1682.042358149562,496.49750297143794,-15.88583676207834,0.015964489802444293,11.328628261570625,0.0,0.0,0.0,0.9186767628598366,993.7117636801014,594.5467378051123
8.10000000000095,2.0931918817890674E7,12359.90739088295,7260.880564815478,2.093192246703733E7,-3.768740724988379,7260.880564815478,577.4088537345401,1525.8932418239422,815.4399347904005,815.239281229294,-0.8278312904381965,-578.5925899862863,6277.400907408446,-1.0315962996755194E-5,0.020008595082914308,32.17946921193731,6.2129598585519175E-18,0.019874801078671105,1.031596299577459E-5,0.0041780741322344,0.0,9.277188200394804E-19,34715.555399177174,1092.0977232570622,0.001970108715472018,1678.3601526162604,496.2905200530875,-15.766976490194091,0.016008583398848027,11.18193513452222,0.0,0.0,0.0,0.9153874323859442,984.4487031231654,592.2944595380962
8.200000000000895,2.093197634221153E7,12512.496666766152,7342.345863532851,2.093198008200517E7,-3.851874782920431,7342.345863532851,573.0799810936102,1525.8922727209158,813.8679948334402,813.6666046333517,-0.8346289207868516,-574.2774568918987,6335.044288985431,-1.0543492178455527E-5,0.020233121261033583,32.179291690194084,3.1052719428870526E-18,0.020097736134079322,1.054349217767599E-5,0.0041780741322344,0.0,9.277188200394804E-19,34456.64741351392,1091.8716609518367,0.001966640304629132,1674.711830086458,496.0850787911882,-15.649534010838797,0.016050768369003682,11.037057044816036,0.0,0.0,0.0,0.9121181680971712,975.3047533931366,590.0569409680705
8.30000000000084,2.09320334343674E7,12665.085844801915,7423.654552502459,2.093203726591988E7,-3.9356854006093567,7423.654552502459,568.7655243759426,1525.8912848613572,812.3077165533225,812.105622465577,-0.841359560976744,-569.9767254685747,6392.256878819317,-1.0772872228414616E-5,0.02045701151976719,32.17911549658718,3.10635423267119E-18,0.02032024170340474,1.0772872227825583E-5,0.0041780741322344,0.0,9.277188200394804E-19,34198.60352811449,1091.647243044793,0.00196320245459434,1671.097145242652,495.88117399553977,-15.533488690551916,0.01609108569784584,10.893965875388824,0.0,0.0,0.0,0.9088688354839135,966.2781548386716,587.8340749274286
8.400000000000784,2.0932090095791005E7,12817.674923110446,7504.80779094129,2.093209402021418E7,-4.020165897478447,7504.80779094129,564.4653061410703,1525.8902781628258,810.7589612733087,810.5561958167331,-0.8480236050604442,-565.6902184429098,6449.040108215064,-1.1004084858662321E-5,0.020680686608909767,32.17894062667607,6.212572956821983E-18,0.020542320975537508,1.1004084858242562E-5,0.0041780741322344,0.0,9.277188200394804E-19,33941.41310657459,1091.4244649064578,0.001959794970819965,1667.5158560143127,495.6788005397623,-15.418820295818344,0.016129575515765552,10.752634034208228,0.0,0.0,0.0,0.9056393030642914,957.3671816614823,585.6257564625863
8.500000000000728,2.0932146327897422E7,12970.263899803818,7585.806724299166,2.093215034630313E7,-4.105309631927854,7585.806724299166,560.1791516824277,1525.8892525446495,809.2215923202122,809.0181877848529,-0.8546214405470133,-561.4177612725704,6505.395390838385,-1.1237111888287704E-5,0.020903759186578337,32.17876707607493,3.1064864260161504E-18,0.020763977101553553,1.1237111888060704E-5,0.0041780741322344,0.0,9.277188200394804E-19,33685.06567635422,1091.2033219657283,0.001956417661251808,1663.9677235345523,495.4779533606419,-15.305508984035086,0.016166277119449023,10.613034442149708,0.0,0.0,0.0,0.9024294423311999,948.5701411495838,583.4318827950306
8.600000000000673,2.093220213208441E7,13122.852772986083,7666.652484457145,2.0932206245584495E7,-4.1911100008049775,7666.652484457145,555.9068889766454,1525.8882079278987,807.6954749857541,807.4914634365364,-0.8611534485209341,-557.1591820956489,6561.324123077095,-1.1471935241983747E-5,0.021126637282790697,32.17859484045155,3.105897338259549E-18,0.02098521319525976,1.1471935241945246E-5,0.0041780741322344,0.0,9.277188200394804E-19,33429.550925738935,1090.983809708575,0.001953070336287077,1660.4525120861797,495.27862745683916,-15.193535294632525,0.01620122899195522,10.475140521133987,0.0,0.0,0.0,0.8992391277010758,939.8853729256591,581.2523532832096
8.700000000000617,2.093225750973261E7,13275.441540753523,7747.346189922128,2.09322617194389E7,-4.277560438630539,7747.346189922128,551.6483486340235,1525.8871442353495,806.1804764887919,805.9758897690912,-0.8676200037588754,-552.9143116811832,6616.8276842013,-1.1708536947923531E-5,0.02134894344510677,32.178423915526785,3.1057559013137546E-18,0.021206032333728697,1.1708536948074965E-5,0.0041780741322344,0.0,9.277188200394804E-19,33174.858700870995,1090.7659236775373,0.0019497528087447835,1656.9699890610552,495.0808178883145,-15.082880140521835,0.016234468822337842,10.338926182640916,0.0,0.0,0.0,0.8960682364630925,931.3112482210485,579.0870693852335
8.800000000000562,2.0932312462205958E7,13428.03020119476,7827.888946017722,2.0932316769230273E7,-4.364654417133739,7827.888946017722,547.4033638501337,1525.886061391446,804.6764659383949,804.4713356735426,-0.8740214748622961,-548.6829833808132,6671.907436784357,-1.1946899136482339E-5,0.021570691586951924,32.178254297073316,6.213134314161317E-18,0.021426437557822975,1.1946899136823285E-5,0.0041780741322344,0.0,9.277188200394804E-19,32920.97900284879,1090.5496594701872,0.0019464648938209367,1653.519924903685,494.8845197748242,-14.973524799645922,0.016266033524934345,10.204365816440223,0.0,0.0,0.0,0.8929166487302702,922.8461691613904,576.9359346223728
8.900000000000507,2.0932366990851745E7,13580.618752390963,7908.281845071445,2.0932371396305908E7,-4.452385444488599,7908.281845071445,543.1717703585298,1525.884959322279,803.1833142977565,802.977671898475,-0.8803582243481789,-544.4650330815392,6726.5647267997265,-1.2187004038142181E-5,0.021792279885228805,32.17808598091529,6.212091655978106E-18,0.02164643187270977,1.2187004038684974E-5,0.0041780741322344,0.0,9.277188200394804E-19,32667.901984892353,1090.335012738867,0.0019432064090635188,1650.102093075779,494.6897282955716,-14.865450906899358,0.01629595925754633,10.071434279718096,0.0,0.0,0.0,0.8897842473905698,914.4885680801871,574.7988545433275
