time,eiPosition_ft_X,eiPosition_ft_Y,eiPosition_ft_Z,eiVelocity_ft_s_X,eiVelocity_ft_s_Y,eiVelocity_ft_s_Z,feVelocity_ft_s_X,feVelocity_ft_s_Y,feVelocity_ft_s_Z,altitudeMsl_ft,longitude_deg,latitude_deg,localGravity_ft_s2,eulerAngle_deg_Yaw,eulerAngle_deg_Pitch,eulerAngle_deg_Roll,bodyAngularRateWrtEi_deg_s_Roll,bodyAngularRateWrtEi_deg_s_Pitch,bodyAngularRateWrtEi_deg_s_Yaw,speedOfSound_ft_s,airDensity_slug_ft3,ambientPressure_lbf_ft2,ambientTemperature_dgR,aero_bodyForce_lbf_X,aero_bodyForce_lbf_Y,aero_bodyForce_lbf_Z,aero_bodyMoment_ftlbf_L,aero_bodyMoment_ftlbf_M,aero_bodyMoment_ftlbf_N,mach,dynamicPressure_lbf_ft2
0.0,2.09322545305E7,0.0,0.0,0.0,0.0,0.0,0.0,0.0,-0.0,30000.0,0.0,0.0,32.1263120705,0.0,0.0,0.0,10.0,20.0,30.0,994.849493459,8.90685451211E-4,629.673709538,411.838873082,-0.0,0.0,-0.0,0.0,0.0,0.0,0.0,0.0
0.1,2.09322543699E7,-9.57633888015E-26,5.55038190996E-26,-3.21262821516,-4.47814903899E-24,1.40620704068E-24,1.4062070492E-24,-4.47814905369E-24,3.21262821516,29999.8393685,0.0,1.51925087717E-31,32.1263125636,3.01849961069,1.97279790437,1.05231349872,10.0,20.0,30.0,994.850183353,8.90690708604E-4,629.678299594,411.839444275,3.10686157568E-6,-1.65648824195E-6,-9.01814081297E-5,0.0,0.0,0.0,0.00322925830332,0.00459640051658
0.2,2.0932253888E7,-1.95529986865E-24,-1.59676188093E-24,-6.42523847876,-5.67118473534E-23,-4.23571618435E-23,-4.23571623336E-23,-5.67118479536E-23,6.42523847876,29999.357475,0.0,-4.37065770148E-30,32.1263140428,6.07801862565,3.88704734383,2.20908835149,10.0,20.0,30.0,994.852253031,8.90706480899E-4,629.692069901,411.841157852,2.44724255549E-5,-1.38833946182E-5,-3.59906706508E-4,0.0,0.0,0.0,0.00645848512599,0.0183858249005
0.3,2.09322530848E7,-2.60635683758E-23,1.52304079081E-23,-9.63781283837,-5.93166045768E-22,8.55497762285E-22,8.55497769297E-22,-5.93166057769E-22,9.63781283837,29998.554322,0.0,4.16886844363E-29,32.1263165081,9.18419054471,5.73640367194,3.47006701251,10.0,20.0,30.0,994.855702472,8.90732768436E-4,629.715020871,411.844013801,8.11886987431E-5,-4.89185642939E-5,-8.06727793177E-4,0.0,0.0,0.0,0.00968764898711,0.0413689416475
0.4,2.09322519604E7,-1.24908376761E-22,1.45051772422E-22,-12.8503333398,-1.39502389206E-21,1.01361056705E-21,1.01361065609E-21,-1.39502396874E-21,12.8503333398,29997.4299142,0.0,3.97035846234E-28,32.1263199595,12.3420656614,7.51435129852,4.83487859146,10.0,20.0,30.0,994.860531642,8.90769571782E-4,629.747153191,411.848012109,1.88850090894E-4,-1.20668992494E-4,-0.00142659335061,0.0,0.0,0.0,0.0129167184053,0.073546864895
0.5,2.09322505148E7,-3.26074763157E-22,3.0514044533E-22,-16.0627820263,-3.24720257101E-21,1.01361053309E-21,1.01361076725E-21,-3.24720282123E-21,16.0627820263,29995.9842577,0.0,8.35230768129E-28,32.1263243971,15.556029536,9.21421310063,6.30290362526,10.0,20.0,30.0,994.866740495,8.90816891732E-4,629.78846782,411.853152753,3.6131989869E-4,-2.44529503158E-4,-0.00221389188726,0.0,0.0,0.0,0.0161456618987,0.114921154388
0.6,2.09322487479E7,-7.33917183372E-22,3.12537307971E-22,-19.2751409375,-5.41560683671E-21,1.82676211496E-21,1.82676240275E-21,-5.41560751253E-21,19.2751409375,29994.2173608,0.0,8.55477541032E-28,32.1263298206,18.8297063119,10.8291723949,7.8731292649,10.0,20.0,30.0,994.874328972,8.90874729309E-4,629.838965997,411.859435705,6.10513830294E-4,-4.37184831207E-4,-0.00316151152334,0.0,0.0,0.0,0.0193744479842,0.165493815434
0.7,2.09322466597E7,-1.35046851026E-21,7.42773012623E-22,-22.4873921087,-8.6230381072E-21,1.0681079789E-20,1.06810805869E-20,-8.623039558E-21,22.4873921087,29992.1292331,0.0,2.03311949507E-27,32.1263362303,22.1658496932,12.3523089877,9.54399705486,10.0,20.0,30.0,994.883296998,8.90943085761E-4,629.898649231,411.86686093,9.46202542531E-4,-7.16396797421E-4,-0.0042609160521,0.0,0.0,0.0,0.0226030451778,0.225267298839
0.8,2.09322442504E7,-2.24168436632E-21,1.77112690363E-21,-25.69951757,-8.89408837563E-21,1.1765281771E-20,1.17652839455E-20,-8.89409112785E-21,25.69951757,29989.7198865,0.0,4.84793199172E-27,32.1263436259,25.566226001,13.7766506289,11.3132471318,10.0,20.0,30.0,994.893644487,8.91021962565E-4,629.967519309,411.875428387,0.00137583501932,-0.00110077838598,-0.00550223667949,0.0,0.0,0.0,0.0258314219941,0.294244500838
0.9,2.09322415198E7,-4.01923546276E-21,3.37049391086E-21,-28.9114993453,-2.54281710452E-20,1.4295086457E-20,1.42950911123E-20,-2.54281765966E-20,28.9114993453,29986.9893344,0.0,9.22572366576E-27,32.1263520075,29.031495559,15.0952407847,13.1777645516,10.0,20.0,30.0,994.905371339,8.91111361423E-4,630.045578289,411.885138029,0.00190438446327,-0.00160955664315,-0.0068743787205,0.0,0.0,0.0,0.029059546946,0.372428763004
1.0,2.09322384681E7,-6.9776633622E-21,5.86252065465E-21,-32.1233194515,-3.53666901279E-20,3.59791292237E-20,3.59791382205E-20,-3.53667008361E-20,32.1233194515,29983.937592,0.0,1.60469073258E-26,32.126361375,32.56110057,16.3012229737,15.1334354161,10.0,20.0,30.0,994.918477441,8.91211284265E-4,630.132828508,411.895989804,0.00253421820308,-0.00226232641049,-0.00836514241089,0.0,0.0,0.0,0.0322873885448,0.459823872151
1.1,2.09322350952E7,-1.14702372265E-20,1.06313718682E-20,-35.3349598977,-5.16297213199E-20,6.4891185933E-20,6.48912038794E-20,-5.16297406824E-20,35.3349598977,29980.5646765,0.0,2.91002244008E-26,32.1263717283,36.1531694013,17.3879409637,17.1750222761,10.0,20.0,30.0,994.932962667,8.9132173325E-4,630.229272575,411.90798365,0.00326499293924,-0.00307879698686,-0.0099613568788,0.0,0.0,0.0,0.0355149152994,0.556434060215
1.2,2.09322314011E7,-1.69982239879E-20,1.7944484014E-20,-38.5464026843,-5.92191343457E-20,9.09120359175E-20,9.0912068962E-20,-5.92191656477E-20,38.5464026843,29976.8706067,0.0,4.91177065569E-26,32.1263830675,39.8044484713,18.3490529183,19.2960695988,10.0,20.0,30.0,994.948826876,8.91442710761E-4,630.334913375,411.921119503,0.00409357645967,-0.00407853387978,-0.0116490262132,0.0,0.0,0.0,0.0387420957169,0.662264004129
1.3,2.09322273859E7,-2.46169136745E-20,3.03461180736E-20,-41.7576298018,-8.86732902124E-20,1.55964162636E-19,1.55964223174E-19,-8.86733393206E-20,41.7576298018,29972.8554032,0.0,8.30635201007E-26,32.1263953924,43.5102733335,19.178656185,21.4888505381,10.0,20.0,30.0,994.966069915,8.9157421941E-4,630.449754067,411.93539729,0.00501399675799,-0.00528069785743,-0.013413486466,0.0,0.0,0.0,0.0419688983016,0.777318825679
1.4,2.09322230496E7,-3.59815214841E-20,4.78507298855E-20,-44.9686232304,-1.26439661281E-19,1.77648200128E-19,1.77648302926E-19,-1.2643973858E-19,44.9686232304,29968.5190885,0.0,1.30977243199E-25,32.126408703,47.2645897324,19.871417956,23.7443654488,10.0,20.0,30.0,994.984691618,8.91716262034E-4,630.573798087,411.950816932,0.00601741928,-0.00670378354857,-0.0152395723308,0.0,0.0,0.0,0.045195291555,0.901604091352
1.5,2.09322183922E7,-5.04505609589E-20,6.78706900022E-20,-48.179364939,-1.62941127846E-19,2.44145924565E-19,2.44146080782E-19,-1.62941243967E-19,48.179364939,29963.8616869,0.0,1.85776013651E-25,32.1264229992,51.0600330663,20.422705683,26.0524002857,10.0,20.0,30.0,995.004691805,8.91868841699E-4,630.707049142,411.967378345,0.00709215281099,-0.00836535985684,-0.0171117921597,0.0,0.0,0.0,0.0484212439759,1.03512581216
1.6,2.09322134137E7,-7.03839786033E-20,9.50319273758E-20,-51.3898368841,-2.33956360982E-19,3.1064364538E-19,3.10643878689E-19,-2.33956533779E-19,51.3898368841,29958.8832245,0.0,2.60121958916E-25,32.1264382809,54.888070792,20.828710127,28.4016491437,10.0,20.0,30.0,995.026070282,8.92031961697E-4,630.849511218,411.985081437,0.00822368429862,-0.0102818144598,-0.0190145099009,0.0,0.0,0.0,0.0516467240597,1.17789044347
1.7,2.09322081142E7,-9.61803313456E-20,1.33873634678E-19,-54.6000210091,-2.82852736849E-19,4.23400653926E-19,4.23401003125E-19,-2.82852987728E-19,54.6000210091,29953.5837291,0.0,3.66439804787E-25,32.1264545481,58.7392070652,21.0865534688,30.7798999795,10.0,20.0,30.0,995.048826843,8.92205625548E-4,631.001188574,412.00392611,0.00939474268487,-0.0124681046508,-0.0209321324777,0.0,0.0,0.0,0.0548717002987,1.32990488478
1.8,2.09322024937E7,-1.27424911458E-19,1.8003009058E-19,-57.8098992435,-3.59850838112E-19,5.07245597982E-19,5.07246095183E-19,-3.5985119003E-19,57.8098992435,29947.9632305,0.0,4.92779695719E-25,32.1264718006,62.6032428956,21.1943751976,33.1742765535,10.0,20.0,30.0,995.072961268,8.92389836996E-4,631.162085744,412.023912262,0.0105853915974,-0.0149375167522,-0.0228493010726,0.0,0.0,0.0,0.0580961411813,1.49117647953
1.9,2.09321965523E7,-1.6096692531E-19,2.38127223626E-19,-61.0194535019,-3.42503581216E-19,5.7374329923E-19,5.73743993395E-19,-3.42504050451E-19,61.0194535019,29942.0217601,0.0,6.51803783081E-25,32.1264900384,66.4695791388,21.1513895879,35.5715236897,10.0,20.0,30.0,995.098473323,8.92584600015E-4,631.332207539,412.045039782,0.0117731505275,-0.0177014362855,-0.0247510847353,0.0,0.0,0.0,0.0613200151921,1.66171301489
2.0,2.09321902899E7,-2.05195556087E-19,3.02382621351E-19,-64.228665683,-5.02604074111E-19,6.66261843251E-19,6.66262771087E-19,-5.02604703736E-19,64.228665683,29935.7593512,0.0,8.27684430612E-25,32.1265092614,70.3275447238,20.9579104374,37.9583180295,10.0,20.0,30.0,995.125362763,8.92789918804E-4,631.511559042,412.067308553,0.0129331438979,-0.0207691310221,-0.0266231747005,0.0,0.0,0.0,0.0645432908118,1.84152272147
2.1,2.09321837066E7,-2.59326563545E-19,3.78376309946E-19,-67.4375176692,-5.66210565993E-19,9.09123077936E-19,9.09124296956E-19,-5.66211401469E-19,67.4375176692,29929.1760389,0.0,1.03569536421E-24,32.1265294694,74.1667294803,20.615341154,40.3215834335,10.0,20.0,30.0,995.153629327,8.93005797789E-4,631.700145615,412.090718452,0.0140382772066,-0.0241475489634,-0.0284520777768,0.0,0.0,0.0,0.0677659365166,2.03061427311
2.2,2.09321768024E7,-3.21093964317E-19,4.81894271843E-19,-70.6459913252,-6.52946695418E-19,1.18667876836E-18,1.18668039475E-18,-6.52947779109E-19,70.6459913252,29922.2718603,0.0,1.31904618468E-24,32.1265506623,77.9773003723,20.1261309622,42.6487896193,10.0,20.0,30.0,995.183272742,8.93232241624E-4,631.897972891,412.115269351,0.0150594392125,-0.0278411332075,-0.0302253071596,0.0,0.0,0.0,0.0709879207782,2.22899678659
2.3,2.09321695774E7,-3.90747123954E-19,6.00735617028E-19,-73.8540684974,-7.00651536462E-19,1.23872038963E-18,1.23872250918E-18,-7.00652915118E-19,73.8540684974,29915.0468539,0.0,1.64434056067E-24,32.1265728401,81.7502819546,19.49370057,44.92821464,10.0,20.0,30.0,995.214292721,8.93469255188E-4,632.105046783,412.140961113,0.015965728923,-0.0318516555544,-0.031931569017,0.0,0.0,0.0,0.0742092120638,2.43667982136
2.4,2.09321620316E7,-4.55983960759E-19,7.26226726308E-19,-77.0617310131,-7.04988280172E-19,1.27919716897E-18,1.27919984257E-18,-7.04989958877E-19,77.0617310131,29907.5010604,0.0,1.98783701007E-24,32.1265960026,85.4777860758,18.7223427691,47.1491560002,10.0,20.0,30.0,995.246688964,8.93716843588E-4,632.321373476,412.167793598,0.0167247059356,-0.0361780705832,-0.0335609432141,0.0,0.0,0.0,0.0774297788353,2.65367337922
2.5,2.0932154165E7,-5.24892621914E-19,8.65190843416E-19,-80.2689606792,-7.19444233869E-19,1.41219251351E-18,1.41219583127E-18,-7.19446246686E-19,80.2689606792,29899.6345221,0.0,2.36821224468E-24,32.1266201497,89.1531814819,17.8171048823,49.302080832,10.0,20.0,30.0,995.280461159,8.93975012156E-4,632.546959432,412.195766657,0.0173026624938,-0.0408163918,-0.035105056559,0.0,0.0,0.0,0.0806495895497,2.87998790403
2.6,2.09321459778E7,-5.96331080075E-19,1.01999875498E-18,-83.4757392821,-7.04988118808E-19,1.67818330217E-18,1.67818736985E-18,-7.04990496929E-19,83.4757392821,29891.4472833,0.0,2.79195567577E-24,32.1266452812,92.7712000772,16.7836606016,51.3787116408,10.0,20.0,30.0,995.315608977,8.94243766453E-4,632.781811388,412.224880135,0.0176649154289,-0.0457595913123,-0.0365572469948,0.0,0.0,0.0,0.0838686126583,3.11563428135
2.7,2.09321374699E7,-6.65817965171E-19,1.19938190009E-18,-86.682048586,-7.10770433491E-19,1.93260924191E-18,1.93261420867E-18,-7.10773190709E-19,86.682048586,29882.9393899,0.0,3.28296720765E-24,32.1266713971,96.3279822628,15.628178615,53.3720497721,10.0,20.0,30.0,995.35213208,8.94523112264E-4,633.025936358,412.255133871,0.017776115986,-0.0509975243273,-0.0379127172026,0.0,0.0,0.0,0.0870868166072,3.36062383813
2.8,2.09321286414E7,-7.30303054026E-19,1.40721449176E-18,-89.8878703326,-5.95122094407E-19,2.21016479831E-18,2.21017084125E-18,-5.95125230514E-19,89.8878703326,29874.1108898,0.0,3.85185150678E-24,32.1266984971,99.821068295,14.3571946242,55.2763432579,10.0,20.0,30.0,995.390030114,8.94813055601E-4,633.279341629,412.286527698,0.0176005753704,-0.0565168796043,-0.0391686761411,0.0,0.0,0.0,0.0903041698361,3.61496834233
2.9,2.09321194923E7,-7.94354450799E-19,1.63811888403E-18,-93.0931862399,-6.3849006438E-19,2.40676655881E-18,2.40677384415E-18,-6.3849359718E-19,93.0931862399,29864.9618327,0.0,4.48388890718E-24,32.1267265811,103.249345627,12.9774921292,57.0870086866,10.0,20.0,30.0,995.429302712,8.95113602705E-4,633.542034766,412.319061442,0.017102603698,-0.0623011568153,-0.0403244671162,0.0,0.0,0.0,0.0935206407792,3.87868000253
3.0,2.09321100228E7,-8.56671111908E-19,1.88816303349E-18,-96.2979780018,-6.47163555009E-19,2.62649792897E-18,2.62650661545E-18,-6.47167496117E-19,96.2979780018,29855.4922701,0.0,5.16831665485E-24,32.126755649,106.612963646,11.4959959183,58.8005181654,10.0,20.0,30.0,995.469949493,8.9542476004E-4,633.81402361,412.352734924,0.0162468599036,-0.0683306715809,-0.0413816810519,0.0,0.0,0.0,0.0967361978639,4.15177146759
3.1,2.09321002328E7,-9.24018457935E-19,2.16607837779E-18,-99.5022272865,-6.61619447319E-19,2.92718302063E-18,2.92719331724E-18,-6.61623839706E-19,99.5022272865,29845.7022552,0.0,5.92903472475E-24,32.1267857006,109.913227307,9.91968075921,60.4142624849,10.0,20.0,30.0,995.511970066,8.95746534297E-4,634.095316277,412.387547956,0.0149987100356,-0.0745825887552,-0.0423442537236,0.0,0.0,0.0,0.0999508095115,4.43425582618
3.2,2.09320901224E7,-9.80408119845E-19,2.48713047921E-18,-102.705915736,-5.45971069349E-19,3.34351629822E-18,3.34352850164E-18,-5.45975879844E-19,102.705915736,29835.5918433,0.0,6.8078284932E-24,32.1268167357,113.152480194,8.25549648182,61.9264006092,10.0,20.0,30.0,995.555364022,8.96078932395E-4,634.385921159,412.423500346,0.0133245912665,-0.0810309843363,-0.0432185458138,0.0,0.0,0.0,0.103164444136,4.72614660639
3.3,2.09320796916E7,-1.0203178937E-18,2.84727164474E-18,-105.909024966,-2.62632747656E-19,3.8176736396E-18,3.8176880458E-18,-2.62637910109E-19,105.909024966,29825.1610914,0.0,7.79361873135E-24,32.1268487542,116.333985985,6.51030958481,63.3357039749,10.0,20.0,30.0,995.600130941,8.96421961479E-4,634.685846926,412.460591893,0.0111923788613,-0.0876469361708,-0.0440134047555,0.0,0.0,0.0,0.106377070146,5.02745777528
3.4,2.09320689406E7,-1.03709800558E-18,3.2511277981E-18,-109.111536564,-6.02481840071E-20,4.26870127583E-18,4.26871822282E-18,-6.02535900354E-20,109.111536564,29814.4100582,0.0,8.89906783785E-24,32.1268817559,119.461815375,4.69086070357,64.6414021557,10.0,20.0,30.0,995.64627039,8.96775628917E-4,634.995102522,412.498822394,0.0085717532765,-0.0943986434159,-0.0447402074491,0.0,0.0,0.0,0.109588655941,5.33820373843
3.5,2.09320578693E7,-1.04202415781E-18,3.69245392858E-18,-112.313432089,3.35850299817E-21,4.49999720659E-18,4.50001701889E-18,3.35291189431E-21,112.313432089,29803.3388046,0.0,1.01070820401E-23,32.1269157406,122.540743655,2.80373676171,65.8430345062,10.0,20.0,30.0,995.693781922,8.97139942308E-4,635.313697168,412.538191634,0.00543456451523,-0.101251574511,-0.0454128830567,0.0,0.0,0.0,0.112799169913,5.65839933946
3.6,2.09320464779E7,-1.03486505385E-18,4.1672023413E-18,-115.514693068,9.58772479339E-20,4.90476541496E-18,4.90478841191E-18,9.5871536972E-20,115.514693068,29791.947393,0.0,1.14065820934E-23,32.1269507081,125.576162407,0.85535634731,66.9403106373,10.0,20.0,30.0,995.742665077,8.97514909472E-4,635.641640363,412.578699396,0.00175519083028,-0.108168643195,-0.0460479152143,0.0,0.0,0.0,0.116008580449,5.98805985954
3.7,2.09320347664E7,-1.01885884429E-18,4.66924367272E-18,-118.715301002,3.21391457617E-19,5.25170943236E-18,5.25173591382E-18,3.21385679195E-19,118.715301002,29780.2358877,0.0,1.2780790733E-23,32.1269866583,128.574007369,-1.14803323065,67.932981097,10.0,20.0,30.0,995.79291938,8.97900538458E-4,635.97894188,412.620345454,-0.0024891111412,-0.115110411907,-0.0466643231351,0.0,0.0,0.0,0.119216855926,6.32720101689
3.8,2.09320227349E7,-9.70355466021E-19,5.2128026476E-18,-121.915237357,6.16294601572E-19,5.54082925378E-18,5.54085961492E-18,6.16288949891E-19,121.915237357,29768.2043551,0.0,1.42686445035E-23,32.1270235909,131.540703371,-3.20034869072,68.8207184744,10.0,20.0,30.0,995.844544345,8.98296837541E-4,636.32561177,412.663129576,-0.00731786772177,-0.122035321677,-0.047283621223,0.0,0.0,0.0,0.122423964713,6.67583896622
3.9,2.09320103834E7,-8.85480704033E-19,5.79938268462E-18,-125.114483568,1.0152811439E-18,5.96872686659E-18,5.96876153057E-18,1.01527585122E-18,125.114483568,29755.8528633,0.0,1.58742588755E-23,32.1270615057,134.483126456,-5.29565465845,69.6030083116,10.0,20.0,30.0,995.897539471,8.9870381522E-4,636.681660362,412.707051524,-0.0127470638971,-0.128899947424,-0.0479297569593,0.0,0.0,0.0,0.125629875172,7.03399029825
4.0,2.0931997712E7,-7.50125475372E-19,6.42366395613E-18,-128.313021038,1.62243448679E-18,6.47757814882E-18,6.47761752584E-18,1.62242988853E-18,128.313021038,29743.181482,0.0,1.7583072517E-23,32.1271004026,137.4085827,-7.42813978082,70.2790486585,10.0,20.0,30.0,995.951904244,8.99121480221E-4,637.04709826,412.752111055,-0.0187888362116,-0.135659277383,-0.0486290269813,0.0,0.0,0.0,0.128834555656,7.40167203907
4.1,2.09319847208E7,-5.69956545457E-19,7.08240830207E-18,-131.510831134,1.7843421129E-18,6.68574392988E-18,6.68578842701E-18,1.784338532E-18,131.510831134,29730.1902833,0.0,1.93862220859E-23,32.1271402812,140.324802903,-9.5920859253,70.8476568146,10.0,20.0,30.0,996.007638137,8.99549841496E-4,637.421936345,412.798307915,-0.0254511856214,-0.142267015145,-0.049409971419,0.0,0.0,0.0,0.132037974508,7.77890164962
4.2,2.09319714099E7,-3.82386119958E-19,7.76173792453E-18,-134.70789519,1.96937935688E-18,6.87656237336E-18,6.8766123241E-18,1.96937689604E-18,134.70789519,29716.8793407,0.0,2.124572101E-23,32.1271811415,143.239952025,-11.7818310466,71.3071817164,10.0,20.0,30.0,996.064740609,8.9998890822E-4,637.806185777,412.845641848,-0.0327377129813,-0.148675902673,-0.0503032467181,0.0,0.0,0.0,0.135240100064,8.16569702507
4.3,2.09319577792E7,-1.79434473799E-19,8.45349961277E-18,-137.904194505,2.11972210134E-18,6.89969077542E-18,6.89974646887E-18,2.11972091918E-18,137.904194505,29703.2487298,0.0,2.3139252192E-23,32.1272229831,146.162652104,-13.9917260426,71.655420544,10.0,20.0,30.0,996.123211106,9.00438689796E-4,638.199857992,412.89411259,-0.0406473797363,-0.154838062394,-0.0513414773287,0.0,0.0,0.0,0.138440900651,8.5620764942
4.4,2.0931943829E7,5.71708104996E-20,9.14514552303E-18,-141.099710339,2.53605574562E-18,7.02112006833E-18,7.02118171465E-18,2.536056131E-18,141.099710339,29689.2985279,1.56490299216E-25,2.50324693102E-23,32.1272658058,149.102017138,-16.216085674,71.8895384158,10.0,20.0,30.0,996.183049061,9.00899195853E-4,638.602964703,412.943719869,-0.0491742962625,-0.16070535638,-0.0525590867985,0.0,0.0,0.0,0.141640344585,8.96805881877
4.5,2.09319295593E7,3.3344343736E-19,9.84187981512E-18,-144.294423917,2.90613005763E-18,7.01533619963E-18,7.01540404471E-18,2.90613235622E-18,144.294423917,29675.0288144,9.12715744284E-25,2.69396175008E-23,32.1273096094,152.067698109,-18.4491334029,72.0059905342,10.0,20.0,30.0,996.244253891,9.01370436243E-4,639.015517901,412.994463409,-0.0583075401576,-0.16622976039,-0.0539921089629,0.0,0.0,0.0,0.144838400174,9.38366319286
4.6,2.09319149702E7,6.43716639184E-19,1.05341036751E-17,-147.488316424,3.34559326361E-18,7.09050598653E-18,7.09058021085E-18,3.3455977993E-18,147.488316424,29660.4396705,1.76201014958E-24,2.88344225742E-23,32.1273543937,155.069935861,-20.68493982,72.000446884,10.0,20.0,30.0,996.306825004,9.01852421044E-4,639.437529855,413.046342924,-0.068031006619,-0.171363750467,-0.0556779800775,0.0,0.0,0.0,0.148035035716,9.80890924217
4.7,2.09319000617E7,1.02661692055E-18,1.12340758049E-17,-150.681369008,4.2707789904E-18,6.87655508691E-18,6.87663595706E-18,4.27078638065E-18,150.681369008,29645.5311791,2.81010403024E-24,3.07504396856E-23,32.1274001583,158.119618741,-22.9173542023,71.8677206321,10.0,20.0,30.0,996.370761791,9.0234516056E-4,639.86901311,413.099358126,-0.0783232928729,-0.176060699594,-0.0576553128902,0.0,0.0,0.0,0.151230219499,10.2438170234
4.8,2.09318848339E7,1.47011685951E-18,1.19263571549E-17,-153.873562776,4.83745513488E-18,6.71464578495E-18,6.71473345747E-18,4.83746594194E-18,153.873562776,29630.3034253,4.02407581109E-24,3.26454084457E-23,32.1274469031,161.228340709,-25.1399286892,71.6017028443,10.0,20.0,30.0,996.436063631,9.02848665318E-4,640.309980492,413.153508716,-0.0891576184168,-0.180275281826,-0.0599636537917,0.0,0.0,0.0,0.1544239198,10.6884070234
4.9,2.0931869287E7,2.01342119973E-18,1.25988046501E-17,-157.064878794,6.17897435703E-18,6.45443538102E-18,6.45452991772E-18,6.17898946499E-18,157.064878794,29614.7564958,5.5112391323E-24,3.44860902513E-23,32.1274946278,164.408453883,-27.3458346276,71.1953081566,10.0,20.0,30.0,996.50272989,9.03362946072E-4,640.760445102,413.20879439,-0.100501782636,-0.183963881187,-0.0626432243284,0.0,0.0,0.0,0.157616104887,11.1427001586
5.0,2.0931853421E7,2.67040772067E-18,1.32279995134E-17,-160.255298088,6.93068750458E-18,6.34456757883E-18,6.34466885305E-18,6.93070794935E-18,160.255298088,29598.8904795,7.30958166465E-24,3.62083819465E-23,32.1275433321,167.67310692,-29.5277708756,70.6404388043,10.0,20.0,30.0,996.570759918,9.03888013799E-4,641.22042032,413.265214839,-0.112318161129,-0.187085002557,-0.0657346484935,0.0,0.0,0.0,0.160806743017,11.6067177741
5.1,2.0931837236E7,3.4098513897E-18,1.38271256333E-17,-163.44480164,7.8558728927E-18,5.34420829675E-18,5.3443162649E-18,7.85589951829E-18,163.44480164,29582.7054668,9.33363331629E-24,3.7848371008E-23,32.1275930157,171.036257175,-31.6778643455,69.9279781049,10.0,20.0,30.0,996.640153055,9.04423879704E-4,641.689919806,413.322769745,-0.124563741833,-0.189599681656,-0.0692786673399,0.0,0.0,0.0,0.163995802436,12.0804816431
5.2,2.09318207321E7,4.24007886818E-18,1.43599272803E-17,-166.63337039,8.6075858127E-18,4.96256696858E-18,4.96268128463E-18,8.60761956698E-18,166.63337039,29566.2015503,1.16061869179E-23,3.9306816058E-23,32.1276436784,174.512639923,-33.787563936,69.0478293087,10.0,20.0,30.0,996.710908626,9.04970555212E-4,642.168957496,413.381458784,-0.137190201818,-0.191471891235,-0.0733158425789,0.0,0.0,0.0,0.16718325138,12.5640139657
5.3,2.09318039093E7,5.11471520249E-18,1.48022339656E-17,-169.820985233,8.88514085122E-18,4.14724469569E-18,4.14736478711E-18,8.88518234722E-18,169.820985233,29549.3788245,1.4000302878E-23,4.05175558337E-23,32.1276953199,178.117672065,-35.847530402,67.9890217645,10.0,20.0,30.0,996.783025941,9.05528051975E-4,642.657547605,413.441281626,-0.150144025329,-0.192668940486,-0.0778862509395,0.0,0.0,0.0,0.170369058073,13.0573373686
5.4,2.09317867679E7,6.03468556506E-18,1.51864271874E-17,-173.007627019,9.4402515083E-18,4.10676551278E-18,4.10689103325E-18,9.44030138682E-18,173.007627019,29532.2373857,1.6518514038E-23,4.15692264292E-23,32.1277479399,-178.132739256,-37.8475268305,66.7399134493,10.0,20.0,30.0,996.8565043,9.0609638187E-4,643.155704628,413.502237934,-0.163366663418,-0.193161864708,-0.0830291711638,0.0,0.0,0.0,0.173553190728,13.5604749038
5.5,2.09317693078E7,7.01247995078E-18,1.55315310738E-17,-176.193276554,1.00184916665E-17,2.81439416369E-18,2.81452490043E-18,1.00185506941E-17,176.193276554,29514.7773322,1.91950092317E-23,4.25139015635E-23,32.1278015381,-174.222520104,-39.7763174318,65.2885264601,10.0,20.0,30.0,996.931342987,9.06675556997E-4,643.663443338,413.564327364,-0.17679473522,-0.19292580225,-0.0887827656059,0.0,0.0,0.0,0.176735617547,14.073450048
5.6,2.09317515293E7,8.02681907005E-18,1.58003647129E-17,-179.377914596,1.02960462687E-17,2.07424307475E-18,2.07437847844E-18,1.02961150557E-17,179.377914596,29496.9987641,2.19715418935E-23,4.32498069525E-23,32.1278561142,-170.135928701,-41.6215864943,63.623058579,10.0,20.0,30.0,997.007541273,9.0726558968E-4,644.180778787,413.627549565,-0.190360270667,-0.191940355749,-0.0951837584808,0.0,0.0,0.0,0.179916306718,14.5962867018
5.7,2.09317334323E7,9.09389365974E-18,1.60405751723E-17,-182.561521856,1.10824529318E-17,2.66115540796E-18,2.66129530998E-18,1.10825322466E-17,182.561521856,29478.9017836,2.48924308027E-23,4.39073649255E-23,32.1279116678,-165.858275866,-43.3698945747,61.7326166584,10.0,20.0,30.0,997.085098415,9.07866492468E-4,644.707726306,413.691904181,-0.203990994127,-0.190189934764,-0.102267112879,0.0,0.0,0.0,0.183095226422,15.1290091882
5.8,2.0931715017E7,1.02403027967E-17,1.63012984905E-17,-185.744078996,1.18457297782E-17,2.61923044188E-18,2.61937509651E-18,1.18458206487E-17,185.744078996,29460.4864947,2.80304853525E-23,4.46210739698E-23,32.1279681988,-161.376906977,-45.0066949925,59.6082117058,10.0,20.0,30.0,997.164013658,9.08478278132E-4,645.244301504,413.757390846,-0.217610648202,-0.187664076921,-0.110065708719,0.0,0.0,0.0,0.186272344822,15.6716422526
5.9,2.09316962835E7,1.14609579412E-17,1.65089751603E-17,-188.92556663,1.27477843216E-17,2.1869926572E-18,2.18714166411E-18,1.27478877661E-17,188.92556663,29441.7530035,3.13717775336E-23,4.51895817693E-23,32.1280257067,-156.682464572,-46.5164394749,57.2440346313,10.0,20.0,30.0,997.244286232,9.0910095967E-4,645.790520273,413.82400919,-0.231139356615,-0.18435774479,-0.118610023848,0.0,0.0,0.0,0.189447630072,16.2242110608
6.0,2.09316772319E7,1.2768117787E-17,1.66794489862E-17,-192.105965322,1.32797643287E-17,1.18274784683E-18,1.18290092686E-18,1.32798815115E-17,192.105965322,29422.7014177,3.49498634731E-23,4.56562568267E-23,32.1280841913,-151.770407232,-47.8828054691,54.6389882334,10.0,20.0,30.0,997.325915355,9.097345503E-4,646.346398781,413.891758836,-0.244494024848,-0.180271595785,-0.127927820543,0.0,0.0,0.0,0.192621050315,16.7867411991
6.1,2.09316578624E7,1.4180286031E-17,1.67870731633E-17,-195.285255586,1.42280777622E-17,4.70243749945E-19,4.70400367634E-19,1.42282100594E-17,195.285255586,29403.3318473,3.88153937547E-23,4.59508964344E-23,32.1281436522,-146.642689233,-49.0890761719,51.7983798434,10.0,20.0,30.0,997.408900231,9.10379063465E-4,646.911953478,413.960639399,-0.257588776908,-0.175412222522,-0.138043839664,0.0,0.0,0.0,0.195792573678,17.3592586722
6.2,2.09316381749E7,1.56387133501E-17,1.68503748979E-17,-198.463417882,1.49682241579E-17,1.94131014693E-19,1.94290781595E-19,1.49683724364E-17,198.463417882,29383.6444042,4.28075559346E-23,4.61242143015E-23,32.1282040891,-141.309409089,-50.1186939055,48.7355827237,10.0,20.0,30.0,997.493240049,9.11034512832E-4,647.487201091,414.030650486,-0.27033542633,-0.169792361176,-0.148979504725,0.0,0.0,0.0,0.198962168277,17.9417899031
6.3,2.09316181697E7,1.72497960948E-17,1.68163294749E-17,-201.64043262,1.71424083927E-17,-9.47897858825E-19,-9.47735862179E-19,1.71425745651E-17,201.64043262,29363.639202,4.72175875597E-23,4.60310663993E-23,32.1282655016,-135.790131569,-50.9559847183,45.4733707856,10.0,20.0,30.0,997.578933986,9.1170091229E-4,648.072158631,414.101791702,-0.282643979253,-0.16343106555,-0.160752638141,0.0,0.0,0.0,0.202129802215,18.5343617314
6.4,2.09315978469E7,1.8922403434E-17,1.66208099505E-17,-204.816280157,1.67260719819E-17,-2.63058219902E-18,-2.63041956392E-18,1.67262571381E-17,204.816280157,29343.3163566,5.17960388376E-23,4.54959181435E-23,32.1283278894,-130.11451523,-51.5870164425,42.0445586722,10.0,20.0,30.0,997.665981206,9.12378275952E-4,648.666843385,414.174062639,-0.294423167161,-0.156353844712,-0.173377191865,0.0,0.0,0.0,0.205295443581,19.1370014125
6.5,2.09315772065E7,2.06000990048E-17,1.62669099178E-17,-207.990940794,1.70498839975E-17,-4.52721572618E-18,-4.52705408667E-18,1.70500886947E-17,207.990940794,29322.6759855,5.63884278229E-23,4.45272362811E-23,32.1283912521,-124.321888628,-52.0005090796,38.4915903963,10.0,20.0,30.0,997.754380858,9.13066618153E-4,649.271272924,414.247462887,-0.305581006611,-0.148592762279,-0.186862994599,0.0,0.0,0.0,0.208459060451,19.7497366164
6.6,2.09315562487E7,2.23115635431E-17,1.57912898717E-17,-211.16439478,1.80213258516E-17,-4.86259805883E-18,-4.86243875113E-18,1.80215509379E-17,211.16439478,29301.7182086,6.10732623111E-23,4.32253699612E-23,32.1284555894,-118.459557185,-52.1886776716,34.8648585068,10.0,20.0,30.0,997.844132078,9.1376595345E-4,649.885465097,414.321992026,-0.316025383071,-0.140186495587,-0.201215517716,0.0,0.0,0.0,0.211620620888,20.3725954267
6.7,2.09315349737E7,2.41826222984E-17,1.5245702403E-17,-214.336622305,1.92240638948E-17,-5.82248076554E-18,-5.82232465122E-18,1.92243115222E-17,214.336622305,29280.4431475,6.61949635802E-23,4.17319802158E-23,32.1285209009,-112.579888393,-52.1478707713,31.2198015284,10.0,20.0,30.0,997.935233989,9.14476296625E-4,650.509438034,414.39764963,-0.325664655725,-0.13118035322,-0.216435661946,0.0,0.0,0.0,0.214780092941,21.0056063393
6.8,2.09315133814E7,2.60689462492E-17,1.46638011556E-17,-217.507603506,1.87614671112E-17,-5.81091823797E-18,-5.81076586063E-18,1.87617380039E-17,217.507603506,29258.8509257,7.1358461723E-23,4.0139186428E-23,32.1285871863,-106.736545402,-51.8788861606,27.6131497234,10.0,20.0,30.0,998.0276857,9.15197662681E-4,651.143210147,414.474435267,-0.334408279929,-0.121626249613,-0.232519566802,0.0,0.0,0.0,0.217937444644,21.6487982611
6.9,2.09314914722E7,2.80519517215E-17,1.40291640896E-17,-220.67731846,2.0658093961E-17,-6.9905324053E-18,-6.9903844981E-18,2.06583897082E-17,220.67731846,29236.941669,7.6786618043E-23,3.84020361615E-23,32.1286544451,-100.980493457,-51.3869009785,24.0989436963,10.0,20.0,30.0,998.121486306,9.15930066842E-4,651.786800128,414.552348497,-0.342167443799,-0.111582635657,-0.24945844462,0.0,0.0,0.0,0.221092644019,22.3022005091
7.0,2.0931469246E7,3.00826038346E-17,1.32660416229E-17,-223.845747188,2.0935645256E-17,-8.05449823342E-18,-8.05435636345E-18,2.0935966966E-17,223.845747188,29214.7155049,8.23452102779E-23,3.63131793044E-23,32.128722677,-95.3564751375,-50.6810304024,20.7250218314,10.0,20.0,30.0,998.21663489,9.16673524556E-4,652.44022695,414.631388873,-0.348855715246,-0.101114384505,-0.267238440989,0.0,0.0,0.0,0.224245659073,22.9658428087
7.1,2.09314467031E7,3.21437866192E-17,1.24430131686E-17,-227.012869652,2.09818997733E-17,-8.47083384118E-18,-8.47069888997E-18,2.09822483901E-17,227.012869652,29192.1725631,8.79873874451E-23,3.40603374959E-23,32.1287918816,-89.9005044729,-49.7736010785,17.5305266539,10.0,20.0,30.0,998.313130519,9.17428051491E-4,653.103509867,414.711555942,-0.354389695596,-0.0902926320432,-0.2858405232,0.0,0.0,0.0,0.227396457797,23.6397552931
7.2,2.09314238435E7,3.43118278764E-17,1.15573031817E-17,-230.178665753,2.29247849693E-17,-9.41915118505E-18,-9.41902409171E-18,2.29251622895E-17,230.178665753,29169.3129752,9.39220828644E-23,3.1635912579E-23,32.1288620586,-84.6386359818,-48.6792687682,14.544686218,10.0,20.0,30.0,998.410972249,9.18193663539E-4,653.776668417,414.792849242,-0.35868967585,-0.0791945717422,-0.305240398239,0.0,0.0,0.0,0.230545008169,24.323968501
7.3,2.09314006674E7,3.66001427678E-17,1.05991972245E-17,-233.343115333,2.22308901362E-17,-9.69670864213E-18,-9.69659048235E-18,2.22312981543E-17,233.343115333,29146.1368748,1.00186019249E-22,2.90133124315E-23,32.1289332074,-79.5869501312,-47.4141145689,11.7868120294,10.0,20.0,30.0,998.510159121,9.18970376811E-4,654.459722415,414.875268306,-0.361680291464,-0.0679032039126,-0.325408461658,0.0,0.0,0.0,0.233691278153,25.0185133764
7.4,2.09313771749E7,3.88139796363E-17,9.60662793158E-18,-236.506198172,2.2369662227E-17,-1.03674699379E-17,-1.03673613914E-17,2.23701007909E-17,236.506198172,29122.6443977,1.06246101281E-22,2.62963698582E-23,32.1290053277,-74.7524718353,-45.9948273462,9.26723014938,10.0,20.0,30.0,998.610690163,9.19758207641E-4,655.152691962,414.958812658,-0.363291171509,-0.0565070396401,-0.346309778543,0.0,0.0,0.0,0.236835235695,25.7234212662
7.5,2.09313533662E7,4.09459369612E-17,8.59139143777E-18,-239.667893989,2.11669144941E-17,-1.02518231028E-17,-1.02517247298E-17,2.11673833327E-17,239.667893989,29098.8356814,1.12082068228E-22,2.35173741954E-23,32.1290784191,-70.1346482921,-44.4380378222,6.98877178766,10.0,20.0,30.0,998.712564388,9.20557172584E-4,655.855597438,415.043481818,-0.363457577937,-0.0450997599866,-0.367904097591,0.0,0.0,0.0,0.23997684873,26.4387239196
7.6,2.09313292414E7,4.32541415624E-17,7.46166306283E-18,-242.828182438,2.48676514522E-17,-1.23797518013E-17,-1.23796652372E-17,2.48681532514E-17,242.828182438,29074.7108658,1.18400495707E-22,2.04249714253E-23,32.1291524811,-65.7270372752,-42.7598281024,4.94847449969,10.0,20.0,30.0,998.815780797,9.21367288413E-4,656.568459507,415.129275295,-0.362121030711,-0.0337798313234,-0.390145899156,0.0,0.0,0.0,0.243116085175,27.164453486
7.7,2.09313048006E7,4.57594100864E-17,6.21443597007E-18,-245.987043112,2.53764968401E-17,-1.29348643636E-17,-1.29347913309E-17,2.53770346098E-17,245.987043112,29050.2700925,1.25258367595E-22,1.70109296354E-23,32.1292275134,-61.518946164,-40.9754091233,3.13923425257,10.0,20.0,30.0,998.920338378,9.22188572127E-4,657.291299113,415.216192593,-0.359229914466,-0.0226500779544,-0.412984477916,0.0,0.0,0.0,0.246252912932,27.9006425141
7.8,2.0931280044E7,4.83433187053E-17,4.87283982496E-18,-249.144455539,2.63941940581E-17,-1.41376068263E-17,-1.4137548825E-17,2.63947694873E-17,249.144455539,29025.5135054,1.32331521228E-22,1.33385610257E-23,32.1293035155,-57.4968662842,-39.0989404161,1.55125289283,10.0,20.0,30.0,999.026236103,9.23021040941E-4,658.024137486,415.304233209,-0.354740062458,-0.0118172134776,-0.436364060615,0.0,0.0,0.0,0.249387299888,28.6473239502
7.9,2.09312549718E7,5.09651592021E-17,3.45537836518E-18,-252.30039918,2.55615191661E-17,-1.36750145377E-17,-1.36749728873E-17,2.55621334881E-17,252.30039918,29000.4412504,1.39508525811E-22,9.45851537391E-24,32.1293804869,-53.645635635,-37.143459793,0.173214024547,10.0,20.0,30.0,999.133472932,9.23864712291E-4,658.766996135,415.393396632,-0.348615313515,-0.0013913326199,-0.460223959167,0.0,0.0,0.0,0.252519213915,29.4045311363
8.0,2.0931229584E7,5.34445202952E-17,2.11933320741E-18,-255.454853434,2.44975474186E-17,-1.30736441592E-17,-1.30736182939E-17,2.44981996814E-17,255.454853434,28975.0534752,1.46295535995E-22,5.80132417348E-24,32.1294584273,-49.9493241228,-35.1208913376,-1.00681868277,10.0,20.0,30.0,999.242047811,9.24719603836E-4,659.519896853,415.483682343,-0.340828037838,0.00851463443973,-0.484498759137,0.0,0.0,0.0,0.255648622867,30.1722978093
8.1,2.09312038808E7,5.59312820547E-17,7.77274309097E-19,-258.607797628,2.48213540737E-17,-1.33512001382E-17,-1.33511905349E-17,2.48220451121E-17,258.607797628,28949.35033,1.53102823074E-22,2.12766249322E-24,32.1295373362,-46.3918700443,-33.042104788,-2.00075215678,10.0,20.0,30.0,999.351959673,9.25585733451E-4,660.282861716,415.575089819,-0.331359627537,0.0177855029645,-0.509118543464,0.0,0.0,0.0,0.258775494584,30.9506580986
8.2,2.09311778625E7,5.84541252039E-17,-5.75886831342E-19,-261.759211027,2.53301975143E-17,-1.30273851039E-17,-1.30273923058E-17,2.53309285245E-17,261.759211027,28923.3319667,1.60008896361E-22,-1.57639885963E-24,32.129617213,-42.9575113311,-30.9170054205,-2.82002023856,10.0,20.0,30.0,999.463207437,9.26463119233E-4,661.055913083,415.667618527,-0.320200947921,0.026304447213,-0.53400915103,0.0,0.0,0.0,0.26189979689,31.7396465252
8.3,2.09311515291E7,6.09209937117E-17,-1.79258304961E-18,-264.909072824,2.33410387631E-17,-1.06681609908E-17,-1.06681836781E-17,2.3341809792E-17,264.909072824,28896.9985395,1.66761767435E-22,-4.90691795082E-24,32.1296980575,-39.6310573197,-28.7546393364,-3.47530015025,10.0,20.0,30.0,999.575790007,9.27351779497E-4,661.839073596,415.761267926,-0.307352745719,0.0339536438328,-0.559092469489,0.0,0.0,0.0,0.265021497592,32.5392979993
8.4,2.09311248807E7,6.32745260175E-17,-2.84644653034E-18,-268.057362144,2.4404992965E-17,-1.11307535631E-17,-1.11307900165E-17,2.4405803299E-17,268.057362144,28870.3502046,1.73204417448E-22,-7.79171562578E-24,32.129779869,-36.3980424404,-26.5633039059,-3.9763480589,10.0,20.0,30.0,999.689706275,9.28251732778E-4,662.63236618,415.85603747,-0.29282601054,0.0406149420294,-0.584286761522,0.0,0.0,0.0,0.268140564479,33.3496478193
8.5,2.09310979176E7,6.56974462909E-17,-3.88319402916E-18,-271.204058044,2.45900202376E-17,-1.02518264846E-17,-1.02518767991E-17,2.45908714788E-17,271.204058044,28843.3871202,1.79837025849E-22,-1.06296683421E-23,32.1298626471,-33.2447961957,-24.3506568606,-4.33191980496,10.0,20.0,30.0,999.804955119,9.2916299783E-4,663.435814045,415.951926604,-0.2766422861,0.046170557213,-0.609507023491,0.0,0.0,0.0,0.271256965326,34.1707316696
8.6,2.093107064E7,6.81629241051E-17,-4.87877069792E-18,-274.349139507,2.52376400618E-17,-1.02055665191E-17,-1.02056304665E-17,2.52385334914E-17,274.349139507,28816.1094468,1.86586149255E-22,-1.3354929378E-23,32.1299463914,-30.1584564025,-22.1238202147,-4.54975037076,10.0,20.0,30.0,999.921535403,9.30085593625E-4,664.249440682,416.048934767,-0.258833927953,0.0505037846045,-0.634665375235,0.0,0.0,0.0,0.274370667891,35.002585619
8.7,2.09310430479E7,7.07121301927E-17,-5.9469743812E-18,-277.492585449,2.60702966725E-17,-1.16396037634E-17,-1.16396826052E-17,2.60712341361E-17,277.492585449,28788.5173468,1.93564487501E-22,-1.6279003972E-23,32.1300311012,-27.1269460548,-19.8894770388,-4.63657242673,10.0,20.0,30.0,1000.03944598,9.31019539353E-4,665.073269869,416.14706139,-0.239444304699,0.0534997290821,-0.659671479527,0.0,0.0,0.0,0.277481639914,35.8452461187
8.8,2.09310151415E7,7.33413637709E-17,-7.07947838992E-18,-280.63437471,2.67179157141E-17,-1.17321213483E-17,-1.1732216267E-17,2.67188990447E-17,280.63437471,28760.6109849,2.00761911422E-22,-1.93790998742E-23,32.1301167763,-24.1389287219,-17.6539602943,-4.5981598924,10.0,20.0,30.0,1000.15868568,9.31964854423E-4,665.907325665,416.246305895,-0.218527939894,0.0550460473616,-0.684432989521,0.0,0.0,0.0,0.280589849119,36.698750001
8.9,2.0930986921E7,7.59955762414E-17,-8.26101714011E-18,-283.774486061,2.66947746059E-17,-1.21021945132E-17,-1.2102306513E-17,2.66958049255E-17,283.774486061,28732.3905278,2.08027734035E-22,-2.26134304321E-23,32.130203416,-21.1837531903,-15.4233336615,-4.43938684983,10.0,20.0,30.0,1000.27925333,9.32921558462E-4,666.751632415,416.3466677,-0.196150592215,0.0550336984387,-0.708856022289,0.0,0.0,0.0,0.283695263212,37.5631344766
9.0,2.09309583867E7,7.8708074254E-17,-9.52582249021E-18,-286.912898196,2.74811707085E-17,-1.29348604172E-17,-1.29349909932E-17,2.74822496062E-17,286.912898196,28703.8561443,2.15453128569E-22,-2.60757015994E-23,32.1302910198,-18.251394931,-13.2034646789,-4.16429548787,10.0,20.0,30.0,1000.40114775,9.33889671313E-4,667.606214747,416.448146212,-0.172389271666,0.053357698076,-0.732845656372,0.0,0.0,0.0,0.286797849884,38.4384371333
9.1,2.09309295385E7,8.14867218469E-17,-1.08752821996E-17,-290.049589736,2.81287885115E-17,-1.40450818768E-17,-1.40452325806E-17,2.81299177108E-17,290.049589736,28675.0080055,2.23059622822E-22,-2.97697132801E-23,32.1303795873,-15.3323997377,-11.0000906836,-3.77616923281,10.0,20.0,30.0,1000.52436772,9.34869213039E-4,668.471097575,416.550740833,-0.147332190011,0.0499178729914,-0.756306451058,0.0,0.0,0.0,0.289897576806,39.324695934
9.2,2.09309003768E7,8.43331380526E-17,-1.22978314243E-17,-293.18453923,2.86838872974E-17,-1.42532469159E-17,-1.42534191748E-17,2.86850685735E-17,293.18453923,28645.8462845,2.30851649787E-22,-3.36638092529E-23,32.1304691179,-12.4178333369,-8.81887805521,-3.27760902788,10.0,20.0,30.0,1000.64891203,9.35860203917E-4,669.346306096,416.654450956,-0.1210786439,0.0446196103036,-0.779142984928,0.0,0.0,0.0,0.292994411632,40.2219492141
9.3,2.09308709017E7,8.72467445862E-17,-1.37671023459E-17,-296.317725146,2.9539671044E-17,-1.48546157213E-17,-1.48548106217E-17,2.95409061936E-17,296.317725146,28616.3711565,2.388276276E-22,-3.7685811749E-23,32.130559611,-9.49923973579,-6.66547518498,-2.67061202734,10.0,20.0,30.0,1000.77477944,9.36862664442E-4,670.231865792,416.759275967,-0.0937388295495,0.0373745977118,-0.801260411045,0.0,0.0,0.0,0.296088322001,41.1302356804
9.4,2.09308411133E7,9.02074186109E-17,-1.52479378792E-17,-299.449125879,2.97593890642E-17,-1.4727400439E-17,-1.47276185851E-17,2.97606796254E-17,299.449125879,28586.5827989,2.46932473434E-22,-4.17394829968E-23,32.1306510663,-6.5686104122,-4.5455594375,-1.95665289756,10.0,20.0,30.0,1000.90196871,9.37876615328E-4,671.127802431,416.865215244,-0.065433588185,0.0281015498327,-0.822565025987,0.0,0.0,0.0,0.299179275533,42.0495944081
9.5,2.09308110119E7,9.32067755842E-17,-1.67440387451E-17,-302.578719747,3.01641437979E-17,-1.50974723255E-17,-1.50977143797E-17,3.01654912081E-17,302.578719747,28556.4813915,2.55143236445E-22,-4.58349536266E-23,32.130743483,-3.61836603256,-2.46487817722,-1.13676856241,10.0,20.0,30.0,1001.03047859,9.389020775E-4,672.034142065,416.972268159,-0.0362940818578,0.0167269160879,-0.842964849794,0.0,0.0,0.0,0.302267239828,42.9800648393
9.6,2.09307805976E7,9.62320074185E-17,-1.8256648139E-17,-305.706484989,3.03231455765E-17,-1.52131178711E-17,-1.52133845202E-17,3.03245511021E-17,305.706484989,28526.067116,2.63424856681E-22,-4.99756271173E-23,32.1308368607,-0.641352121153,-0.429283698639,-0.211647651373,10.0,20.0,30.0,1001.1603078,9.39939072102E-4,672.950911031,417.080434074,-0.00646139962331,0.00318556553522,-0.862370213754,0.0,0.0,0.0,0.305352182471,43.9216867807
9.7,2.09307498707E7,9.92619721251E-17,-1.97765286352E-17,-308.832399766,3.02308830363E-17,-1.52103140962E-17,-1.52106058981E-17,3.02323476429E-17,308.832399766,28495.3401562,2.71719460796E-22,-5.41362173463E-23,32.1309311988,2.36915009482,1.55523835261,0.818273861218,10.0,20.0,30.0,1001.29145505,9.40987620494E-4,673.878135951,417.189712346,0.0239139055217,-0.0125785559443,-0.880694352835,0.0,0.0,0.0,0.308434071029,44.874500401
9.8,2.09307188312E7,1.02275634328E-16,-2.13055974413E-17,-311.956442159,2.99446381934E-17,-1.53028295284E-17,-1.53031470722E-17,2.9946162534E-17,311.956442159,28464.3006984,2.79969466949E-22,-5.83219727537E-23,32.1310264968,5.41939664609,3.48254774612,1.95270929281,10.0,20.0,30.0,1001.42391904,9.4204774425E-4,674.815843734,417.300102321,0.0546723481363,-0.0306118006366,-0.897853999484,0.0,0.0,0.0,0.311512873049,45.8385462291
9.9,2.09306874794E7,1.05249916738E-16,-2.28110158569E-17,-315.078590169,2.95514182762E-17,-1.49327518E-17,-1.4933095184E-17,2.95530026483E-17,315.078590169,28432.9489309,2.88111703409E-22,-6.24430007991E-23,32.131122754,8.51513685668,5.3463365629,3.19140878529,10.0,20.0,30.0,1001.55769845,9.43119465158E-4,675.764061572,417.41160334,0.0856461090535,-0.0509502306217,-0.913769975399,0.0,0.0,0.0,0.314588556062,46.8138651519
10.0,2.09306558156E7,1.08164233925E-16,-2.42945764065E-17,-318.198821718,2.88806421504E-17,-1.47245813672E-17,-1.47249507061E-17,2.88822865199E-17,318.198821718,28401.2850443,2.96089819295E-22,-6.65042082493E-23,32.13121997,11.6615521592,7.14012540946,4.5340367343,10.0,20.0,30.0,1001.69279197,9.44202805223E-4,676.722816947,417.524214735,0.11665969969,-0.0736190703925,-0.928367777846,0.0,0.0,0.0,0.317661087579,47.8004984114
10.1,2.09306238397E7,1.11026854691E-16,-2.57031965292E-17,-321.317114644,2.8186735935E-17,-1.34293173324E-17,-1.34297119158E-17,2.81884403671E-17,321.317114644,28369.3092312,3.03926449356E-22,-7.03602860761E-23,32.1313181441,14.863178048,8.85727034147,5.98003876086,10.0,20.0,30.0,1001.82919825,9.45297786662E-4,677.692137621,417.637935831,0.147530689903,-0.0986322046881,-0.941578157001,0.0,0.0,0.0,0.320730435094,48.7984876026
10.2,2.09305915522E7,1.13792097942E-16,-2.70216106366E-17,-324.433446706,2.70649308295E-17,-1.33367947003E-17,-1.33372135473E-17,2.70666946574E-17,324.433446706,28337.0216867,3.11496545035E-22,-7.39694452143E-23,32.1314172757,18.1238104515,10.490982017,7.52849881718,10.0,20.0,30.0,1001.96691593,9.46404431906E-4,678.672051647,417.752765944,0.178070496948,-0.125991725609,-0.953337680819,0.0,0.0,0.0,0.323796566083,49.8078746715
10.3,2.09305589531E7,1.1647800476E-16,-2.82956154083E-17,-327.547795577,2.66023202275E-17,-1.19952709643E-17,-1.19957137698E-17,2.66041430223E-17,327.547795577,28304.4226079,3.18849491492E-22,-7.74570495347E-23,32.1315173644,21.4463990379,12.0343586121,9.17798829022,10.0,20.0,30.0,1002.10594364,9.47522763602E-4,679.66258736,417.868704385,0.208085232672,-0.155687532899,-0.963589283859,0.0,0.0,0.0,0.326859448002,50.8287019117
10.4,2.09305260427E7,1.19074166761E-16,-2.94521211423E-17,-330.660138849,2.51913937184E-17,-1.15326736041E-17,-1.15331388883E-17,2.51932748503E-17,330.660138849,28271.5121944,3.25956795856E-22,-8.06230209275E-23,32.1316184094,24.8329315067,13.4804338832,10.9264105532,10.0,20.0,30.0,1002.24628,9.48652804607E-4,680.663773385,417.985750452,0.237376605699,-0.187696991057,-0.972282796549,0.0,0.0,0.0,0.329919048289,51.8610119628
10.5,2.09304928212E7,1.21485983654E-16,-3.04851141129E-17,-333.77045403,2.33410035434E-17,-9.95985305005E-18,-9.96033918435E-18,2.33429408332E-17,333.77045403,28238.2906478,3.32559495509E-22,-8.34508958566E-23,32.1317204101,28.2843147091,14.8222413987,12.7708462578,10.0,20.0,30.0,1002.38792362,9.49794577992E-4,681.675638631,418.103903441,0.265742874957,-0.221984646743,-0.979375451389,0.0,0.0,0.0,0.332975334365,52.9048478071
10.6,2.09304592887E7,1.23775442852E-16,-3.15218073588E-17,-336.87871854,2.32484661318E-17,-9.21969960647E-18,-9.22020695444E-18,2.32504583151E-17,336.87871854,28204.758172,3.38827274882E-22,-8.62889103089E-23,32.131823366,31.8002603566,16.052895353,14.7074066232,10.0,20.0,30.0,1002.53087307,9.5094810704E-4,682.698212294,418.223162635,0.29297985054,-0.258502009621,-0.984832362606,0.0,0.0,0.0,0.33602827363,53.9602527677
10.7,2.09304254455E7,1.2598255861E-16,-3.24410015176E-17,-339.984909717,2.0750445152E-17,-9.12717611132E-18,-9.12770306912E-18,2.0752491559E-17,339.984909717,28170.9149732,3.44869669248E-22,-8.8805288501E-23,32.1319272764,35.3791848848,17.165687484,16.7311038393,10.0,20.0,30.0,1002.67512695,9.52113415248E-4,683.731523856,418.343527313,0.31888193752,-0.297187399581,-0.988626975907,0.0,0.0,0.0,0.339077833466,55.027270505
10.8,2.09303912918E7,1.27916280014E-16,-3.33518685055E-17,-343.089004812,1.92007393559E-17,-7.64687369186E-18,-7.64742039255E-18,1.92028361475E-17,343.089004812,28136.7612599,3.50163686557E-22,-9.12988810196E-23,32.1320321407,39.0181344546,18.1541984627,18.8357491524,10.0,20.0,30.0,1002.82068381,9.53290526322E-4,684.775603086,418.464996744,0.343243218,-0.337965862893,-0.990741484996,0.0,0.0,0.0,0.342123981238,56.1059450147
10.9,2.09303568278E7,1.29753201884E-16,-3.39509473492E-17,-346.190980988,1.67027177695E-17,-4.5012366193E-18,-4.50179817264E-18,1.67048639054E-17,346.190980988,28102.2972428,3.55192742649E-22,-9.29389789953E-23,32.1321379583,42.7127466899,19.0124207553,21.0138898677,10.0,20.0,30.0,1002.96754219,9.54479464181E-4,685.83048004,418.587570188,0.365858566352,-0.380749159607,-0.991167211674,0.0,0.0,0.0,0.345166684289,57.1963206247
11.0,2.09303220536E7,1.31374090866E-16,-3.42844973318E-17,-349.290815322,1.50951873022E-17,-1.44811805867E-18,-1.44869020753E-18,1.50973797082E-17,349.290815322,28067.5231351,3.59630440692E-22,-9.38522109122E-23,32.1322447285,46.4572602239,19.7348884991,23.2567960008,10.0,20.0,30.0,1003.11570063,9.55680252952E-4,686.896185061,418.7112469,0.386524792312,-0.425435824079,-0.989904946459,0.0,0.0,0.0,0.348205909947,58.2984419921
11.1,2.09302869697E7,1.32822430669E-16,-3.42942317396E-17,-352.388484802,1.47366575039E-17,2.62270496696E-18,2.62212757916E-18,1.47388937415E-17,352.388484802,28032.439152,3.63595812759E-22,-9.38790157617E-23,32.1323524507,50.2445811227,20.3168085422,25.5545053453,10.0,20.0,30.0,1003.26515766,9.56892916977E-4,687.972748778,418.836026124,0.405041806283,-0.471911300237,-0.986965246788,0.0,0.0,0.0,0.351241625518,59.4123541009
11.2,2.0930251576E7,1.34144538389E-16,-3.38728290137E-17,-355.483966328,1.18338663909E-17,6.32345361839E-18,6.32287831486E-18,1.1836144731E-17,355.483966328,27997.0455111,3.67215647958E-22,-9.272560034E-23,32.1324611242,54.066411682,20.7541857011,27.8959321698,10.0,20.0,30.0,1003.41591177,9.58117480804E-4,689.060202107,418.961907097,0.421213800985,-0.52004815273,-0.982368690079,0.0,0.0,0.0,0.35427379829,60.5381022585
11.3,2.09302158729E7,1.35128213955E-16,-3.31794211272E-17,-358.57723671,8.43667890966E-18,6.69353310767E-18,6.69296467659E-18,8.43899393125E-18,358.57723671,27961.3424324,3.69909053962E-22,-9.08275771649E-23,32.1325707483,57.9134421018,21.043934704,30.2690397919,10.0,20.0,30.0,1003.56796146,9.59353969193E-4,690.158576254,419.088889049,0.434850443335,-0.569706354783,-0.976146079061,0.0,0.0,0.0,0.357302395532,61.675732093
11.4,2.09301798607E7,1.35870407615E-16,-3.23213296496E-17,-361.668272669,7.06216080153E-18,1.00242072136E-17,1.00236487091E-17,7.06450860818E-18,361.668272669,27925.3301382,3.71941424723E-22,-8.84787321228E-23,32.1326813225,61.7755996307,21.1839714058,32.6610713787,10.0,20.0,30.0,1003.72130521,9.60602407112E-4,691.267902708,419.2169712,0.445768070248,-0.620733653137,-0.968338597021,0.0,0.0,0.0,0.360327384495,62.8252895503
11.5,2.09301435394E7,1.36485809877E-16,-3.13781205773E-17,-364.757050834,4.2923647399E-18,9.09902624739E-18,9.09847940973E-18,4.29474332662E-18,364.757050834,27889.0088531,3.73626719504E-22,-8.58968728404E-23,32.132792846,65.6423437256,21.1732767846,35.0588272892,10.0,20.0,30.0,1003.87594149,9.61862819738E-4,692.388213249,419.346152762,0.453790881898,-0.672966010044,-0.958997910833,0.0,0.0,0.0,0.363348732409,63.9868208905
11.6,2.09301069093E7,1.37005482219E-16,-3.03886517308E-17,-367.843547744,5.84781246278E-18,1.03942911846E-17,1.03937571085E-17,5.85022031396E-18,367.843547744,27852.3788041,3.75049966792E-22,-8.31883705521E-23,32.1329053181,69.5029905455,21.011928936,37.4489720574,10.0,20.0,30.0,1004.03186873,9.63135232455E-4,693.51953994,419.47643294,0.458752125806,-0.726228121879,-0.948186219856,0.0,0.0,0.0,0.366366406486,65.1603726854
11.7,2.09300699707E7,1.37428817481E-16,-2.92252474773E-17,-370.927739846,3.77768804383E-18,1.59454108917E-17,1.59448929548E-17,3.78012359043E-18,370.927739846,27815.4402204,3.76209503175E-22,-8.00037141784E-23,32.1330187382,73.3470465971,20.7011006048,39.8183506206,10.0,20.0,30.0,1004.18908538,9.64419670858E-4,694.661915137,419.60781093,0.460495265076,-0.780334013466,-0.935976249059,0.0,0.0,0.0,0.369380373921,66.3459918149
11.8,2.09300327238E7,1.37754312228E-16,-2.71995695605E-17,-374.009603494,3.52324080934E-18,2.44571250892E-17,2.4456639046E-17,3.52570241255E-18,374.009603494,27778.1933337,3.77101211668E-22,-7.44585811667E-23,32.1331331055,77.1645302403,20.2430224454,42.1542922828,10.0,20.0,30.0,1004.34758987,9.65716160745E-4,695.815371478,419.74028592,0.458875123955,-0.83508770683,-0.922451184982,0.0,0.0,0.0,0.372390601886,67.543725464
11.9,2.09299951689E7,1.38010184626E-16,-2.45947248823E-17,-377.089114949,2.64429307826E-18,2.92680955118E-17,2.92676523964E-17,2.64677956418E-18,377.089114949,27740.6383781,3.77802337988E-22,-6.73279626999E-23,32.1332484194,80.9462612331,19.6409148281,44.4448823826,10.0,20.0,30.0,1004.5073806,9.67024728125E-4,696.979941893,419.873857088,0.453759003951,-0.890283962591,-0.907704553445,0.0,0.0,0.0,0.375397057537,68.7536211192
12.0,2.09299573061E7,1.38189033182E-16,-2.13959105091E-17,-380.166250379,1.48778955782E-18,3.53743256851E-17,3.53739370554E-17,1.49029958714E-18,380.166250379,27702.7755899,3.78292619547E-22,-5.85713268825E-23,32.1333646791,84.6841022897,18.8988932608,46.6791854135,10.0,20.0,30.0,1004.66845596,9.68345399211E-4,698.155659597,420.008523606,0.44502776366,-0.94570909184,-0.891840038171,0.0,0.0,0.0,0.378399708008,69.9757265653
12.1,2.09299191357E7,1.38420615211E-16,-1.73903337441E-17,-383.240985858,9.32656811398E-19,4.35159641865E-17,4.35156457577E-17,9.35191386553E-19,383.240985858,27664.605208,3.78927266644E-22,-4.76061432152E-23,32.133481884,88.3711420277,18.0218540958,48.847408744,10.0,20.0,30.0,1004.83081433,9.69678200421E-4,699.342558094,420.144284637,0.432576855561,-1.00114183586,-0.874971239846,0.0,0.0,0.0,0.381398520418,71.2100898822
12.2,2.0929880658E7,1.38569853573E-16,-1.25668924182E-17,-386.313297364,1.0251541347E-18,5.14725648407E-17,5.14723328872E-17,1.02771178794E-18,386.313297364,27626.1274736,3.79336504934E-22,-3.44020068209E-23,32.1336000332,92.0018147637,17.0153480014,50.9410021519,10.0,20.0,30.0,1004.9944541,9.7102315838E-4,700.540671174,420.281139335,0.416317313073,-1.05635431061,-0.857221375392,0.0,0.0,0.0,0.384393461864,72.456759441
12.3,2.09298418731E7,1.38655714577E-16,-7.23089793667E-18,-389.383160781,1.92465584293E-19,5.72087186632E-17,5.72085841381E-17,1.95045164241E-19,389.383160781,27587.3426301,3.79572253761E-22,-1.97946996624E-23,32.1337191261,95.5719584395,15.8854486848,52.9526941935,10.0,20.0,30.0,1005.15937359,9.72380299919E-4,701.750032916,420.419086844,0.396176681313,-1.11111301262,-0.838722917593,0.0,0.0,0.0,0.387384499425,73.7157839008
12.4,2.09298027814E7,1.38687912673E-16,-8.56844817712E-19,-392.450551896,-1.31370755939E-19,6.62755406633E-17,6.62755245967E-17,-1.28770246587E-19,392.450551896,27548.2509238,3.79661105679E-22,-2.34563088172E-24,32.1338391619,99.0788167759,14.6386236855,54.8764712214,10.0,20.0,30.0,1005.32557116,9.7374965207E-4,702.970677689,420.558126303,0.372099885129,-1.1651798822,-0.819617175517,0.0,0.0,0.0,0.390371600159,74.9872122048
12.5,2.09297633831E7,1.38671073789E-16,6.15743692471E-18,-395.515446401,-3.62688512226E-19,7.53423616359E-17,7.53424779946E-17,-3.60068007128E-19,395.515446401,27508.852603,3.79615723467E-22,1.68561460513E-23,32.1339601399,102.520995102,13.281612902,56.7075081903,10.0,20.0,30.0,1005.49304514,9.75131242072E-4,704.202640145,420.69825684,0.344050028183,-1.21831341993,-0.800053816513,0.0,0.0,0.0,0.393354731109,76.2710935771
12.6,2.09297236784E7,1.38683838724E-16,1.38526553603E-17,-398.577819888,7.93772516352E-19,8.07084380614E-17,8.07087018662E-17,7.96413559442E-19,398.577819888,27469.1479186,3.79651388028E-22,3.79220815043E-23,32.1340820594,105.898381091,11.8213191045,58.4420621396,10.0,20.0,30.0,1005.66179382,9.76525097365E-4,705.445955227,420.839477576,0.312009117089,-1.27026985157,-0.780190330886,0.0,0.0,0.0,0.396333859295,77.5674775185
12.7,2.09296836676E7,1.38693825972E-16,2.23620371337E-17,-401.637647856,-5.01508973942E-19,8.97752566612E-17,8.97756857855E-17,-4.9884745918E-19,401.637647856,27429.1371239,3.79679454257E-22,6.12168998548E-23,32.1342049194,109.212041976,10.2647132306,60.0773395545,10.0,20.0,30.0,1005.83181551,9.77931245593E-4,706.700658165,420.98178762,0.275978704879,-1.32080433649,-0.760191440714,0.0,0.0,0.0,0.39930895172,78.8764138029
12.8,2.0929643351E7,1.38628871036E-16,3.16152679893E-17,-404.694905703,-5.0153026313E-19,9.60665163326E-17,9.60671276444E-17,-4.98849739771E-19,404.694905703,27388.8204747,3.79502368762E-22,8.65481266731E-23,32.1343287194,112.464109061,8.61875591677,61.6113480069,10.0,20.0,30.0,1006.00310849,9.79349714601E-4,707.966784479,421.125186077,0.235980448357,-1.36967221416,-0.740228454551,0.0,0.0,0.0,0.402279975369,80.1979524737
12.9,2.09296027287E7,1.38671235531E-16,4.14513654468E-17,-407.749568728,1.53385733077E-18,1.00877477171E-16,1.00878284725E-16,1.53655891747E-18,407.749568728,27348.1982292,3.79619080151E-22,1.13475077666E-22,32.1344534585,115.657658871,6.89033560086,63.0427409469,10.0,20.0,30.0,1006.17567102,9.80780532438E-4,709.244369973,421.26967204,0.19205657427,-1.41663028304,-0.720478570146,0.0,0.0,0.0,0.405246897207,81.5321438395
13.0,2.09295618012E7,1.38827395757E-16,5.16316314053E-17,-410.801612131,2.18146612533E-18,1.03282953249E-16,1.03283966666E-16,2.18419100407E-18,410.801612131,27307.2706482,3.80047319348E-22,1.41344314659E-22,32.1345791359,118.796598402,5.08622268022,64.3706626221,10.0,20.0,30.0,1006.34950138,9.82223727351E-4,710.533450742,421.415244594,0.144270249565,-1.46143810585,-0.7011241276,0.0,0.0,0.0,0.408209684179,82.8790384703
13.1,2.09295205685E7,1.39272211837E-16,6.21098064155E-17,-413.851011015,5.8821881949E-18,1.07168725107E-16,1.07169953239E-16,5.88494210154E-18,413.851011015,27266.0379949,3.81265777951E-22,1.70029206466E-22,32.1347057509,121.885560076,3.21303863688,65.5945981461,10.0,20.0,30.0,1006.52459778,9.83679327788E-4,711.834063167,421.561902817,0.0927058514308,-1.50385933501,-0.682351815703,0.0,0.0,0.0,0.411168303215,84.2386871935
13.2,2.0929479031E7,1.39965900773E-16,7.31023838062E-17,-416.897740381,8.19513139532E-18,1.14200127227E-16,1.14201583365E-16,8.19791939916E-18,416.897740381,27224.500535,3.83165552192E-22,2.00122423412E-22,32.1348333026,124.929810199,1.27723871249,66.7142319222,10.0,20.0,30.0,1006.70095847,9.85147362399E-4,713.146243919,421.709645776,0.0374691332332,-1.54366305154,-0.664351834521,0.0,0.0,0.0,0.414122721223,85.6111410898
13.3,2.0929437189E7,1.40953796661E-16,8.48906199078E-17,-419.941775128,1.28210391038E-17,1.21786639109E-16,1.21788342409E-16,1.2823867292E-17,419.941775128,27182.6585367,3.85870751424E-22,2.32393933818E-22,32.1349617903,127.935173252,-0.714893406573,67.729316087,10.0,20.0,30.0,1006.87858166,9.86627860032E-4,714.470029953,421.85847253,-0.0213127170405,-1.58062511094,-0.647317017586,0.0,0.0,0.0,0.417072905093,86.9964514891
13.4,2.09293950428E7,1.42485699666E-16,9.74532352646E-17,-422.983090056,1.67993165217E-17,1.28447963267E-16,1.28449932797E-16,1.68021961578E-17,422.983090056,27140.5122707,3.90065227168E-22,2.66785498059E-22,32.135091213,130.907973144,-2.75724040175,68.6395494116,10.0,20.0,30.0,1007.05746553,9.88120849732E-4,715.805458517,422.008382128,-0.0834911287664,-1.61452948884,-0.63144191734,0.0,0.0,0.0,0.420018821698,88.3946699661
13.5,2.09293525925E7,1.44129547972E-16,1.10257322633E-16,-426.021659862,1.80020361291E-17,1.29465651761E-16,1.29467896073E-16,1.80049699183E-17,426.021659862,27098.0620102,3.9456618476E-22,3.01838254162E-22,32.1352215701,133.854991675,-4.84383699902,69.444466197,10.0,20.0,30.0,1007.23760829,9.89626360744E-4,717.152567142,422.159373613,-0.148896313482,-1.6451696196,-0.616921857756,0.0,0.0,0.0,0.422960437892,89.8058483359
13.6,2.09293098385E7,1.46037072033E-16,1.2328622847E-16,-429.057459143,1.98523855634E-17,1.31408524129E-16,1.31411051536E-16,1.98553793694E-17,429.057459143,27055.308031,3.9978900138E-22,3.37506617176E-22,32.1353528606,136.783443848,-6.96884766505,70.1433340959,10.0,20.0,30.0,1007.41900809,9.9114442251E-4,718.51139365,422.311446017,-0.217337544352,-1.67234972045,-0.60395195833,0.0,0.0,0.0,0.42589772051,91.2300386502
13.7,2.09292667811E7,1.48177740686E-16,1.3648351624E-16,-432.090462391,2.26279205403E-17,1.32518727211E-16,1.32521544951E-16,2.26309797105E-17,432.090462391,27012.2506116,4.05650099828E-22,3.73636092245E-22,32.1354850837,139.70096924,-9.12653722827,70.7350594449,10.0,20.0,30.0,1007.60166309,9.92675064667E-4,719.881976148,422.464598362,-0.288603551601,-1.69588609394,-0.592726133862,0.0,0.0,0.0,0.42883063637,92.6672931921
13.8,2.09292234205E7,1.5076989776E-16,1.49803851633E-16,-435.120643996,2.97518286736E-17,1.34369076942E-16,1.34372191379E-16,2.97549631948E-17,435.120643996,26968.8900326,4.12747221705E-22,4.10102576712E-22,32.1356182387,142.615638391,-11.3112350653,71.2180985706,10.0,20.0,30.0,1007.78557144,9.94218317052E-4,721.264353033,422.618829663,-0.362463034605,-1.71560840143,-0.583436074691,0.0,0.0,0.0,0.431759152271,94.1176644723
13.9,2.09291797571E7,1.53804291357E-16,1.63258336674E-16,-438.147978246,3.30824743681E-17,1.34276534323E-16,1.34279952102E-16,3.30856942287E-17,438.147978246,26925.2265777,4.21055046975E-22,4.46936467185E-22,32.1357523245,145.53597295,-13.517293229,71.5903736016,10.0,20.0,30.0,1007.97073127,9.95774209692E-4,722.658562988,422.774138926,-0.438665290768,-1.73136090022,-0.576270212237,0.0,0.0,0.0,0.434683234994,95.581205224
