time,eiPosition_ft_X,eiPosition_ft_Y,eiPosition_ft_Z,gePosition_ft_X,gePosition_ft_Y,gePosition_ft_Z,eiVelocity_ft_s_X,eiVelocity_ft_s_Y,eiVelocity_ft_s_Z,feVelocity_ft_s_X,feVelocity_ft_s_Y,feVelocity_ft_s_Z,altitudeMsl_ft,longitude_deg,latitude_deg,localGravity_ft_s2,eulerAngle_deg_Yaw,eulerAngle_deg_Pitch,eulerAngle_deg_Roll,bodyAngularRateWrtEi_deg_s_Roll,bodyAngularRateWrtEi_deg_s_Pitch,bodyAngularRateWrtEi_deg_s_Yaw,altitudeRateWrtMsl_ft_min,speedOfSound_ft_s,airDensity_slug_ft3,ambientPressure_lbf_ft2,ambientTemperature_dgR,aero_bodyForce_lbf_X,aero_bodyForce_lbf_Y,aero_bodyForce_lbf_Z,aero_bodyMoment_ftlbf_L,aero_bodyMoment_ftlbf_M,aero_bodyMoment_ftlbf_N,mach,dynamicPressure_lbf_ft2,trueAirspeed_nmi_h,feVelocity_ft_s_Z
0.0,2.093225453051181E7,0.0,0.0,2.093225453051181E7,0.0,0.0,0.0,0.0,0.0,0.0,0.0,0.0,30000.0,0.0,0.0,32.12631207052139,0.0,-0.0,0.0,10.0,20.0,30.000000000000004,-0.0,994.8487845641213,8.906867503799385E-4,629.6672472120785,411.8388730822483,0.0,0.0,0.0,0.0,0.0,0.0,0.0,0.0,0.0,0.0
0.009999999776482582,2.0932254528905496E7,1.29246970712085E-31,-6.788050901709638E-29,2.0932254528905496E7,1.29246970712085E-31,-6.788050901709638E-29,-0.3212631179766072,5.49299625528454E-29,3.5316734747232414E-26,-1.967169242039079E-17,5.492996255482906E-29,0.3212631179766072,29999.998393684626,3.537748848996362E-37,-1.8580256954685101E-34,32.126312075452056,0.30017559713348557,0.19973718455490544,0.10052354852854824,10.0,20.0,30.000000000000004,-19.275787078596434,994.8487914630688,8.906868029539356E-4,629.6672931121133,411.83887879418126,3.146168463418253E-9,-1.5833935754671692E-9,-9.024917785449961E-7,0.0,0.0,0.0,3.229265857953578E-4,4.596388680511154E-5,0.19034318625926971,0.3212631179766072
0.019999999552965164,2.0932254524086546E7,-2.248251055463414E-29,4.771927405694956E-28,2.0932254524086546E7,-2.248251055463414E-29,4.771927405694956E-28,-0.6425262180377562,1.3289819763666612E-26,8.906214881299505E-25,-3.9343382923788136E-17,1.32898197629765E-26,0.6425262180377562,29999.993574734777,-6.153914124045255E-35,1.3061722528479737E-33,32.12631209024406,0.6007066296925149,0.39894466864312755,0.20209399715952733,10.0,20.0,30.000000000000004,-38.55157308226537,994.848812159927,8.906869606760626E-4,629.6674308123403,411.8388959299934,2.5135824167021974E-8,-1.2732859845027544E-8,-3.609885078530177E-6,0.0,0.0,0.0,6.458531133830547E-4,1.8385557632427663E-4,0.38068637251853943,0.6425262180377562
0.029999999329447746,2.093225451605497E7,6.409357277718904E-29,1.668906679159845E-26,2.093225451605497E7,6.409357277718904E-29,1.668906679159845E-26,-0.9637892821961745,-3.468665576517773E-26,2.5317478233196296E-24,-5.90150704429557E-17,-3.4686655762226655E-26,0.9637892821961745,29999.985543157905,1.7543696553235027E-34,4.568132354960221E-32,32.1263121148974,0.901599423964053,0.597616335800698,0.30471105903937484,10.0,20.0,30.000000000000004,-57.827356931770474,994.8488466546634,8.906872235461186E-4,629.6676603125957,411.83892448965827,8.471906709179816E-8,-4.319456691909099E-8,-8.121933800486938E-6,0.0,0.0,0.0,9.687796118669212E-4,4.1367512312717736E-4,0.571029543876648,0.9637892821961745
0.03999999910593033,2.093225450481076E7,-1.2395430726186384E-28,5.88942644085503E-26,2.093225450481076E7,-1.2395430726186384E-28,5.88942644085503E-26,-1.2850522925004748,3.148779324030588E-26,1.0626750548651386E-24,-7.868675777470869E-17,3.1487793232696204E-26,1.2850522925004748,29999.974298950285,-3.3928780375474495E-34,1.6120541565945269E-31,32.126312149412065,1.2028602586325075,0.7957460533166659,0.40837445786372356,10.0,20.0,30.000000000000004,-77.10313755002849,994.8488949472919,8.906875915642969E-4,629.667981613067,411.83896447318904,2.0054170672401408E-7,-1.029099062765038E-7,-1.4438227807610974E-5,0.0,0.0,0.0,0.0012917059939354658,7.35422654543072E-4,0.7613726854324341,1.2850522925004748
0.05000000074505806,2.0932254490353923E7,3.210494753921213E-29,7.047392701826451E-26,2.0932254490353923E7,3.210494753921213E-29,7.047392701826451E-26,-1.6063152309992437,-6.11564353649284E-26,5.377249128997644E-24,-9.835843492599412E-17,-6.11564353624647E-26,1.6063152309992437,29999.959842111915,8.787768161014132E-35,1.9290127519328025E-31,32.126312193788074,1.5044953643469796,0.9933276720965282,0.5130839267584102,10.0,20.0,30.000000000000004,-96.37891385995462,994.8489570378113,8.906880647306977E-4,629.6683947138688,411.83901588058586,3.9114261719827756E-7,-2.0201410514339572E-7,-2.255819296922323E-5,0.0,0.0,0.0,0.0016146323177963495,0.001149098272435367,0.9517157673835754,1.6063152309992437
0.05999999865889549,2.0932254472684454E7,-6.853385244937427E-28,1.9010322994985079E-25,2.0932254472684454E7,-6.853385244937427E-28,1.9010322994985079E-25,-1.9275780797410322,7.119246264986891E-26,1.5488704935009856E-23,-1.1803010078436792E-16,7.119246258675848E-26,1.9275780797410322,29999.942172642797,-1.8759090208107363E-33,5.203506751814575E-31,32.126312248025414,1.8065109232712488,1.190355026533989,0.6188392071506743,10.0,20.0,30.000000000000004,-115.65468478446194,994.8490329262183,8.90688643045449E-4,629.6688996151466,411.83907871184863,6.74951103576606E-7,-3.5083481837015947E-7,-3.2481091221611404E-5,0.0,0.0,0.0,0.0019375584088265896,0.0016547023551538587,1.1420587301254272,1.9275780797410322
0.07000000029802322,2.0932254451802358E7,-2.5145127396610943E-27,2.840039070808008E-25,2.0932254451802358E7,-2.5145127396610943E-27,2.840039070808008E-25,-2.248840820774348,1.2413202187895547E-25,2.7347166193001047E-23,-1.3770175830049441E-16,1.241320216088107E-25,2.248840820774348,29999.921290546656,-6.882725787907355E-33,7.773756657899968E-31,32.12631231212407,2.1089130686164483,1.3868219343921466,0.7256400476304533,10.0,20.0,30.000000000000004,-134.93044924646088,994.8491226124946,8.906893265085874E-4,629.6694963169753,411.8391529669644,1.07028427949677E-6,-5.598906999301876E-7,-4.420602064624062E-5,0.0,0.0,0.0,0.002260484267026186,0.0022522348444908857,1.3324017524719238,2.248840820774348
0.07999999821186066,2.0932254427707635E7,-7.202423151360465E-27,4.833601860993353E-25,2.0932254427707635E7,-7.202423151360465E-27,4.833601860993353E-25,-2.570103436147647,-6.170218068996783E-25,1.2312331373300136E-23,-1.5737343501546012E-16,-6.17021807784006E-25,2.570103436147647,29999.89719582349,-1.9714477017536496E-32,1.3230537945063034E-30,32.12631238608406,2.4117078841564035,1.5827221966929932,0.8334862028016664,10.0,20.0,30.000000000000004,-154.2062061688588,994.8492260966361,8.906901151202985E-4,629.6701848195655,411.839238645933,1.5953444564221304E-6,-8.398899541658455E-7,-5.773191556534532E-5,0.0,0.0,0.0,0.0025834098923951387,0.0029416964389383793,1.5227446556091309,2.570103436147647
0.09000000357627869,2.093225440040029E7,-1.2525608272423423E-26,4.963692166496909E-25,2.093225440040029E7,-1.2525608272423423E-26,4.963692166496909E-25,-2.8913659079093224,-1.040538280375763E-24,-9.49876702642072E-24,-1.7704510971301364E-16,-1.0405382821059216E-24,2.8913659079093224,29999.869888477027,-3.428510260367792E-32,1.358662122590017E-30,32.12631246990535,2.7149014037256203,1.7780495976162374,0.9423774321233919,10.0,20.0,30.000000000000004,-173.48195447455933,994.8493433786226,8.906910088806729E-4,629.6709651230545,411.83933574874135,2.268216544723961E-6,-1.201728866908218E-6,-7.305754665486421E-5,0.0,0.0,0.0,0.0029063355177640915,0.0037230870220810175,1.7130874395370483,2.8913659079093224
0.10000000149011612,2.093225436988032E7,-2.0813408706920886E-26,5.089547306496488E-25,2.093225436988032E7,-2.0813408706920886E-26,5.089547306496488E-25,-3.212628218107698,-6.170218065051234E-25,2.3596942275807537E-24,-1.9671674084810864E-16,-6.170218096995115E-25,3.212628218107698,29999.839368507266,-5.69704750914617E-32,1.3931112012188492E-30,32.12631256358796,3.0184996106999047,1.972797904407265,1.0523134987408622,10.0,20.0,30.000000000000004,-192.7576930864619,994.8494744584494,8.906920077899554E-4,629.6718372277209,411.8394442753896,3.1068654668276415E-6,-1.6564903165996603E-6,-9.018152107475342E-5,0.0,0.0,0.0,0.003229260677471757,0.004596407059580088,1.9034302234649658,3.212628218107698
0.10999999940395355,2.0932254336147726E7,-1.8936813771254252E-26,4.96976289104486E-25,2.0932254336147726E7,-1.8936813771254252E-26,4.96976289104486E-25,-3.533890348791019,2.7711099828730167E-24,4.0899693320654833E-23,-2.1638833430953895E-16,2.7711099796760067E-24,3.533890348791019,29999.805635914207,-5.183385836490667E-32,1.3603238058591651E-30,32.12631266713188,3.322508437459599,2.1669608672941516,1.1632941683061768,10.0,20.0,30.000000000000004,-212.03342092746115,994.8496193361113,8.906931118484176E-4,629.6728011338738,411.83956422587784,4.129133582650857E-6,-2.215442265548625E-6,-1.0910228261662364E-4,0.0,0.0,0.0,0.003552185371518135,0.005561657249927521,2.0937728881835938,3.533890348791019
0.11999999731779099,2.093225429920251E7,-3.10362624620886E-26,9.974527805636555E-25,2.093225429920251E7,-3.10362624620886E-26,9.974527805636555E-25,-3.8551522820074426,8.652858518660778E-25,4.598189099247596E-23,-2.3605994913741047E-16,8.652858461500419E-25,3.8551522820074426,29999.76869069785,-8.495247695350857E-32,2.7302283725868655E-30,32.12631278053711,3.626933764835434,2.360532219414434,1.2753192077886815,10.0,20.0,30.000000000000004,-231.30913692044655,994.8497780116022,8.906943210563586E-4,629.6738568418549,411.8396956002061,5.352738127563509E-6,-2.8900362314486565E-6,-1.2981811186871375E-4,0.0,0.0,0.0,0.003875110065564513,0.006618838291615248,2.2841153144836426,3.8551522820074426
0.12999999523162842,2.0932254259044677E7,-2.1536370993944524E-26,1.177750817809802E-24,2.0932254259044677E7,-2.1536370993944524E-26,1.177750817809802E-24,-4.17641399980503,4.253417641303614E-24,2.988826497724221E-23,-2.5573157195050624E-16,4.2534176370066664E-24,4.17641399980503,29999.728532865644,-5.894936821951745E-32,3.223740278686187E-30,32.12631290380364,3.931781421537015,2.553505676751294,1.3883883842749205,10.0,20.0,30.000000000000004,-250.5848399883018,994.8499504848837,8.906956354138647E-4,629.6750043518274,411.8398383983481,6.795268663094484E-6,-3.6919057392936214E-6,-1.5232712639814014E-4,0.0,0.0,0.0,0.004198034293949604,0.007767949718981981,2.4744577407836914,4.17641399980503
0.14000000059604645,2.093225421567423E7,1.0833410052986205E-26,2.0322870808773618E-24,2.093225421567423E7,1.0833410052986205E-26,2.0322870808773618E-24,-4.4976754842317375,3.829901167784597E-24,1.5440210820052231E-22,-2.7540303986628777E-16,3.829901170112352E-24,4.4976754842317375,29999.68516241759,2.965321686691134E-32,5.5627774865280765E-30,32.12631303693144,4.23705718356392,2.745874938079171,1.5025014637581073,10.0,20.0,30.000000000000004,-269.86052905390426,994.8501367559488,8.906970549212917E-4,629.6762436641974,411.83999262030386,8.474184540617454E-6,-4.6328647538270824E-6,-1.7662728095055468E-4,0.0,0.0,0.0,0.004520957823842764,0.00900899339467287,2.664799928665161,4.4976754842317375
0.15000000596046448,2.093225416909117E7,6.776714656822857E-26,3.315422014937998E-24,2.093225416909117E7,6.776714656822857E-26,3.315422014937998E-24,-4.818936717335406,8.065065903464629E-24,1.5101397636979664E-22,-2.9507462029494655E-16,8.0650659190657E-24,4.818936717335406,29999.638579357415,1.854922769730795E-31,9.074975261919166E-30,32.12631317992054,4.542766773599462,2.9376336849197253,1.6176582099170835,10.0,20.0,30.000000000000004,-289.13620304012437,994.8503368247739,8.906985795789043E-4,629.677574779299,411.8401582660603,1.0406812378234004E-5,-5.724906092657389E-6,-2.0271636766697578E-4,0.0,0.0,0.0,0.0048438808880746365,0.010341968387365341,2.8551418781280518,4.818936717335406
0.1599999964237213,2.0932254119295493E7,8.573736749950496E-26,3.920930590691228E-24,2.0932254119295493E7,8.573736749950496E-26,3.920930590691228E-24,-5.140197681163758,1.28880232408065E-24,5.2758154431726904E-23,-3.1474627910293777E-16,1.2888023451346184E-24,5.140197681163758,29999.588783681393,2.346803777695147E-31,1.0732373748666551E-29,32.12631333277091,4.848915860387129,3.12877558150735,1.7338583828846739,10.0,20.0,30.000000000000004,-308.4118608698255,994.850550691367,8.90700209387239E-4,629.6789976977117,411.8403353356309,1.2610343551087541E-5,-6.980199820181833E-6,-2.3059201631801796E-4,0.0,0.0,0.0,0.005166803952306509,0.01176687702536583,3.0454838275909424,5.140197681163758
0.17000000178813934,2.0932254066287216E7,1.3589484041228761E-25,4.418018948591627E-24,2.0932254066287216E7,1.3589484041228761E-25,4.418018948591627E-24,-5.46145835776438,2.0770560109387382E-23,9.680386762429802E-23,-3.344177780217678E-16,2.077056014484386E-23,5.46145835776438,29999.535775404423,3.7197144600724744E-31,1.2093004354022939E-29,32.126313495482535,5.155510058089711,3.319294274764818,1.8511017380054342,10.0,20.0,30.000000000000004,-327.6875014658628,994.8507783556552,8.907019443462515E-4,629.6805124195148,411.84052382896283,1.5101831695310696E-5,-8.411091622447655E-6,-2.6025169455508795E-4,0.0,0.0,0.0,0.005489726085215807,0.01328371837735176,3.235825538635254,5.46145835776438
0.18000000715255737,2.0932254010066327E7,2.690615421326701E-25,4.430604459976969E-24,2.0932254010066327E7,2.690615421326701E-25,4.430604459976969E-24,-5.782718729184721,1.2300230633445591E-23,2.0570902300335742E-23,-3.540893785323736E-16,1.2300230707776201E-23,5.782718729184721,29999.479554515332,7.36475430981765E-31,1.2127453456586218E-29,32.12631366805543,5.462554925631195,3.5091833942894985,1.9693880245827564,10.0,20.0,30.000000000000004,-346.96312375108323,994.8510198176772,8.907037844567781E-4,629.6821189455649,411.84072374609593,1.789819022587757E-5,-1.003010116311648E-5,-2.916927081793984E-4,0.0,0.0,0.0,0.005812647752463818,0.014892494305968285,3.4261672496795654,5.782718729184721
0.1899999976158142,2.093225395063284E7,5.208128564244061E-25,5.761173236576735E-24,2.093225395063284E7,5.208128564244061E-25,5.761173236576735E-24,-6.1039787774720775,1.0606164733099199E-23,1.1205046052817934E-22,-3.7376079154426715E-16,1.060616488497155E-23,6.1039787774720775,29999.42012102902,1.4255692989224993E-30,1.5769487236208118E-29,32.126313850489574,5.770055966021454,3.698436552349645,2.0887169846152878,10.0,20.0,30.000000000000004,-366.23872664832464,994.8512750773594,8.907057297188327E-4,629.6838172760075,411.8409350869775,2.1016189868499978E-5,-1.1849920420630642E-5,-3.249122014273473E-4,0.0,0.0,0.0,0.006135568954050541,0.0165932048112154,3.6165084838867188,6.1039787774720775
0.20000000298023224,2.0932253887986757E7,6.709202169678252E-25,6.69194246120359E-24,2.0932253887986757E7,6.709202169678252E-25,6.69194246120359E-24,-6.425238484673595,-4.640428326945833E-24,3.073529749525644E-23,-3.934323564653979E-16,-4.640428121004207E-24,6.425238484673595,29999.357474945486,1.8364432720892757E-30,1.8317189435171298E-29,32.12631404278494,6.078018625663774,3.887047343891289,2.209088351522667,10.0,20.0,30.000000000000004,-385.51430908041567,994.8515441346914,8.907077801329428E-4,629.6856074114447,411.8411578516076,2.447245620588645E-5,-1.3883412006778457E-5,-3.5990715727394156E-4,0.0,0.0,0.0,0.006458489689975977,0.01838585175573826,3.806849718093872,6.425238484673595
0.20999999344348907,2.0932253822128076E7,8.244157091968532E-25,7.107715652885976E-24,2.0932253822128076E7,8.244157091968532E-25,7.107715652885976E-24,-6.746497832836246,1.2300230606899144E-23,1.256029874832764E-22,-4.131037232188857E-16,1.2300230872609604E-23,6.746497832836246,29999.29161626473,2.256591244433042E-30,1.9455244158129392E-29,32.12631424494154,6.3864482936453335,4.075009346556053,2.330501848860582,10.0,20.0,30.000000000000004,-404.7898699701748,994.8518269896622,8.907099356996672E-4,629.6874893525132,411.84139203998654,2.8283467238505797E-5,-1.6143607466760858E-5,-3.9667439775287926E-4,0.0,0.0,0.0,0.006781409494578838,0.020270435139536858,3.9971907138824463,6.746497832836246
0.2199999988079071,2.0932253753056798E7,1.0931076821259576E-24,8.146905092645651E-24,2.0932253753056798E7,1.0931076821259576E-24,8.146905092645651E-24,-7.067756804006832,2.2464625959698705E-23,5.106408800676469E-23,-4.327752362948567E-16,2.2464626328785537E-23,7.067756804006832,29999.222544986755,2.9920551068228497E-30,2.229971427869142E-29,32.12631445695938,6.695350301010646,4.262316120709541,2.452957189025131,10.0,20.0,30.000000000000004,-424.0654082404099,994.85212364226,8.907121964195907E-4,629.6894630998803,411.84163765211446,3.246555096010727E-5,-1.8643705560925434E-5,-4.352105842938978E-4,0.0,0.0,0.0,0.0071043288335204124,0.022246956825256348,4.187531471252441,7.067756804006832
0.23000000417232513,2.093225368077294E7,1.3380827323659525E-24,8.955701569503181E-24,2.093225368077294E7,1.3380827323659525E-24,8.955701569503181E-24,-7.389015380231968,3.432308720229545E-23,1.323792508117678E-22,-4.524465693333313E-16,3.432308767463417E-23,7.389015380231968,29999.150261130184,3.6626009971550934E-30,2.4513552641612743E-29,32.1263146788384,7.004729920018092,4.448961209480821,2.5764540719464972,10.0,20.0,30.000000000000004,-443.3409228139181,994.8524340923932,8.907145622927191E-4,629.6915286537152,411.8418946879254,3.7034882948183756E-5,-2.1397070528297953E-5,-4.7551221807691404E-4,0.0,0.0,0.0,0.007427247706800699,0.02431541495025158,4.377871990203857,7.389015380231968
0.23999999463558197,2.0932253605276495E7,1.6203272320778362E-24,1.0116863751028527E-23,2.0932253605276495E7,1.6203272320778362E-24,1.0116863751028527E-23,-7.71027354355808,2.4158691812749367E-23,1.7303683213378004E-22,-4.72117917746614E-16,2.4158692409587454E-23,7.71027354355808,29999.074764683843,4.4351608564866885E-30,2.769188668231639E-29,32.12631491057862,7.314592363379664,4.634938138813113,2.700992183772016,10.0,20.0,30.000000000000004,-462.61641261348484,994.852758340097,8.907170333200616E-4,629.6936860150709,411.8421631474594,4.2007483969701635E-5,-2.4417230332123027E-5,-5.175756404043504E-4,0.0,0.0,0.0,0.007750165648758411,0.026475815102458,4.568212032318115,7.71027354355808
0.25,2.093225352656747E7,1.7331651420953553E-24,1.2199597777610094E-23,2.093225352656747E7,1.7331651420953553E-24,1.2199597777610094E-23,-8.031531276031389,2.4158691787098276E-23,4.305348479317023E-22,-4.91789022937337E-16,2.41586924520993E-23,8.031531276031389,29998.996055658907,4.744020882186375E-30,3.3392747872419765E-29,32.12631515218003,7.624942783483927,4.820240417525792,2.826571195538597,10.0,20.0,30.000000000000004,-481.89187656188335,994.8530963853101,8.907196095019232E-4,629.6959351843931,411.84244303067686,4.73992176021079E-5,-2.771787488744717E-5,-5.613970330888943E-4,0.0,0.0,0.0,0.008073082193732262,0.02872815541923046,4.758552074432373,8.031531276031389
0.25999999046325684,2.093225344464587E7,2.2932364479915684E-24,1.7805988862850428E-23,2.093225344464587E7,2.2932364479915684E-24,1.7805988862850428E-23,-8.352788559697906,9.869759111555619E-23,7.015853908248992E-22,-5.114600870940427E-16,9.869759203064731E-23,8.352788559697906,29998.9141340591,6.2770484908827196E-30,4.873856580210814E-29,32.1263154036426,7.935786271602441,5.004861537387728,2.953190761834587,10.0,20.0,30.000000000000004,-501.1673135818744,994.8534482280027,8.907222908388824E-4,629.6982761623742,411.84273433756476,5.3225787870047665E-5,-3.1312854271024445E-5,-6.069724188596202E-4,0.0,0.0,0.0,0.008395998738706112,0.031072435900568962,4.948892116546631,8.352788559697906
0.27000001072883606,2.09322533595117E7,3.28021235894708E-24,2.3249749619492896E-23,2.09322533595117E7,3.28021235894708E-24,2.3249749619492896E-23,-8.674045376603425,9.530945928371702E-23,4.847449560125958E-22,-5.31131610560858E-16,9.530946064299308E-23,8.674045376603425,29998.828999888152,8.978599716256434E-30,6.363923200497272E-29,32.12631566496633,8.247127857079644,5.188794973202343,3.080850519451132,10.0,20.0,30.000000000000004,-520.4427225962055,994.8538138681447,8.90725077331547E-4,629.7007089497397,411.8430370681103,5.9502736897862555E-5,-3.5216176913614715E-5,-6.542976617844998E-4,0.0,0.0,0.0,0.008718914352357388,0.03350865840911865,5.139231204986572,8.674045376603425
0.2800000011920929,2.093225327116496E7,4.2739645329743995E-24,2.9696397382101326E-23,2.093225327116496E7,4.2739645329743995E-24,2.9696397382101326E-23,-8.995301708793516,4.7875614178819943E-23,5.525075913878647E-22,-5.508028197443434E-16,4.787561601548798E-23,8.995301708793516,29998.740653149784,1.1698698957812033E-29,8.128500141366095E-29,32.126315936151194,8.558972506506464,5.372034182904396,3.2095500860230897,10.0,20.0,30.000000000000004,-539.718102527611,994.854193305705,8.907279689805524E-4,629.7032335472466,411.8433512223003,6.62454425781307E-5,-3.944200777486054E-5,-7.03368467709991E-4,0.0,0.0,0.0,0.009041829034686089,0.03603682667016983,5.329570770263672,8.995301708793516
0.28999999165534973,2.0932253179605667E7,4.847588364514679E-24,3.673935633500936E-23,2.0932253179605667E7,4.847588364514679E-24,3.673935633500936E-23,-9.316557538313504,8.175693199937908E-23,7.829005525301329E-22,-5.704738355178363E-16,8.175693415695073E-23,9.316557538313504,29998.649093855172,1.326882260214706E-29,1.0056299443550472E-28,32.12631621719718,8.871325122877677,5.554572607668666,3.3392890586595736,10.0,20.0,30.000000000000004,-558.9934522988102,994.8545865406205,8.907309657863188E-4,629.7058499554721,411.8436768000955,7.34691162564345E-5,-4.400466650088308E-5,-7.541803847173519E-4,0.0,0.0,0.0,0.009364742785692215,0.038656942546367645,5.519909381866455,9.316557538313504
0.30000001192092896,2.0932253084833812E7,5.4483172496207505E-24,4.448704669438083E-23,2.0932253084833812E7,5.4483172496207505E-24,4.448704669438083E-23,-9.637812847208473,7.498066834144073E-23,1.0132935135638082E-21,-5.901448194122412E-16,7.498067085000307E-23,9.637812847208473,29998.554322000593,1.4913138236311937E-29,1.2176997900126806E-28,32.12631650810429,9.184190544733248,5.736403672030895,3.470067012564252,10.0,20.0,30.000000000000004,-578.2687708325084,994.854993572891,8.907340677497831E-4,629.7085581754517,411.8440138015094,8.118880043265806E-5,-4.891862556481159E-5,-8.067288035966408E-4,0.0,0.0,0.0,0.009687655605375767,0.0413690023124218,5.710247993469238,9.637812847208473
0.3100000023841858,2.093225298684941E7,5.696680427833129E-24,5.353577965388384E-23,2.093225298684941E7,5.696680427833129E-24,5.353577965388384E-23,-9.959067617523257,4.417688969545311E-25,9.45530877027505E-22,-6.098160684837187E-16,4.417716072994525E-25,9.959067617523257,29998.45633759722,1.55929581949289E-29,1.4653817862018727E-28,32.126316808872474,9.49757354528386,5.917520784020828,3.601883499645465,10.0,20.0,30.000000000000004,-597.5440570513954,994.8554144024517,8.907372748714219E-4,629.711358207827,411.8443622265024,8.941936647881324E-5,-5.4198508390282114E-5,-8.610089583361883E-4,0.0,0.0,0.0,0.010010567493736744,0.04417300969362259,5.900586128234863,9.959067617523257
0.3199999928474426,2.093225288565246E7,5.687545589211005E-24,6.120215483524773E-23,2.093225288565246E7,5.687545589211005E-24,6.120215483524773E-23,-10.280321831302418,4.417688101757589E-25,6.744803330233974E-22,-6.294874867651251E-16,4.417716034631994E-25,10.280321831302418,29998.355140648782,1.5567954382655078E-29,1.6752258766993095E-28,32.12631711950175,9.811478831520677,6.097917335307598,3.73473804711628,10.0,20.0,30.000000000000004,-616.8193098781451,994.85584902927,8.907405871519864E-4,629.7142500534867,411.84472207506184,9.817551237386644E-5,-5.985908745822452E-5,-9.170159266302796E-4,0.0,0.0,0.0,0.010333478450775146,0.047068968415260315,6.090924263000488,10.280321831302418
0.33000001311302185,2.0932252781242974E7,5.000784391923386E-24,6.575144876135572E-23,2.0932252781242974E7,5.000784391923386E-24,6.575144876135572E-23,-10.601575470590257,-1.2153097567860685E-22,4.44087370389137E-22,-6.491588292115023E-16,-1.2153097314585543E-22,10.601575470590257,29998.250731162727,1.368815114677264E-29,1.799749195782769E-28,32.12631743999208,10.125911043309713,6.277586701357814,3.868630156084663,10.0,20.0,30.000000000000004,-636.0945282354154,994.8562974532957,8.907440045921322E-4,629.7172337132439,411.8450933471613,1.0747176045555027E-4,-6.591528239696637E-5,-9.747446304026917E-4,0.0,0.0,0.0,0.010656388476490974,0.05005687475204468,6.281261920928955,10.601575470590257
0.3400000035762787,2.093225267362095E7,3.920999906335817E-24,6.796970800649697E-23,2.093225267362095E7,3.920999906335817E-24,6.796970800649697E-23,-10.922828517430785,-8.764965785779393E-23,5.106408182466775E-23,-6.688302980112702E-16,-8.764965581174517E-23,10.922828517430785,29998.143109139055,1.0732564220732356E-29,1.860467415633948E-28,32.126317770343455,10.440874752470908,6.456522241606311,4.00355930013385,10.0,20.0,30.000000000000004,-655.3697110458471,994.856759674511,8.907475271927888E-4,629.7203091881586,411.84547604280135,1.1732245518952354E-4,-7.238215805591601E-5,-0.001034189836347674,0.0,0.0,0.0,0.010979297570884228,0.053136736154556274,6.471599102020264,10.922828517430785
0.3499999940395355,2.0932252562786404E7,3.302001343441735E-24,6.858876903676624E-23,2.0932252562786404E7,3.302001343441735E-24,6.858876903676624E-23,-11.244080953867732,-1.079784486467224E-22,-4.097218425308529E-22,-6.885017971972343E-16,-1.0797844687300167E-22,11.244080953867732,29998.032274592668,9.038240884886165E-30,1.8774123692692362E-28,32.12631811055585,10.756374461842094,6.634717299639758,4.139524923893103,10.0,20.0,30.000000000000004,-674.6448572320639,994.8572356928327,8.907511549544259E-4,629.7234764788967,411.8458701619292,1.2774176095587707E-4,-7.927492256286219E-5,-0.0010953461564864196,0.0,0.0,0.0,0.011302205733954906,0.056308548897504807,6.661935806274414,11.244080953867732
0.36000001430511475,2.0932252448739335E7,1.6936682976647377E-24,6.394944952004831E-23,2.0932252448739335E7,1.6936682976647377E-24,6.394944952004831E-23,-11.565332761944525,-1.3508350299890182E-22,-4.0972184355201213E-22,-7.081727971213126E-16,-1.3508350206312878E-22,11.565332761944525,29997.918227523565,4.635910329714212E-30,1.7504248855475399E-28,32.12631846062926,11.072414604328284,6.8121652033934055,4.276526441599045,10.0,20.0,30.000000000000004,-693.9199657166715,994.8577255082416,8.907548878780304E-4,629.7267355865832,411.8462757045453,1.3874365985353505E-4,-8.660892536527115E-5,-0.0011582080487421021,0.0,0.0,0.0,0.011625112034380436,0.05957231670618057,6.8522725105285645,11.565332761944525
0.3700000047683716,2.093225233147975E7,7.4940908225312295E-25,6.142432422980923E-23,2.093225233147975E7,7.4940908225312295E-25,6.142432422980923E-23,-11.88658392370429,-2.502799838445465E-22,-3.8261679019756813E-22,-7.278437303648324E-16,-2.5027998341898723E-22,11.88658392370429,29997.800967939198,2.051283199816124E-30,1.6813071436744133E-28,32.12631882056365,11.388999541936272,6.988859265360885,4.4145632356477105,10.0,20.0,30.000000000000004,-713.1950354222574,994.8582291206859,8.907587259643721E-4,629.7300865121617,411.84669267062344,1.5034194952231637E-4,-9.439965525548148E-5,-0.0012227698175295855,0.0,0.0,0.0,0.011948018334805965,0.06292804330587387,7.042608261108398,11.88658392370429
0.3799999952316284,2.0932252211007662E7,-1.4552351587620326E-24,5.759815632318642E-23,2.0932252211007662E7,-1.4552351587620326E-24,5.759815632318642E-23,-12.207834421189833,-2.6383251099549013E-22,-5.181420626782764E-22,-7.475147855636132E-16,-2.6383251184419334E-22,12.207834421189833,29997.680495850742,-3.983270980858346E-30,1.5765772511177246E-28,32.12631919035899,11.706133564795017,7.164792782817456,4.553634655137543,10.0,20.0,30.000000000000004,-732.47006527139,994.8587465300969,8.907626692141298E-4,629.7335292565034,411.8471210601243,1.6255024098317612E-4,-1.0266273838016201E-4,-0.0012890256143626207,0.0,0.0,0.0,0.012270922772586346,0.0663757249712944,7.232944011688232,12.207834421189833
0.38999998569488525,2.093225208732307E7,-3.497249073690335E-24,5.528987144914422E-23,2.093225208732307E7,-3.497249073690335E-24,5.528987144914422E-23,-12.529084236443639,-2.773850381140118E-22,-4.368269006062392E-22,-7.671855821473138E-16,-2.7738504020730438E-22,12.529084236443639,29997.556811258197,-9.572673355574814E-30,1.5133948657991524E-28,32.1263195700153,12.023820890162009,7.339959038056754,4.693740014403583,10.0,20.0,30.000000000000004,-751.7450541866183,994.8592777364539,8.907667176283748E-4,629.7370638208306,411.84756087304845,1.7538195649679925E-4,-1.1141393623419072E-4,-0.0013569694384781463,0.0,0.0,0.0,0.012593825347721577,0.06991536915302277,7.423279285430908,12.529084236443639
0.4000000059604645,2.093225196042598E7,-5.972943857072346E-24,5.0487921569939205E-23,2.093225196042598E7,-5.972943857072346E-24,5.0487921569939205E-23,-12.850333351507858,-3.1804261951104266E-22,-8.434027161054374E-22,-7.86856823747745E-16,-3.180426231778397E-22,12.850333351507858,29997.429914169014,-1.634914747471214E-29,1.3819558582678943E-28,32.12631995953253,12.342065661415884,7.51435129864121,4.834878591542984,10.0,20.0,30.000000000000004,-771.0200010904715,994.859822739703,8.907708712079641E-4,629.7406902061853,411.84801210936956,1.8885032744047869E-4,-1.2066914363895603E-4,-0.0014265951374755302,0.0,0.0,0.0,0.012916727922856808,0.07354697585105896,7.613614559173584,12.850333351507858
0.4099999964237213,2.0932251830316406E7,-9.668366083575933E-24,4.454755940188729E-23,2.0932251830316406E7,-9.668366083575933E-24,4.454755940188729E-23,-13.171581748424297,-4.535678909543635E-22,-8.434027168327314E-22,-8.065276147984925E-16,-4.535678970381655E-22,13.171581748424297,29997.299804594368,-2.646426079080649E-29,1.219356217394548E-28,32.12632035891067,12.660871947035655,7.687962817666061,4.977049626932213,10.0,20.0,30.000000000000004,-790.2949049054578,994.8603815397739,8.907751299536613E-4,629.7444084135359,411.84847476904844,2.0296839220376137E-4,-1.3044438670544256E-4,-0.0014978964079731686,0.0,0.0,0.0,0.01323962863534689,0.07727053761482239,7.803948879241943,13.171581748424297
0.41999998688697815,2.093225169699435E7,-1.3390893362909027E-23,3.752299505453179E-23,2.093225169699435E7,-1.3390893362909027E-23,3.752299505453179E-23,-13.492829409234417,-3.5870020068301424E-22,-6.807723915908701E-22,-8.261981981454017E-16,-3.587002093147201E-22,13.492829409234417,29997.166482537985,-3.665356621498111E-29,1.0270797821639208E-28,32.12632076814969,12.980243739566898,7.860786834037934,5.120252321736168,10.0,20.0,30.000000000000004,-809.569764554065,994.8609541366283,8.907794938665014E-4,629.7482184440956,411.84894885207217,2.177489941030354E-4,-1.4075582078225038E-4,-0.0015708667962819256,0.0,0.0,0.0,0.013562527485191822,0.08108607679605484,7.9942827224731445,13.492829409234417
0.4300000071525574,2.0932251560459822E7,-1.7032105477250008E-23,3.4293138305044064E-23,2.0932251560459822E7,-1.7032105477250008E-23,3.4293138305044064E-23,-13.814076315979321,-3.858052547626462E-22,-1.9288141452117189E-22,-8.458684100584813E-16,-3.858052660028515E-22,13.814076315979321,29997.02994801104,-4.6620295826725727E-29,9.386721182201768E-29,32.126321187249566,13.300184954575116,8.032816572766736,5.264485836409401,10.0,20.0,30.000000000000004,-828.8445789587593,994.8615405301944,8.907839629473055E-4,629.7521202988983,411.8494343584015,2.332047793149617E-4,-1.5161972838855571E-4,-0.0016454996990934894,0.0,0.0,0.0,0.013885426335036755,0.08499357849359512,8.184616088867188,13.814076315979321
0.4399999976158142,2.0932251420712825E7,-2.2570671390803277E-23,2.8894877205359035E-23,2.0932251420712825E7,-2.2570671390803277E-23,2.8894877205359035E-23,-14.13532245069974,-6.568557975831522E-22,-8.976128271264727E-22,-8.65539767321085E-16,-6.568558128248819E-22,14.13532245069974,29996.890201013535,-6.178046429301206E-29,7.909108677041972E-29,32.1263216162103,13.620699429586809,8.204045245272495,5.4097492891899135,10.0,20.0,30.000000000000004,-848.1193470419844,994.8621407204487,8.907885371972889E-4,629.7561139793298,411.8499312880369,2.493481948294132E-4,-1.6305251713247712E-4,-0.0017217883641868505,0.0,0.0,0.0,0.014208322390913963,0.08899304270744324,8.37494945526123,14.13532245069974
0.44999998807907104,2.093225127775337E7,-2.8515813115568607E-23,1.363037633173736E-23,2.093225127775337E7,-2.8515813115568607E-23,1.363037633173736E-23,-14.456567795436028,-4.806729441591893E-22,-1.8733947827102274E-21,-8.852113472616547E-16,-4.806729638532385E-22,14.456567795436028,29996.74724156037,-7.805351269800146E-29,3.7309079975241886E-29,32.126322055031835,13.941790923018475,8.374466049706218,5.556041754585651,10.0,20.0,30.000000000000004,-867.3940677261617,994.8627547073027,8.907932166172062E-4,629.7601994863815,411.8504396409258,2.6619148642146147E-4,-1.750707176146157E-4,-0.0017997258911483392,0.0,0.0,0.0,0.014531218446791172,0.09308448433876038,8.565281867980957,14.456567795436028
0.46000000834465027,2.093225113158147E7,-3.353938298934273E-23,-7.16355562362705E-24,2.093225113158147E7,-3.353938298934273E-23,-7.16355562362705E-24,-14.777812332228159,-3.587001992776587E-22,-2.036025108635341E-21,-9.048820645782835E-16,-3.587002229558911E-22,14.777812332228159,29996.601069658995,-9.180403391314652E-29,-1.960809188466997E-29,32.12632250371417,14.263463113094044,8.544072171285652,5.703362261854216,10.0,20.0,30.000000000000004,-886.6687399336895,994.8633824906993,8.907980012080874E-4,629.7643768212921,411.85095941704225,2.8374669664339654E-4,-1.8769098131745794E-4,-0.001879305232110714,0.0,0.0,0.0,0.014854112640023232,0.09726789593696594,8.755614280700684,14.777812332228159
0.4699999988079071,2.093225098219713E7,-3.9538734813198097E-23,-3.2077455833292005E-23,2.093225098219713E7,-3.9538734813198097E-23,-3.2077455833292005E-23,-15.099056043115706,-6.161982146857091E-22,-2.6323363032087256E-21,-9.245531650037106E-16,-6.16198243206176E-22,15.099056043115706,29996.45168531686,-1.0822546672166096E-28,-8.780244601156708E-29,32.12632296225726,14.585719596751058,8.712856782645305,5.851709793475939,10.0,20.0,30.000000000000004,-905.9433625869424,994.8640240705812,8.908028909709873E-4,629.7686459853309,411.85149061636014,3.0202566283628384E-4,-2.0093007848038825E-4,-0.0019605191925065484,0.0,0.0,0.0,0.015177004970610142,0.10154328495264053,8.945945739746094,15.099056043115706
0.47999998927116394,2.0932250829600353E7,-4.721859999831922E-23,-6.393024994190208E-23,2.0932250829600353E7,-4.721859999831922E-23,-6.393024994190208E-23,-15.420298910137847,-6.297507411767197E-22,-3.987589018099821E-21,-9.442249726988047E-16,-6.2975077596155635E-22,15.420298910137847,29996.29908854142,-1.2924680276592027E-28,-1.7498994898855796E-28,32.126323430661095,14.90856388853613,8.88081304420173,6.001083283620889,10.0,20.0,30.000000000000004,-925.2179346082708,994.8646794468901,8.908078859069936E-4,629.773006979802,411.85203323885355,3.210400151615747E-4,-2.1480489596069913E-4,-0.002043360431838099,0.0,0.0,0.0,0.015499895438551903,0.10591065138578415,9.136277198791504,15.420298910137847
0.49000000953674316,2.0932250673791148E7,-5.2648745668332355E-23,-1.0077037403407072E-22,2.0932250673791148E7,-5.2648745668332355E-23,-1.0077037403407072E-22,-15.741540915333344,-5.213305231601349E-22,-4.041799125449054E-21,-9.638954265796293E-16,-5.2133056275322005E-22,15.741540915333344,29996.143279336393,-1.4411020441438157E-28,-2.7582877838053544E-28,32.12632390892567,15.231999419489995,9.047934104533521,6.1514816166100506,10.0,20.0,30.000000000000004,-944.4924549200007,994.8653486195834,8.908129860173394E-4,629.7774598061455,411.8525872845096,3.4080117465292396E-4,-2.2933243508076577E-4,-0.002127821464463391,0.0,0.0,0.0,0.01582278497517109,0.11036999523639679,9.326607704162598,15.741540915333344
0.5,2.093225051476953E7,-5.921730361135855E-23,-1.514882859183462E-22,2.093225051476953E7,-5.921730361135855E-23,-1.514882859183462E-22,-16.062782040740537,-8.194861197399442E-22,-5.3970518391499175E-21,-9.835671276315635E-16,-8.194861651815292E-22,16.062782040740537,29995.98425772041,-1.6208966965504567E-28,-4.1465390559262095E-28,32.126324397050915,15.556029536022741,9.214213100776618,6.302903625371108,10.0,20.0,30.000000000000004,-963.7669224444322,994.866031588554,8.908181913028044E-4,629.7820044654126,411.85315275326275,3.613203512880805E-4,-2.445298094613566E-4,-0.0022138946603965193,0.0,0.0,0.0,0.016145672649145126,0.11492132395505905,9.516938209533691,16.062782040740537
0.5099999904632568,2.0932250352535505E7,-6.665322328326714E-23,-1.9776096887223295E-22,2.0932250352535505E7,-6.665322328326714E-23,-1.9776096887223295E-22,-16.38402226839734,-5.755406299609627E-22,-4.09600922944628E-21,-1.0032361174168176E-15,-5.755406821315548E-22,16.38402226839734,29995.822023693472,-1.8244327870900574E-28,-5.413115493062359E-28,32.12632489503684,15.88065749877965,9.379643159034801,6.455348089889366,10.0,20.0,30.000000000000004,-983.0413361038405,994.866728353774,8.908235017648019E-4,629.7866409592153,411.8537296451134,3.8260854208194573E-4,-2.6041424284187984E-4,-0.002301572246127778,0.0,0.0,0.0,0.016468560323119164,0.11956463009119034,9.707267761230469,16.38402226839734
0.5199999809265137,2.0932250187089086E7,-7.360125196732398E-23,-2.412147261471937E-22,2.0932250187089086E7,-7.360125196732398E-23,-2.412147261471937E-22,-16.705261580341237,-7.923810633807688E-22,-4.63811031232105E-21,-1.0229068942745198E-15,-7.923811221192301E-22,16.705261580341237,29995.656577274203,-2.014614323312294E-28,-6.602532284447191E-28,32.126325402883374,16.205886481498066,9.544217394805413,6.608813735654012,10.0,20.0,30.000000000000004,-1002.3156948204742,994.8674389151352,8.908289174041666E-4,629.7913692886685,411.85431795999597,4.0467652919943755E-4,-2.770030668867159E-4,-0.0023908463054540304,0.0,0.0,0.0,0.016791444271802902,0.12429992854595184,9.897597312927246,16.705261580341237
0.5299999713897705,2.0932250018430278E7,-8.076612107454617E-23,-2.8531900468852784E-22,2.0932250018430278E7,-8.076612107454617E-23,-2.8531900468852784E-22,-17.02649995860924,-6.839608449411316E-22,-4.7465305255139E-21,-1.042577180280193E-15,-6.839609106370962E-22,17.02649995860924,29995.48791846633,-2.2107312215073247E-28,-7.809755171628658E-28,32.12632592059053,16.531719569856005,9.707928913420849,6.763299232100489,10.0,20.0,30.000000000000004,-1021.5899975165544,994.8681632725923,8.908344382222481E-4,629.7961894553436,411.8549176978975,4.275348780901738E-4,-2.943137189790582E-4,-0.002481708780330498,0.0,0.0,0.0,0.01711432822048664,0.12912720441818237,10.08792495727539,17.02649995860924
0.5400000214576721,2.093224984655909E7,-8.522048473816845E-23,-3.2172544776139483E-22,2.093224984655909E7,-8.522048473816845E-23,-3.2172544776139483E-22,-17.347737385237938,-6.297507350427619E-22,-2.957596936228471E-21,-1.062245510660962E-15,-6.297508056697895E-22,17.347737385237938,29995.3160472773,-2.3326561355557025E-28,-8.80627283441045E-28,32.126326448158274,16.858159760312763,9.870770810505508,6.918803191049137,10.0,20.0,30.000000000000004,-1040.8642431142762,994.8689014260842,8.90840064220304E-4,629.8011014607401,411.8555288587924,4.511939356435106E-4,-3.1236374000134397E-4,-0.002574151471733948,0.0,0.0,0.0,0.01743721030652523,0.13404648005962372,10.278253555297852,17.347737385237938
0.550000011920929,2.0932249671475533E7,-9.10843112129303E-23,-3.556382257881805E-22,2.0932249671475533E7,-9.10843112129303E-23,-3.556382257881805E-22,-17.668973842263433,-5.213305164443475E-22,-2.6323362793014493E-21,-1.0819152453435906E-15,-5.213305933288839E-22,17.668973842263433,29995.14096372202,-2.4931608853627588E-28,-9.734533884788608E-28,32.12632698558655,17.18520995894236,10.032736172448457,7.075324165140862,10.0,20.0,30.000000000000004,-1060.138430535806,994.8696533755168,8.908457953993756E-4,629.8061053061757,411.85615144262795,4.7566382836497235E-4,-3.311707721030459E-4,-0.0026681660405425108,0.0,0.0,0.0,0.01776008866727352,0.13905775547027588,10.468581199645996,17.668973842263433
0.5600000023841858,2.0932249493179616E7,-9.651445680473134E-23,-3.8478051420165045E-22,2.0932249493179616E7,-9.651445680473134E-23,-3.8478051420165045E-22,-17.99020931172137,-3.044900805029763E-22,-2.740756490869777E-21,-1.101585353236015E-15,-3.044901634522685E-22,17.99020931172137,29994.96266780421,-2.641794919705405E-28,-1.0532217050924976E-27,32.12632753287536,17.51287298026022,10.193818076892061,7.232860646270218,10.0,20.0,30.000000000000004,-1079.4125587032822,994.8704191208435,8.908516317608989E-4,629.8112009933207,411.8567854493916,5.009544605744742E-4,-3.5075255645617787E-4,-0.0027637440084332153,0.0,0.0,0.0,0.018082967028021812,0.14416101574897766,10.658907890319824,17.99020931172137
0.5699999928474426,2.093224931167135E7,-9.96677778195105E-23,-4.12404919514648E-22,2.093224931167135E7,-9.96677778195105E-23,-4.12404919514648E-22,-18.3114437756469,-1.41859753121759E-22,-3.17443735375113E-21,-1.1212557248179887E-15,-1.418598403107124E-22,18.3114437756469,29994.781159538776,-2.7281076856472755E-28,-1.1288352716803684E-27,32.12632809002466,17.84115154604375,10.354009593236485,7.391411064016464,10.0,20.0,30.000000000000004,-1098.686626538814,994.8711986619691,8.90857573305973E-4,629.8163885235587,411.85743087903097,5.270755126254219E-4,-3.711269309979544E-4,-0.0028608767587910387,0.0,0.0,0.0,0.018405843526124954,0.14935627579689026,10.849233627319336,18.3114437756469
0.5799999833106995,2.0932249126950745E7,-1.0255004827588998E-22,-4.50003984751184E-22,2.0932249126950745E7,-1.0255004827588998E-22,-4.50003984751184E-22,-18.632677216074683,-6.026456748822094E-22,-4.90916082315251E-21,-1.140927334771407E-15,-6.026457661663297E-22,18.632677216074683,29994.596438933164,-2.8070012541109417E-28,-1.2317514918698191E-27,32.12632865703442,18.17004828414728,10.513303783160259,7.550973784073097,10.0,20.0,30.000000000000004,-1117.960632964481,994.87199199883,8.908636200359696E-4,629.821667898519,411.85808773152013,5.540364391462572E-4,-3.9231182816176167E-4,-0.002959555537637296,0.0,0.0,0.0,0.018728718161582947,0.15464353561401367,11.039559364318848,18.632677216074683
0.5899999737739563,2.0932248939017806E7,-1.0662494110623975E-22,-5.014808377263578E-22,2.0932248939017806E7,-1.0662494110623975E-22,-5.014808377263578E-22,-18.95390961503889,1.2919079315759627E-22,-4.041799077852205E-21,-1.1605962788683586E-15,1.2919069660994377E-22,18.95390961503889,29994.408505994827,-2.9185392998221994E-28,-1.3726540130548164E-27,32.12632923390463,18.499565727312344,10.671693701157047,7.711547106676656,10.0,20.0,30.000000000000004,-1137.2345769023334,994.8727991313618,8.90869771952287E-4,629.8270391198621,411.8587560068332,5.818464673034567E-4,-4.143252725958385E-4,-0.0030597714545707714,0.0,0.0,0.0,0.01905159093439579,0.1600227952003479,11.229884147644043,18.95390961503889
0.6000000238418579,2.0932248747872546E7,-1.0961563174777109E-22,-5.520903288866616E-22,2.0932248747872546E7,-1.0961563174777109E-22,-5.520903288866616E-22,-19.275140954573178,-7.652759974922759E-22,-6.427043849266615E-21,-1.1802684107004543E-15,-7.652760984301531E-22,19.275140954573178,29994.21736073494,-3.000400551061596E-28,-1.5111823930723277E-27,32.12632982063524,18.829706311973524,10.829172395088662,7.873129265035062,10.0,20.0,30.000000000000004,-1156.5084572743906,994.8736200594838,8.908760290562333E-4,629.8325021891767,411.85943570493095,6.105145950866527E-4,-4.3718537887019263E-4,-0.0031615154837243966,0.0,0.0,0.0,0.019374461844563484,0.16549405455589294,11.420208930969238,19.275140954573178
0.6100000143051147,2.0932248553514987E7,-1.1759365236582749E-22,-6.2069757602524755E-22,2.0932248553514987E7,-1.1759365236582749E-22,-6.2069757602524755E-22,-19.596371216710693,-8.465911586827814E-22,-6.101783188519461E-21,-1.1999377660555923E-15,-8.465912687717124E-22,19.596371216710693,29994.023003175855,-3.21877506893979E-28,-1.6989742582755336E-27,32.1263304172262,19.160472377060824,10.985732906754354,8.035718423756395,10.0,20.0,30.000000000000004,-1175.7822730026417,994.8744547830664,8.908823913487777E-4,629.8380571077639,411.86012682573477,6.400495896158597E-4,-4.609103491718375E-4,-0.003264778464736469,0.0,0.0,0.0,0.01969733089208603,0.17105732858181,11.610532760620117,19.596371216710693
0.6200000047683716,2.093224835594513E7,-1.2719797622451572E-22,-6.780291204748156E-22,2.093224835594513E7,-1.2719797622451572E-22,-6.780291204748156E-22,-19.91760038348405,-1.0905366456164292E-21,-4.692320354299064E-21,-1.2196059701368461E-15,-1.0905367666487435E-21,19.91760038348405,29993.825433317572,-3.4816647864777724E-28,-1.8559022580649147E-27,32.126331023677494,19.491866162799226,11.141368272476548,8.19931267727863,10.0,20.0,30.000000000000004,-1195.056023009043,994.8753033020758,8.908888588316491E-4,629.8437038775953,411.86082936924504,6.704599854720598E-4,-4.8551847098932013E-4,-0.0033695511037418655,0.0,0.0,0.0,0.020020198076963425,0.17671261727809906,11.80085563659668,19.91760038348405
0.6299999952316284,2.0932248155162983E7,-1.3322443289450336E-22,-7.208323557092178E-22,2.0932248155162983E7,-1.3322443289450336E-22,-7.208323557092178E-22,-20.238828436925335,-8.764963405266211E-23,-4.041799040065739E-21,-1.2392748649876922E-15,-8.764976286378746E-23,20.238828436925335,29993.624651171267,-3.646621077820613E-28,-1.973063352415119E-27,32.1263316399891,19.823889809505932,11.296071523703027,8.363910048300943,10.0,20.0,30.000000000000004,-1214.32970621552,994.8761656164297,8.908954315062402E-4,629.8494425003572,411.8615433354229,7.017540830488432E-4,-5.110281147849701E-4,-0.003475823974370468,0.0,0.0,0.0,0.02034306339919567,0.18245992064476013,11.991177558898926,20.238828436925335
0.6399999856948853,2.093224795116856E7,-1.3897983900088822E-22,-7.790312616821107E-22,2.093224795116856E7,-1.3897983900088822E-22,-7.790312616821107E-22,-20.560055359066084,-7.923810440861152E-22,-5.884942721822251E-21,-1.2589461842313552E-15,-7.923811805947783E-22,20.560055359066084,29993.420656748116,-3.8041581729467485E-28,-2.132365501653861E-27,32.12633226616098,20.156545356386353,11.449835687625795,8.52950848621742,10.0,20.0,30.000000000000004,-1233.603321543965,994.8770417260447,8.909021093739713E-4,629.8552729777668,411.86226872422907,7.339399469277391E-4,-5.374577316568437E-4,-0.003583587518765566,0.0,0.0,0.0,0.020665926858782768,0.1882992386817932,12.181499481201172,20.560055359066084
0.6499999761581421,2.0932247743961878E7,-1.413742183513001E-22,-8.376638484046257E-22,2.0932247743961878E7,-1.413742183513001E-22,-8.376638484046257E-22,-20.881281131937282,-4.671203901790754E-22,-6.860724664659196E-21,-1.2786165657408154E-15,-4.671205312090706E-22,20.881281131937282,29993.213450066745,-3.8696971976299193E-28,-2.292854725939119E-27,32.12633290219308,20.489834740329336,11.602653787816317,8.696105865553687,10.0,20.0,30.000000000000004,-1252.876867916237,994.8779316308053,8.909088924360489E-4,629.8611953113631,411.86300553559806,7.670254042759639E-4,-5.648258509895367E-4,-0.0036928320486148644,0.0,0.0,0.0,0.020988786593079567,0.1942305713891983,12.371820449829102,20.881281131937282
0.6600000262260437,2.0932247533542942E7,-1.4463595941794336E-22,-8.910922645706729E-22,2.0932247533542942E7,-1.4463595941794336E-22,-8.910922645706729E-22,-21.202505737569364,-2.502799534901604E-22,-4.583900089149066E-21,-1.298283623170975E-15,-2.502800999935282E-22,21.202505737569364,29993.00303113088,-3.958977662190374E-28,-2.4390990902835414E-27,32.126333548085384,20.82375979470244,11.754518844877687,8.86369998440732,10.0,20.0,30.000000000000004,-1272.1503442541618,994.8788353306592,8.909157806941941E-4,629.8672095031412,411.8637537695173,8.010180432680254E-4,-5.931510780949915E-4,-0.0038035477462001824,0.0,0.0,0.0,0.021311646327376366,0.2002539187669754,12.562141418457031,21.202505737569364
0.6700000166893005,2.0932247319911767E7,-1.5006610480737485E-22,-9.497248510277696E-22,2.0932247319911767E7,-1.5006610480737485E-22,-9.497248510277696E-22,-21.52372915799219,-5.755406029844521E-22,-5.993362899275302E-21,-1.317954294315384E-15,-5.7554075729097E-22,21.52372915799219,29992.78939995542,-4.107611725594065E-28,-2.5995883208784585E-27,32.12633420383786,21.15832224814822,11.905423877113288,9.032288562892727,10.0,20.0,30.000000000000004,-1291.4237494795314,994.8797528255058,8.909227741497926E-4,629.8733155548119,411.86451342593455,8.359252115291746E-4,-6.224520918419358E-4,-0.003915724665455423,0.0,0.0,0.0,0.021634502336382866,0.2063693106174469,12.752460479736328,21.52372915799219
0.6800000071525574,2.0932247103068355E7,-1.6102568125344698E-22,-1.0187657781949357E-21,2.0932247103068355E7,-1.6102568125344698E-22,-1.0187657781949357E-21,-21.84495137523503,-1.280272012727224E-21,-7.40282570842611E-21,-1.337624891786266E-15,-1.2802721807740733E-21,21.84495137523503,29992.572556544095,-4.4075974660594195E-28,-2.7885672816452875E-27,32.126334869450474,21.49352372338207,12.055361901212263,9.20186924159119,10.0,20.0,30.000000000000004,-1310.6970825141018,994.8806841152916,8.909298728046224E-4,629.8795134684357,411.8652845048372,8.717540146035438E-4,-6.527476422761021E-4,-0.004029352733045623,0.0,0.0,0.0,0.021957358345389366,0.2125767171382904,12.942779541015625,21.84495137523503
0.6899999976158142,2.0932246883012738E7,-1.7165999702313478E-22,-1.0949624395442067E-21,2.0932246883012738E7,-1.7165999702313478E-22,-1.0949624395442067E-21,-22.166172371326585,-1.4971124446759921E-21,-9.788070471699003E-21,-1.3572963902651516E-15,-1.497112626455096E-21,22.166172371326585,29992.352500926703,-4.698680173047103E-28,-2.9971329337867062E-27,32.12633554492316,21.82936573599274,12.204325932951877,9.372439580007073,10.0,20.0,30.000000000000004,-1329.9703422795951,994.8816291998509,8.909370766596382E-4,629.8858032453618,411.8660670061199,9.085113144439616E-4,-6.840565482291091E-4,-0.0041444217494520106,0.0,0.0,0.0,0.022280210629105568,0.21887615323066711,13.133097648620605,22.166172371326585
0.699999988079071,2.0932246659744915E7,-1.9010056840828839E-22,-1.1889400163538948E-21,2.0932246659744915E7,-1.9010056840828839E-22,-1.1889400163538948E-21,-22.48739212829496,-2.5813146143986993E-21,-8.487027847178674E-21,-1.3769641265822377E-15,-2.581314818622646E-21,22.48739212829496,29992.129233103245,-5.203435842259298E-28,-3.2543685414474945E-27,32.1263362302559,22.165849693246095,12.352308987916462,9.543997055030669,10.0,20.0,30.000000000000004,-1349.2435276976976,994.8825880791451,8.909443857167982E-4,629.8921848878236,411.8668609297836,9.462037279283109E-4,-7.16397694919722E-4,-0.0042609213900850805,0.0,0.0,0.0,0.02260306105017662,0.22526763379573822,13.323415756225586,22.48739212829496
0.7099999785423279,2.09322464332649E7,-2.1309478888862804E-22,-1.2759786990772851E-21,2.09322464332649E7,-2.1309478888862804E-22,-1.2759786990772851E-21,-22.808610628167646,-1.4971124388086358E-21,-7.185985221282558E-21,-1.3966317859244117E-15,-1.4971126710052174E-21,22.808610628167646,29991.902753088623,-5.832834081365865E-28,-3.4926110027799205E-27,32.12633692544867,22.50297689289316,12.499304082233246,9.716539059408799,10.0,20.0,30.000000000000004,-1368.5166376900588,994.8835607530714,8.909517999776019E-4,629.8986583976612,411.8676662757759,9.848376253964914E-4,-7.497900315431504E-4,-0.004378841206397254,0.0,0.0,0.0,0.022925909608602524,0.23175114393234253,13.513731956481934,22.808610628167646
0.7200000286102295,2.0932246203572705E7,-2.3283640281883716E-22,-1.3669205094259367E-21,2.0932246203572705E7,-2.3283640281883716E-22,-1.3669205094259367E-21,-23.129827852971527,-1.6055326526353266E-21,-9.571229980508632E-21,-1.4163030534785244E-15,-1.6055329099161681E-21,23.129827852971527,29991.673060894012,-6.373201933890093E-28,-3.741537117340576E-27,32.12633763050142,22.840748521983336,12.645304233325119,9.890062900223832,10.0,20.0,30.000000000000004,-1387.7896711782917,994.8845472215421,8.909593194436987E-4,629.9052237768535,411.8684830440578,0.0010244191292133182,-7.842525688524544E-4,-0.00449817062701908,0.0,0.0,0.0,0.023248756304383278,0.23832668364048004,13.704048156738281,23.129827852971527
0.7300000190734863,2.0932245970668346E7,-2.562643040997308E-22,-1.469571703027749E-21,2.0932245970668346E7,-2.562643040997308E-22,-1.469571703027749E-21,-23.45104378473286,-2.798155038630721E-21,-1.2606996041761027E-20,-1.4359748923779183E-15,-2.7981553257315616E-21,23.45104378473286,29991.440156534314,-7.014470919817328E-28,-4.022514181867049E-27,32.12633834541411,23.179165655683637,12.790302460679953,10.064565797382079,10.0,20.0,30.000000000000004,-1407.0626270839716,994.8855474844531,8.909669441166443E-4,629.9118810273055,411.8693112345772,0.0010649541123545988,-8.198043767301154E-4,-0.0046188989589056265,0.0,0.0,0.0,0.023571599274873734,0.24499428272247314,13.894363403320312,23.45104378473286
0.7400000095367432,2.0932245734551832E7,-2.8435427468293565E-22,-1.5960753441985405E-21,2.0932245734551832E7,-2.8435427468293565E-22,-1.5960753441985405E-21,-23.772258405477285,-4.261827967344828E-21,-1.2823836452757993E-20,-1.4556438320750286E-15,-4.26182829027928E-21,23.772258405477285,29991.204040020704,-7.783350163400303E-28,-4.368780214371227E-27,32.12633907018671,23.51822925610485,12.934291786636978,10.240044882112375,10.0,20.0,30.000000000000004,-1426.3355043286372,994.8865615417158,8.909746739981456E-4,629.9186301510613,411.8701508472949,0.0011064481970179763,-8.564645817510456E-4,-0.00474101538849935,0.0,0.0,0.0,0.02389444038271904,0.25175392627716064,14.084677696228027,23.772258405477285
0.75,2.0932245495223183E7,-3.233946871643748E-22,-1.7381914964080507E-21,2.0932245495223183E7,-3.233946871643748E-22,-1.7381914964080507E-21,-24.093471697229784,-4.0449875281812674E-21,-1.3474357730680479E-20,-1.4753131240757208E-15,-4.044987900415615E-21,24.093471697229784,29990.96471137181,-8.851965115591958E-28,-4.7577808483297864E-27,32.12633980481915,23.857940171135645,13.077265237189648,10.416497195475772,10.0,20.0,30.000000000000004,-1445.608301833787,994.8875893932087,8.909825090896945E-4,629.9254711499851,411.8710018821455,0.0011489067532573795,-8.942523647362691E-4,-0.004864508982903795,0.0,0.0,0.0,0.024217279627919197,0.25860562920570374,14.274991989135742,24.093471697229784
0.7599999904632568,2.0932245252682403E7,-3.564719876475603E-22,-1.862093051853398E-21,2.0932245252682403E7,-3.564719876475603E-22,-1.862093051853398E-21,-24.414683642014705,-2.1476337210936136E-21,-1.152279379254844E-20,-1.4949797315132201E-15,-2.1476341368708367E-21,24.414683642014705,29990.722170591354,-9.757357684421123E-28,-5.096924464811669E-27,32.126340549311436,24.198299133285577,13.219215842805399,10.593919686887313,10.0,20.0,30.000000000000004,-1464.8810185208822,994.8886310388743,8.909904493932988E-4,629.9324040263995,411.87186433911666,0.0011923348976433023,-9.331869582990905E-4,-0.004989368691076956,0.0,0.0,0.0,0.024540117010474205,0.26554936170578003,14.465304374694824,24.414683642014705
0.7699999809265137,2.0932245006929513E7,-3.821767133031988E-22,-1.982525160060991E-21,2.0932245006929513E7,-3.821767133031988E-22,-1.982525160060991E-21,-24.73589422185574,-1.6597427377998402E-21,-1.0872272459554633E-20,-1.5146475564146166E-15,-1.6597431894228147E-21,24.73589422185574,29990.47641770169,-1.0460948022157024E-27,-5.426571512629882E-27,32.1263413036635,24.539306758537833,13.36013663926211,10.772309212650685,10.0,20.0,30.000000000000004,-1484.1536533113444,994.8896864785743,8.909984949103853E-4,629.9394287821274,411.87273821812965,0.0012367374919454092,-9.732876443811126E-4,-0.005115583345028599,0.0,0.0,0.0,0.024862952530384064,0.2725851535797119,14.655616760253906,24.73589422185574
0.7799999713897705,2.093224475796452E7,-4.02785688689567E-22,-2.115967694033865E-21,2.093224475796452E7,-4.02785688689567E-22,-2.115967694033865E-21,-25.057103418775903,-2.7439449042631284E-21,-1.3691198076570225E-20,-1.534318766083482E-15,-2.7439453864208124E-21,25.057103418775903,29990.22745271027,-1.1025057406421506E-27,-5.7918307308173626E-27,32.12634206787531,24.880963545213007,13.500020668501032,10.951662534506864,10.0,20.0,30.000000000000004,-1503.4262051265541,994.8907557122334,8.910066456428963E-4,629.9465454194491,411.87362351915874,0.0012821191418426812,-0.0010145737517823032,-0.005243141661043176,0.0,0.0,0.0,0.025185784325003624,0.2797130048274994,14.845928192138672,25.057103418775903
0.7900000214576721,2.0932244505787447E7,-4.28815674876382E-22,-2.238568205957016E-21,2.0932244505787447E7,-4.28815674876382E-22,-2.238568205957016E-21,-25.37831121479755,-2.8523651151224082E-21,-1.1089112829104924E-20,-1.5539844689611888E-15,-2.85236563501972E-21,25.378311214797545,29989.97527563572,-1.1737550816720937E-27,-6.127413155242256E-27,32.126342841946816,25.22326987284451,13.638860979496298,11.131976318197623,10.0,20.0,30.000000000000004,-1522.6986728878528,994.8918387397284,8.910149015924387E-4,629.9537539403599,411.87452024213854,0.0013284841956558795,-0.0010570646536811256,-0.005372032240905589,0.0,0.0,0.0,0.025508612394332886,0.28693294525146484,15.036238670349121,25.378311214797545
0.800000011920929,2.09322442503983E7,-4.495330703522306E-22,-2.3312447375759506E-21,2.09322442503983E7,-4.495330703522306E-22,-2.3312447375759506E-21,-25.69951759194234,-2.256053913505379E-21,-9.571229752503068E-21,-1.5736511691599166E-15,-2.2560544654186335E-21,25.699517591942335,29989.719886489213,-1.23046279102396E-27,-6.381087611885837E-27,32.12634362587798,25.5662260010671,13.77665062914105,11.313247132044916,10.0,20.0,30.000000000000004,-1541.9710555165402,994.892935560967,8.910232627608899E-4,629.9610543470989,411.87542838703,0.0013758367431070055,-0.001100779765148492,-0.0055022435731486045,0.0,0.0,0.0,0.025831440463662148,0.2942449450492859,15.226548194885254,25.699517591942335
0.8100000023841858,2.09322439917971E7,-4.766472585766113E-22,-2.431727524478654E-21,2.09322439917971E7,-4.766472585766113E-22,-2.431727524478654E-21,-26.020722532231247,-3.2318358616474078E-21,-1.2390155364446143E-20,-1.5933221181852849E-15,-3.2318364541642E-21,26.020722532231243,29989.461285289377,-1.3046798156768484E-27,-6.656129373086899E-27,32.126344419668754,25.909832068519126,13.913382683149779,11.495471445547079,10.0,20.0,30.000000000000004,-1561.2433519338747,994.8940461758249,8.910317291499139E-4,629.9684466417267,411.876347953768,0.0014241806141023499,-0.0011457385406529862,-0.005633764034307395,0.0,0.0,0.0,0.02615426480770111,0.3016490042209625,15.41685676574707,26.020722532231243
0.8199999928474426,2.0932243729983855E7,-5.160129312767978E-22,-2.5556290779335976E-21,2.0932243729983855E7,-5.160129312767978E-22,-2.5556290779335976E-21,-26.341926017684546,-4.261827917908212E-21,-1.4341719236686234E-20,-1.612992110765925E-15,-4.261828567278372E-21,26.341926017684546,29989.199472043663,-1.4124316302501564E-27,-6.995273036915772E-27,32.12634522331911,26.25408809176,14.049050216977081,11.678645627993081,10.0,20.0,30.000000000000004,-1580.5155610610727,994.8951705842247,8.910403007615673E-4,629.9759308266543,411.8772789423267,0.0014735193775424454,-0.00119196047156011,-0.005766581890193935,0.0,0.0,0.0,0.026477087289094925,0.30914512276649475,15.60716438293457,26.341926017684546
0.8299999833106995,2.0932243464958582E7,-5.616669764980664E-22,-2.702515717052448E-21,2.0932243464958582E7,-5.616669764980664E-22,-2.702515717052448E-21,-26.66312803032181,-3.4486762802534536E-21,-9.571229637323048E-21,-1.6326552911091213E-15,-3.44867699569509E-21,26.66312803032181,29988.934446770698,-1.5373959938448707E-27,-7.397331533721629E-27,32.12634603682899,26.598993964203515,14.183646316752366,11.862765947095506,10.0,20.0,30.000000000000004,-1599.7876818193088,994.896308786041,8.910489775975708E-4,629.9835069040068,411.8782213526408,0.0015238563401553105,-0.0012394650836227434,-0.005900685297176288,0.0,0.0,0.0,0.02679990604519844,0.31673333048820496,15.797471046447754,26.66312803032181
0.8399999737739563,2.0932243196721297E7,-6.0255053207415935E-22,-2.816442609713534E-21,2.0932243196721297E7,-6.0255053207415935E-22,-2.816442609713534E-21,-26.98432855216188,-3.502886379938994E-21,-1.3474357415977558E-20,-1.6523270537846948E-15,-3.502887156703403E-21,26.98432855216188,29988.666209485382,-1.6493025667033645E-27,-7.709172555508666E-27,32.12634686019836,26.944549455068532,14.317164080230915,12.047828567643688,10.0,20.0,30.000000000000004,-1619.059713129713,994.8974607811632,8.910577596597948E-4,629.9911748760481,411.87917518465815,0.0015751945453571288,-0.001288271934466288,-0.006036062303478575,0.0,0.0,0.0,0.027122722938656807,0.32441362738609314,15.987777709960938,26.98432855216188
