time,eiPosition_ft_X,eiPosition_ft_Y,eiPosition_ft_Z,gePosition_ft_X,gePosition_ft_Y,gePosition_ft_Z,eiVelocity_ft_s_X,eiVelocity_ft_s_Y,eiVelocity_ft_s_Z,feVelocity_ft_s_X,feVelocity_ft_s_Y,feVelocity_ft_s_Z,altitudeMsl_ft,longitude_deg,latitude_deg,localGravity_ft_s2,eulerAngle_deg_Yaw,eulerAngle_deg_Pitch,eulerAngle_deg_Roll,bodyAngularRateWrtEi_deg_s_Roll,bodyAngularRateWrtEi_deg_s_Pitch,bodyAngularRateWrtEi_deg_s_Yaw,altitudeRateWrtMsl_ft_min,speedOfSound_ft_s,airDensity_slug_ft3,ambientPressure_lbf_ft2,ambientTemperature_dgR,aero_bodyForce_lbf_X,aero_bodyForce_lbf_Y,aero_bodyForce_lbf_Z,aero_bodyMoment_ftlbf_L,aero_bodyMoment_ftlbf_M,aero_bodyMoment_ftlbf_N,mach,dynamicPressure_lbf_ft2,trueAirspeed_nmi_h
0.0,2.09322545305E7,0.0,0.0,2.09322545305E7,0.0,0.0,0.0,0.0,0.0,0.0,0.0,0.0,30000.0,0.0,0.0,32.126312070546,0.0,1.2722218725854067E-14,0.0,9.999999999985631,19.999999999971262,29.999999999956895,-0.0,994.8490287717719,8.907042526447538E-4,629.6799295021158,411.83887294861233,0.0,0.0,-0.0,0.0,0.0,0.0,0.0,0.0,0.0
0.10000000000000007,2.093225436987119E7,-1.8660897940259177E-26,9.77271232273762E-26,2.093225436987119E7,-1.8660897940259177E-26,9.77271232273762E-26,-3.2126282150941763,2.4615852185306367E-24,3.948546308634203E-23,1.8295911660692887E-19,1.1726324121788534E-17,3.2126282150931402,29999.8393711932,-5.107862129939334E-32,-2.9965096985453614E-29,32.12631256360433,3.018499610564823,1.9727979043206294,1.0523134986917506,9.999999999985631,19.999999999971262,29.999999999956895,-192.7576929055884,994.8497186547348,8.907095099622883E-4,629.6845194571906,411.8394441322034,3.1069265110278597E-6,-1.6565228635873142E-6,-9.018329297996218E-5,0.0,0.0,0.0,0.0032292598116606687,0.004596497540627525,1.9034071314107293
0.20000000000000015,2.0932253887977645E7,-6.359411047509551E-25,-5.002433960654602E-24,2.0932253887977645E7,-6.359411047509551E-25,-5.002433960654602E-24,-6.425238478255626,-4.084221593355498E-23,-1.6533477042832211E-22,-4.1795993749316196E-17,1.219456393503071E-16,6.425238478253575,29999.35747764632,-1.7406984224495773E-30,1.5338466317644669E-27,32.12631404280126,6.078018625526617,3.8870473438071933,2.2090883514688793,9.999999999985631,19.999999999971262,29.999999999956895,-385.5143086952145,994.851788331424,8.907252822910646E-4,629.698289689033,411.8411577083705,2.4472937033365575E-5,-1.388368478385514E-5,-3.599142286295822E-4,0.0,0.0,0.0,0.0064584881422699945,0.018386212993040323,3.8068036267208996
0.3000000000000002,2.0932253084824715E7,-6.732381591795156E-24,-5.215054913947192E-23,2.0932253084824715E7,-6.732381591795156E-24,-5.215054913947192E-23,-9.63781283667604,-1.6958963806872036E-22,-1.0246297022467117E-21,2.548959307513421E-16,-8.673617379884035E-18,9.637812836672955,29998.55432471633,-1.8427880157873584E-29,1.599040482521012E-26,32.12631650812056,9.184190544593784,5.736403671949551,3.4700670125057944,9.999999999985631,19.999999999971262,29.999999999956895,-578.2687702003773,994.8552377704118,8.907515698845317E-4,629.7212405335118,411.8440136582229,8.119039554199414E-5,-4.891958666468435E-5,-8.067446533390697E-4,0.0,0.0,0.0,0.009687653510548908,0.04136981484214938,5.710178849311173
0.4000000000000003,2.093225196041689E7,-2.643198336375968E-23,-1.6035325253871604E-22,2.093225196041689E7,-2.643198336375968E-23,-1.6035325253871604E-22,-12.850333335795963,-1.7795436161885702E-22,-1.02731857484069E-21,5.204170427930421E-18,-2.564138137928218E-17,12.850333335791836,29997.4299168922,-7.234964941981678E-29,4.91675248955813E-26,32.12631995954879,12.342065661273882,7.5143512985628576,4.83487859147986,9.999999999985631,19.999999999971262,29.999999999956895,-771.0200001475101,994.8600669383849,8.907883733104029E-4,629.7533726772701,411.84801196606156,1.8885403755801626E-4,-1.2067151428163949E-4,-0.0014266231641066392,0.0,0.0,0.0,0.012916724434763913,0.07354841720716,7.613522161524708
0.5000000000000003,2.0932250514760446E7,-6.73648856824581E-23,-2.0169772129961345E-22,2.0932250514760446E7,-6.73648856824581E-23,-2.0169772129961345E-22,-16.062782018429296,-7.58044417423513E-23,3.634804087406209E-23,-1.431146867680866E-17,-6.057979638762756E-16,16.062782018424077,29995.984260447323,-1.843912404098364E-28,6.184456864064162E-26,32.12632439706716,15.55602953587802,9.21421310070167,6.302903625303362,9.999999999985631,19.999999999971262,29.999999999956895,-963.7669211054446,994.866275788754,8.908356933638458E-4,629.7946870819477,411.853152609948,3.6132744920556873E-4,-2.4453461309940265E-4,-0.0022139381510224007,0.0,0.0,0.0,0.016145669432499083,0.11492357980812168,9.516822924148432
0.6000000000000004,2.0932248747863464E7,-4.3113938249902077E-23,-2.107172197969484E-22,2.0932248747863464E7,-4.3113938249902077E-23,-2.107172197969484E-22,-19.275140923887832,-5.962147096437087E-23,-1.2273732468026112E-21,-1.4961989980299961E-15,-5.376558573355616E-16,19.275140923881533,29994.217363465577,-1.1801152994415718E-28,6.461012786624137E-26,32.12632982065147,18.829706311825937,10.829172395017446,7.873129264962741,9.999999999985631,19.999999999971262,29.999999999956895,-1156.508455432892,994.8738642615424,8.908935310666324E-4,629.8451849834549,411.8594355616108,6.105265872124564E-4,-4.3719396634940447E-4,-0.003161577584294528,0.0,0.0,0.0,0.01937445702043032,0.16549730791895634,11.420070495894375
0.7000000000000005,2.093224665973584E7,1.3579556402477348E-23,-2.841868608332464E-22,2.093224665973584E7,1.3579556402477348E-23,-2.841868608332464E-22,-22.487392087106002,2.232649272651817E-22,8.975420078267635E-23,9.254749744336266E-16,4.4202922572234016E-16,22.48739208709867,29992.129235841334,3.7169983813463545E-29,8.713739405842191E-26,32.12633623027211,22.165849693095527,12.352308987849367,9.54399705495386,9.999999999985631,19.999999999971262,29.999999999956895,-1349.2435252259202,994.8828322833875,8.909618876671468E-4,629.9048678920014,411.86686078644624,9.462223119364821E-4,-7.164117653979285E-4,-0.004261005077158405,0.0,0.0,0.0,0.022603055714099318,0.2252720523069762,13.323254232881087
0.8000000000000006,2.0932244250389233E7,1.531870958820288E-22,-2.0505185279756995E-22,2.0932244250389233E7,1.531870958820288E-22,-2.0505185279756995E-22,-25.699517537765576,5.208005285925427E-21,8.717852431680479E-21,2.7755575615628914E-16,-1.0549287138283958E-16,25.699517537757213,29989.71988923475,4.193040156094545E-28,6.28730126623119E-26,32.126343625894165,25.566226000913485,13.776650629078341,11.313247131963722,9.999999999985631,19.999999999971262,29.999999999956895,-1541.9710522654327,994.8931797677337,8.910407646418487E-4,629.9737375934009,411.8754282436769,0.0013758637621058458,-0.0011008013825123343,-0.005502351627501825,0.0,0.0,0.0,0.025831434027682416,0.29425070915933565,15.226363488115005
0.9000000000000007,2.0932241519837108E7,7.45442638193562E-22,1.0833821885791712E-21,2.0932241519837108E7,7.45442638193562E-22,1.0833821885791712E-21,-28.911499299420758,5.369897697048973E-21,1.225898831545708E-20,-4.432218481120742E-16,2.2789929665645303E-16,28.911499299411357,29986.98933710903,2.0404272995375364E-27,-3.3218671829269446E-25,32.12635200747734,29.031495558998888,15.095240784866808,13.1777645517227,9.999999999985631,19.999999999971262,29.999999999956895,-1734.6899579646815,994.9049066146753,8.911301636940665E-4,630.0517961480473,411.8851378862192,0.0019044242431763777,-0.0016095902645196219,-0.006874522316494303,0.0,0.0,0.0,0.02905956047376639,0.3724366199955652,17.129387610972135
1.0000000000000007,2.0932238468094748E7,1.4470863645279029E-21,2.5504794099192176E-21,2.0932238468094748E7,1.4470863645279029E-21,2.5504794099192176E-21,-32.123319388623216,1.6978439965134136E-20,1.8638266686020732E-20,1.065987575987748E-15,9.276433787785976E-16,32.12331938861277,29983.937594749033,3.9609686945213384E-27,-7.820281653008168E-25,32.12636137497586,32.56110056999402,16.30122297390724,15.133435416241193,9.999999999985631,19.999999999971262,29.999999999956895,-1927.3991633167661,994.9180127108768,8.912300867533895E-4,630.1390458904215,411.89598966061715,0.0025342711320678235,-0.002262373660810696,-0.008365317122841278,0.0,0.0,0.0,0.03228740356312458,0.4598335715663036,19.032315946679656
1.0999999999999897,2.093223509517921E7,3.271307507710044E-21,4.568996598639361E-21,2.093223509517921E7,3.271307507710044E-21,4.568996598639361E-21,-35.334959814047494,1.5151574828079943E-20,1.8373224234110183E-20,-2.8813756935974766E-15,-1.441988889405721E-16,35.33495981403601,29980.56467921287,8.954233163777718E-27,-1.4009460391655484E-24,32.12637172833866,36.15316940136206,17.387940963959196,17.175022276277247,9.999999999985631,19.999999999971262,29.999999999956895,-2120.097588842161,994.9324979297854,8.913405359772697E-4,630.2354894305294,411.9079835072148,0.003265061120645676,-0.0030788612800135206,-0.00996156489725937,0.0,0.0,0.0,0.035514931804484506,0.556445795739391,20.935137835797743
1.1999999999999786,2.0932231401109375E7,4.760612352617907E-21,7.065427178563115E-21,2.0932231401109375E7,4.760612352617907E-21,7.065427178563115E-21,-38.54640257561673,1.4361786564720634E-20,3.106149456206837E-20,3.722716579446228E-15,-7.875644580934704E-16,38.54640257560421,29976.87060937658,1.3030765353014192E-26,-2.166401748639581E-24,32.12638306750924,39.80444847129446,18.34905291849015,19.296069599096825,9.999999999985631,19.999999999971262,29.999999999956895,-2312.7841545362526,994.9483621314396,8.914615137495611E-4,630.3411296526726,411.92111935999674,0.004093661929809956,-0.0040786190358372675,-0.011649269434080654,0.0,0.0,0.0,0.038742113704307225,0.662277969371054,22.837842613701547
1.2999999999999676,2.0932227385905884E7,5.5399056866288895E-21,9.861652539799334E-21,2.0932227385905884E7,5.5399056866288895E-21,9.861652539799334E-21,-41.75762966362825,1.0810613369082671E-20,2.971786960144554E-20,-1.9359513991901167E-15,4.16984155537925E-16,41.75762966361468,29972.855405885726,1.5163852794666318E-26,-3.0237805537813303E-24,32.126395392425785,43.510273333534776,19.178656185263478,21.488850538354104,9.999999999985631,19.999999999971262,29.999999999956895,-2505.4577798168807,994.9656051626815,8.915930226821198E-4,630.4559697168968,411.9353971467608,0.00501410142674971,-0.00528080809365471,-0.013413766476516405,0.0,0.0,0.0,0.041968917766553246,0.7773352141650294,24.740419610063153
1.3999999999999566,2.0932223049591213E7,6.827597563013712E-21,1.3181925932144012E-20,2.0932223049591213E7,6.827597563013712E-21,1.3181925932144012E-20,-44.96862305787997,1.9295802470632872E-20,3.9612871439283134E-20,-9.645062526431047E-16,4.647866293228109E-15,44.96862305786532,29968.519091214985,1.8688532204520506E-26,-4.041843000870315E-24,32.12640870302101,47.264589732534894,19.871417956219492,23.744365449105516,9.999999999985631,19.999999999971262,29.999999999956895,-2698.1173834719193,994.9842268569032,8.917350656128636E-4,630.5800130573509,411.95081678890574,0.0060175448710101925,-0.006703923464853093,-0.015239890399363309,0.0,0.0,0.0,0.04519531249246622,0.9016230965155824,26.64285814833399
1.4999999999999456,2.0932218392189674E7,8.582478580173467E-21,1.908887073833692E-20,2.0932218392189674E7,8.582478580173467E-21,1.908887073833692E-20,-48.17936472679672,2.5826394428942593E-20,6.907338075564804E-20,-8.916478666520788E-16,-3.1285737889241716E-15,48.179364726781024,29963.8616896756,2.3492006016373832E-26,-5.853030807897756E-24,32.12642299922213,51.060033066466524,20.42270568325883,26.052400286060976,9.999999999985631,19.999999999971262,29.999999999956895,-2890.7618836068614,995.0042270340185,8.918876456055397E-4,630.7132633821454,411.96737820140476,0.007092300801994798,-0.008365534415683476,-0.017112149228924265,0.0,0.0,0.0,0.04842126638035041,1.0351476273370512,28.54514754522723
1.5999999999999346,2.093221341372731E7,1.0242513924491988E-20,2.572088120805212E-20,2.093221341372731E7,1.0242513924491988E-20,2.572088120805212E-20,-51.38983662655728,2.6689088322422685E-20,6.927412411630117E-20,4.145989107584569E-15,-2.1596223073738763E-15,51.38983662654065,29958.883227311075,2.803587025787303E-26,-7.886538296613948E-24,32.12643828095117,54.8880707921253,20.82871012723416,28.401649144118583,9.999999999985631,19.999999999971262,29.999999999956895,-3083.390197592439,995.0256055009143,8.920507659531581E-4,630.8557246764145,411.9850812931765,0.008223855862679604,-0.010282028961004448,-0.019014906584884913,0.0,0.0,0.0,0.051646747925324366,1.1779152618839364,30.447277110200552
1.6999999999999236,2.0932208114231963E7,1.384079266330116E-20,3.2055366235828575E-20,2.0932208114231963E7,1.384079266330116E-20,3.2055366235828575E-20,-54.600020700221286,3.975526411200619E-20,5.783010455642336E-20,-4.340278136893971E-15,8.496519731272106E-16,54.600020700203586,29953.58373196423,3.788510989357168E-26,-9.82881851465124E-24,32.126454548124784,58.73920706543373,21.08655346910386,30.779899979967567,9.999999999985631,19.999999999971262,29.999999999956895,-3276.0012420122152,995.0483620511668,8.922244301758056E-4,631.0074012004774,412.00392596684645,0.00939493863299772,-0.012468364700730317,-0.020932569063235384,0.0,0.0,0.0,0.05487172561910596,1.3299328995518878,32.349236144938736
1.7999999999999126,2.0932202493733358E7,1.8431861879314327E-20,3.7671544493499807E-20,2.0932202493733358E7,1.8431861879314327E-20,3.7671544493499807E-20,-57.809898876857055,4.164521282617213E-20,5.970472428464909E-20,1.1102230246251565E-15,9.59031031672053E-16,57.80989887683833,29947.963233359158,5.045182868687346E-26,-1.1550851463346198E-23,32.12647180065397,62.60324289582939,21.194375197863724,33.17427655403359,9.999999999985631,19.999999999971262,29.999999999956895,-3468.5939326103,995.0724964646939,8.924086420179812E-4,631.1682974875846,412.0239121184555,0.010585612323287821,-0.01493782822827498,-0.022849777524218063,0.0,0.0,0.0,0.058096167949808104,1.491207883661809,34.25101394283718
1.8999999999999015,2.0932196552262977E7,2.5873679042813592E-20,4.4685707276168464E-20,2.0932196552262977E7,2.5873679042813592E-20,4.4685707276168464E-20,-61.01945307066945,1.1100794459916038E-19,8.686705289669119E-20,4.081804338973427E-15,-8.200905232680356E-16,61.01945307064974,29942.021762978286,7.082164578036311E-26,-1.3701534519527144E-23,32.12649003844447,66.46957913906085,21.151389588189357,35.57152369021828,9.999999999985631,19.999999999971262,29.999999999956895,-3661.167184238984,995.0980085082875,8.926034054526369E-4,631.3384183475268,412.04503963789705,0.011773395954700758,-0.017701805295811765,-0.024751600704623025,0.0,0.0,0.0,0.0613200434016861,1.6617480012391483,36.15259978848496
1.9999999999998905,2.0932190289854124E7,3.666759642753895E-20,5.642232933796291E-20,2.0932190289854124E7,3.666759642753895E-20,5.642232933796291E-20,-64.22866518012846,8.929751696271891E-20,1.8330972253465224E-19,-2.031361190368841E-15,3.3456310638557696E-15,64.22866518010768,29935.75935412571,1.003668747080551E-25,-1.730021835211096E-23,32.12650926139658,70.32754472405223,20.957910437644184,37.95831803014617,9.999999999985631,19.999999999971262,29.999999999956895,-3853.719910806461,995.1248979353463,8.928087246791197E-4,631.5177688649211,412.06730840869176,0.012933413430713922,-0.02076956386052158,-0.026623729539353998,0.0,0.0,0.0,0.06454332045492749,1.8415614827707938,38.05398295714858
2.0999999999998797,2.093218370654193E7,4.609723774924634E-20,7.374840737416041E-20,2.093218370654193E7,4.609723774924634E-20,7.374840737416041E-20,-67.43751708709824,8.119673897440284E-20,1.4561180535154194E-19,1.0980799602933189E-14,-3.837208328860697E-15,67.43751708707633,29929.176041930914,1.2617781342218523E-25,-2.261274154512724E-23,32.12652946940511,74.16672948057278,20.615341154199662,40.32158343412926,9.999999999985631,19.999999999971262,29.999999999956895,-4046.2510252245797,995.1531644858649,8.930246041230737E-4,631.7063543992131,412.09071830797427,0.014038569684087041,-0.024148052060390467,-0.0284526705548662,0.0,0.0,0.0,0.06776596758543008,2.030657001949626,39.95515271425601
2.1999999999998687,2.0932176802363306E7,5.719256681529612E-20,9.172953554075074E-20,2.0932176802363306E7,5.719256681529612E-20,9.172953554075074E-20,-70.64599065596643,1.0896433284470548E-19,2.0405883072916566E-19,6.487865800153259E-16,1.3071141391485241E-15,70.64599065594348,29922.271863307804,1.5654810911335623E-25,-2.8126116252434855E-23,32.12655066235954,77.97730037260148,20.126130962391155,42.64878961999233,9.999999999985631,19.999999999971262,29.999999999956895,-4238.759439356609,995.1828078866147,8.932510484377953E-4,631.9041805859549,412.1152692066387,0.015059752867519477,-0.027841713077141922,-0.03022593668552907,0.0,0.0,0.0,0.07098795326456639,2.229043675407908,41.856098314880875
2.2999999999998577,2.0932169577356987E7,6.760163693164808E-20,1.1911482127534783E-19,2.0932169577356987E7,6.760163693164808E-20,1.1911482127534783E-19,-73.85406773277424,1.3371760824208816E-19,3.317675956341641E-19,5.152128723651117E-15,-3.821162136707912E-15,73.85406773275025,29915.04685698822,1.8503999167620991E-25,-3.6522994375024334E-23,32.12657284014391,81.75028195495238,19.493700570142114,44.92821464072817,9.999999999985631,19.999999999971262,29.999999999956895,-4431.244063965015,995.2138278510066,8.934880625031594E-4,632.1112533359653,412.14096096921963,0.015966061345639847,-0.03185231873829502,-0.031932233863966174,0.0,0.0,0.0,0.07420924595896887,2.436731062431171,43.75680900322682
2.3999999999998467,2.0932162031563558E7,8.545698215353435E-20,1.5067297910307576E-19,2.0932162031563558E7,8.545698215353435E-20,1.5067297910307576E-19,-77.06173014434712,2.341226764205492E-19,3.1554802337117224E-19,8.23646706393788E-15,-1.1115240672321391E-15,77.06173014432197,29907.501063559204,2.3391393588197717E-25,-4.619935881470956E-23,32.12659600263669,85.47778607622415,18.72234276927585,47.14915600092934,9.999999999985631,19.999999999971262,29.999999999956895,-4623.703808659318,995.2462240789358,8.937356514244156E-4,632.3275788343803,412.16779345375943,0.016725054042360018,-0.03617882359102325,-0.03356164174832323,0.0,0.0,0.0,0.07742981413031974,2.6537291646554775,45.657274012112666
2.4999999999998357,2.0932154165025383E7,1.0666497759864059E-19,1.741725148532642E-19,2.0932154165025383E7,1.0666497759864059E-19,1.741725148532642E-19,-80.26895969742583,2.586385480833387E-19,9.44296238329073E-20,4.538036613155327E-15,2.2724877535296173E-16,80.2689596973997,29899.634525384754,2.9196483983817278E-25,-5.340478802016348E-23,32.12662014971102,89.15318148227632,17.8171048824034,49.30208083280042,9.999999999985631,19.999999999971262,29.999999999956895,-4816.137581843982,995.2799962571244,8.939938205347783E-4,632.5531635430237,412.19576651208627,0.017303022502268624,-0.04081724104793712,-0.03510578697284292,0.0,0.0,0.0,0.08064962623510398,2.880048425760093,47.55748256245758
2.5999999999998247,2.0932145977786675E7,1.3371789778043878E-19,1.6989716142695528E-19,2.0932145977786675E7,1.3371789778043878E-19,1.6989716142695528E-19,-83.47573817779842,2.8689770174519395E-19,-2.0071564523244305E-19,5.224987109642143E-15,-1.601149768326593E-15,83.47573817777123,29891.447286676615,3.6601460721281527E-25,-5.209387886991285E-23,32.126645281234545,92.77120007764518,16.783660601632455,51.37871164158324,9.999999999985631,19.999999999971262,29.999999999956895,-5008.544290666274,995.3151440588238,8.942625753931246E-4,632.7880141985084,412.2248799895626,0.017665282838711886,-0.045760543059259196,-0.03655800734251837,0.0,0.0,0.0,0.08386865072440951,3.115699731131844,49.457423862766646
2.6999999999998137,2.0932137469893407E7,1.6662069467477726E-19,1.3371687287124845E-19,2.0932137469893407E7,1.6662069467477726E-19,1.3371687287124845E-19,-86.68204734943265,3.84098803478476E-19,-5.902293461575765E-19,-2.095545958979983E-15,2.645453300864631E-16,86.68204734940447,29882.939393408597,4.560768148085004E-25,-4.100027640081089E-23,32.12667139706959,96.32798226328977,15.628178615027746,53.372049772949154,9.999999999985631,19.999999999971262,29.999999999956895,-5200.922840964268,995.3516671441892,8.945419217868346E-4,633.0321378148346,412.25513372538967,0.01777648556667186,-0.050998584609752436,-0.037913505439520614,0.0,0.0,0.0,0.08708685604367565,3.3606944075300222,51.35708710861702
2.7999999999998026,2.0932128641393438E7,2.058906435709911E-19,6.068307934984067E-20,2.0932128641393438E7,2.058906435709911E-19,6.068307934984067E-20,-89.8878689536092,4.208645576541306E-19,-9.15946987521332E-19,-8.673617379884035E-15,-3.1519925558498585E-15,89.88786895357985,29874.1108934395,5.635673810317664E-25,-1.8606649802463165E-23,32.12669849707286,99.82106829543055,14.357194624242629,55.27634325874904,9.999999999985631,19.999999999971262,29.999999999956895,-5393.272137214792,995.389565159759,8.948318657277747E-4,633.2855416800023,412.28652755217,0.017600941155409656,-0.056518054170327195,-0.0391694901656725,0.0,0.0,0.0,0.09030421063251515,3.615044222712766,53.25646148214416
2.8999999999997916,2.0932119492336463E7,2.500280084879616E-19,-4.226180460218303E-20,2.0932119492336463E7,2.500280084879616E-19,-4.226180460218303E-20,-93.09318470805559,4.534555270883215E-19,-1.21404096512372E-18,2.338407245616736E-15,-2.076464000744238E-15,93.09318470802536,29864.961836464703,6.843812281726226E-25,1.2958317321367284E-23,32.126726581095525,103.24934562716734,12.977492129158863,57.08700868749199,9.999999999985631,19.999999999971262,29.999999999956895,-5585.591082481522,995.4288377386697,8.951324134539147E-4,633.5482333575505,412.3190612960801,0.017102958986909573,-0.06230245105822536,-0.04032530481451312,0.0,0.0,0.0,0.09352068292447868,3.878761385065584,55.15553615152904
2.9999999999997806,2.0932110022773962E7,2.949764500010207E-19,-1.8408560243005167E-19,2.0932110022773962E7,2.949764500010207E-19,-1.8408560243005167E-19,-96.29797630608084,4.706389250800669E-19,-1.6107568758468073E-18,5.079270337660091E-15,-3.514549762329011E-15,96.29797630604973,29855.492273963988,8.0741528791995595E-25,5.644433958838688E-23,32.126755648983455,106.6129636467625,11.495995918281425,58.80051816629648,9.999999999985631,19.999999999971262,29.999999999956895,-5777.878578362984,995.4694845008876,8.954435714310666E-4,633.8202206882077,412.3527347770553,0.016247197270803714,-0.06833209047316285,-0.04138254034463525,0.0,0.0,0.0,0.09673624134681291,4.151858543217199,57.05430027048509
3.0999999999997696,2.0932100232759293E7,3.45284182712858E-19,-3.637221382615967E-19,2.0932100232759293E7,3.45284182712858E-19,-3.637221382615967E-19,-99.50222541571068,5.589327434051452E-19,-1.9061587274319318E-18,8.604228440844963E-16,-2.949029909160572E-16,99.50222541567868,29845.70225929469,9.451190364122809E-25,1.1152450608217838E-22,32.12678570057686,109.91322730731918,9.919680759100192,60.41426248582812,9.999999999985631,19.999999999971262,29.999999999956895,-5970.133524940721,995.5115050528162,8.957653463498504E-4,634.1015117873766,412.38754780845886,0.014999021346889985,-0.07458413678340046,-0.04234513261488822,0.0,0.0,0.0,0.09995085432027795,4.434348785619102,58.95274297774596
3.1999999999997586,2.093209012234758E7,4.024763744728388E-19,-5.720190536164813E-19,2.093209012234758E7,4.024763744728388E-19,-5.720190536164813E-19,-102.70591367882426,5.568243504678119E-19,-2.2272087070276226E-18,-1.269123695024632E-14,-4.265685027426969E-15,102.70591367879109,29835.591847579926,1.1016672236854614E-24,1.7539252004036963E-22,32.12681673571067,113.15248019429553,8.255496481673129,61.92640061011081,9.999999999985631,19.999999999971262,29.999999999956895,-6162.354820727465,995.5548989877848,8.960977451293928E-4,634.3921150485073,412.42350019747903,0.013324867703422302,-0.08103266543745093,-0.043219442441351015,0.0,0.0,0.0,0.1031644902588821,4.72624564013884,60.85085339655406
3.2999999999997476,2.0932079691595856E7,4.588416799962067E-19,-8.095198882062353E-19,2.0932079691595856E7,4.588416799962067E-19,-8.095198882062353E-19,-105.90902271029096,6.047155272248309E-19,-2.3723358381746145E-18,-4.163336342344337E-16,1.5612511283791264E-16,105.90902271025658,29825.16109585762,1.255952209040659E-24,2.4821504164524735E-22,32.12684875421408,116.33398598519055,6.510309584624561,63.33570397583346,9.999999999985631,19.999999999971262,29.999999999956895,-6354.541362615395,995.5996658854166,8.964407749124601E-4,634.6920391389881,412.4605917445993,0.011192610952786352,-0.08764875367068256,-0.04401431744237905,0.0,0.0,0.0,0.10637711756972688,5.027563073596072,62.74862063414925
3.3999999999997366,2.0932068940562945E7,5.212342653619202E-19,-1.0419612732617135E-18,2.0932068940562945E7,5.212342653619202E-19,-1.0419612732617135E-18,-109.11153409710835,6.65028715390386E-19,-2.2835033979720224E-18,6.387251838546604E-15,1.1969591984239969E-15,109.11153409707296,29814.41006294638,1.4267353899722466E-24,3.194862344994072E-22,32.12688175591095,119.46181537553738,4.6908607033409515,64.6414021566506,9.999999999985631,19.999999999971262,29.999999999956895,-6546.692045824378,995.6458053122129,8.967944430698908E-4,635.0012930041701,412.49882224407503,0.008571930938565534,-0.09440059997048529,-0.04474113475564422,0.0,0.0,0.0,0.10958870465273104,5.338315491327746,64.64603378125804
3.4999999999997256,2.0932057869309563E7,5.831612200252899E-19,-1.2783925050516621E-18,2.0932057869309563E7,5.831612200252899E-19,-1.2783925050516621E-18,-112.31342939754127,6.154949202305784E-19,-2.4305197641946598E-18,8.253814298697648E-15,-5.0133508455729725E-16,112.31342939750515,29803.33880956471,1.5962442341676557E-24,3.9198079442308907E-22,32.12691574061943,122.54074365536385,2.8037367614444606,65.84303450712044,9.999999999985631,19.999999999971262,29.999999999956895,-6738.805763850309,995.6933168210513,8.97158757196708E-4,635.3198858641233,412.5381914835096,0.005434677097740252,-0.1012536720500958,-0.045413823833265525,0.0,0.0,0.0,0.11279921990046708,5.658517736693113,66.54308191158336
3.5999999999997145,2.093204647789822E7,6.4678365191104E-19,-1.5205890242774678E-18,2.093204647789822E7,6.4678365191104E-19,-1.5205890242774678E-18,-115.51469014026165,6.7687069210949665E-19,-2.361247642018887E-18,-3.5110803153770576E-15,-3.382710778154774E-15,115.5146901402245,29791.947398222983,1.7703941920676508E-24,4.6624310716154E-22,32.12695070815233,125.576162407962,0.855356346999767,66.94031063823037,9.999999999985631,19.999999999971262,29.999999999956895,-6930.88140841347,995.742199951657,8.975337251156988E-4,635.6478272169256,412.57869924423835,0.0017552271715993127,-0.10817088287246314,-0.046048868653634265,0.0,0.0,0.0,0.11600863169789458,5.988185090603392,68.4397540812949
3.6999999999997035,2.093203476639331E7,7.140341585158648E-19,-1.7570457005868757E-18,2.093203476639331E7,7.140341585158648E-19,-1.7570457005868757E-18,-118.71529782348918,6.454467241584047E-19,-2.4270792146464005E-18,6.147859998861804E-15,9.131584377541913E-15,118.71529782345118,29780.23589331284,1.954475241786704E-24,5.387454688854608E-22,32.126986658316795,128.5740073699852,-1.1480332309978798,67.93298109791061,9.999999999985631,19.999999999971262,29.999999999956895,-7122.917869407071,995.7924542302294,8.979193548745014E-4,635.98512683628,412.6203453010105,-0.0024891626526696298,-0.11511279405128251,-0.04666528882427221,0.0,0.0,0.0,0.1192169084221871,6.327333270996373,70.3360393285204
3.7999999999996925,2.093202273486105E7,7.812235131542826E-19,-2.003445183401833E-18,2.093202273486105E7,7.812235131542826E-19,-2.003445183401833E-18,-121.91523391413332,6.84663670363985E-19,-2.4863763145111664E-18,4.241398898763293E-15,2.6038199374411874E-15,121.91523391409443,29768.20436105132,2.1383891431369818E-24,6.142964945975071E-22,32.12702359091451,131.54070337193295,-3.2003486911152144,68.82071847536142,9.999999999985631,19.999999999971262,29.999999999956895,-7314.914034845666,995.8440791696918,8.983156547474803E-4,636.3317947733218,412.663129422188,-0.00731801907902732,-0.12203784574915706,-0.04728459919395271,0.0,0.0,0.0,0.12242401844248904,6.675978432322618,72.23192667283675
3.8999999999996815,2.0932010383369517E7,8.702271348650593E-19,-2.23971594004961E-18,2.0932010383369517E7,8.702271348650593E-19,-2.23971594004961E-18,-125.11447984693608,1.1092832076009033E-18,-2.211322791225586E-18,1.4779844015322396E-15,-7.629313847345998E-15,125.11447984689597,29755.8528695181,2.3820140126217323E-24,6.867418496224863E-22,32.12706150574158,134.4831264561505,-5.295654658883251,69.6030083124851,9.999999999985631,19.999999999971262,29.999999999956895,-7506.868790813758,995.8970742695408,8.987226332345244E-4,636.6878413557425,412.70705136961266,-0.012747327399425572,-0.12890261198408903,-0.04793074773860499,0.0,0.0,0.0,0.12562993011972,7.03413716499436,74.12740511476248
3.9999999999996705,2.09319977119887E7,9.846836723511876E-19,-2.4581485152492042E-18,2.09319977119887E7,9.846836723511876E-19,-2.4581485152492042E-18,-128.31301702361617,1.1819630097538344E-18,-2.2174327851617315E-18,1.294103713078698E-15,6.616235337375542E-15,128.3130170235749,29743.18148870021,2.6953098006910532E-24,7.53717660272407E-22,32.12710040258838,137.40858270091897,-7.428139781294432,70.27904865941427,9.999999999985631,19.999999999971262,29.999999999956895,-7698.781021414494,995.9514390156651,8.991402990596038E-4,637.053277186704,412.75211089844726,-0.01878922438328315,-0.1356620800543189,-0.048630031636997646,0.0,0.0,0.0,0.1288346118063868,7.401826494811774,76.0224636352507
4.099999999999704,2.0931984720790364E7,1.1100532475892825E-18,-2.6771869804142316E-18,2.0931984720790364E7,1.1100532475892825E-18,-2.6771869804142316E-18,-131.5108268120139,1.3221613426623375E-18,-2.1482660804446123E-18,-8.206976764846274E-15,-6.663072871226916E-15,131.51082681197133,29730.190290365368,3.0384775724819565E-24,8.20879248943589E-22,32.12714028123996,140.32480290355159,-9.59208592581074,70.84765681554904,9.999999999985631,19.999999999971262,29.999999999956895,-7890.6496087182795,996.0071728808996,8.995686611749803E-4,637.4281131487048,412.7983077576259,-0.02545171112460575,-0.14226995259562092,-0.04941099160610095,0.0,0.0,0.0,0.13203803184630117,7.779063882416304,77.91709119518224
4.199999999999737,2.0931971409848206E7,1.245110225626288E-18,-2.8825781624658614E-18,2.0931971409848206E7,1.245110225626288E-18,-2.8825781624658614E-18,-134.70789054523775,1.2981747418138873E-18,-1.9323366970921686E-18,-1.1098760799299612E-14,-6.265821195228227E-15,134.70789054519412,29716.879348207265,3.408162545234688E-24,8.838563067642163E-22,32.12718114147559,143.23995202519458,-11.781831047156276,71.30718171729174,9.999999999985631,19.999999999971262,29.999999999956895,-8082.473432711648,996.0642753244126,9.000077287564455E-4,637.8123603996007,412.84564168933684,-0.03273838852375793,-0.1486789705926234,-0.05030428472046657,0.0,0.0,0.0,0.1352401585744477,8.165867222654908,79.81127673486021
4.299999999999771,2.0931957779237736E7,1.3824321953275159E-18,-3.0562989908509424E-18,2.0931957779237736E7,1.3824321953275159E-18,-3.0562989908509424E-18,-137.90418952081097,1.4603675149840483E-18,-1.4887044287419217E-18,-5.904998712225051E-15,-6.4878658001532585E-15,137.90418952076627,29703.248737737536,3.784047870277911E-24,9.371225986496409E-22,32.12722298306908,146.16265210500856,-13.991726043165837,71.6554205448765,9.999999999985631,19.999999999971262,29.999999999956895,-8274.251371245977,996.1227457921801,9.004575112069138E-4,638.2060303759419,412.8941124294072,-0.04064821797450394,-0.15484125548925057,-0.0513425360980562,0.0,0.0,0.0,0.13844096031671121,8.562254843992864,81.70500917350422
4.399999999999804,2.093194382903639E7,1.5363502300764625E-18,-3.196480811336744E-18,2.093194382903639E7,1.5363502300764625E-18,-3.196480811336744E-18,-141.0997049998217,1.6685780126192647E-18,-1.3325449545160727E-18,-1.2472661792273243E-15,-5.689893001203927E-16,141.099704999776,29689.298536390066,4.2053611817563634E-24,9.801051577154724E-22,32.1272658057885,149.1020171388151,-16.21608567463884,71.88953841665874,9.999999999985631,19.999999999971262,29.999999999956895,-8465.982299986561,996.1825837165503,9.009180181530182E-4,638.6091347901879,412.94371970693123,-0.04917530970054826,-0.16070866836703634,-0.0525601699894411,0.0,0.0,0.0,0.14164040538972802,8.968245507847712,83.59827740874698
4.4999999999998375,2.093192955932347E7,1.708872755246448E-18,-3.3196300651239803E-18,2.093192955932347E7,1.708872755246448E-18,-3.3196300651239803E-18,-144.29441820607192,1.722643876681863E-18,-1.0880312414121644E-18,-4.548444954011188E-15,7.906869603502287E-15,144.29441820602517,29675.02882347256,4.677600138249199E-24,1.0178651900540388E-21,32.127309609396264,152.06769810911652,-18.449133403568304,72.00599053503798,9.999999999985631,19.999999999971262,29.999999999956895,-8657.66509236151,996.243788516462,9.013892594467335E-4,639.0216856323309,412.9944632444429,-0.05830874104247725,-0.1662331840036175,-0.05399322096388296,0.0,0.0,0.0,0.14483846210064896,9.383858407947058,85.49107031612995
4.599999999999871,2.0931914970180124E7,1.8965615485786095E-18,-3.422090740178279E-18,2.0931914970180124E7,1.8965615485786095E-18,-3.422090740178279E-18,-147.4883103252285,1.8541602884331102E-18,-8.229644683582962E-19,2.2776919239575477E-15,-2.8900493109773606E-15,147.48831032518066,29660.439680125564,5.191353608838728E-24,1.0492816890136343E-21,32.127354393649334,155.0699358614301,-20.684939820693454,72.00044688478118,9.999999999985631,19.999999999971262,29.999999999956895,-8849.29861951084,996.3063595976333,9.018712451667656E-4,639.4436951713167,413.04634275806126,-0.06803240683402396,-0.17136727747240488,-0.05567912603784422,0.0,0.0,0.0,0.1480350987469045,9.809113169668807,87.3833767486005
4.699999999999904,2.093190006168939E7,2.0764247076510133E-18,-3.506112977893481E-18,2.093190006168939E7,2.0764247076510133E-18,-3.506112977893481E-18,-150.68136250397657,1.7114582251448418E-18,-9.3805552669304E-19,5.178149575790769E-15,-7.119305145408816E-15,150.68136250392772,29645.531189393252,5.683687189145069E-24,1.075044593097212E-21,32.127400158298926,158.11961874137776,-22.91735420308302,71.86772063293922,9.999999999985631,19.999999999971262,29.999999999956895,-9040.881750235663,996.3702963522691,9.023639856162468E-4,639.8751759532369,413.0993579572386,-0.07832490382798181,-0.17606432080894427,-0.057656498741358156,0.0,0.0,0.0,0.15123028361604068,10.244029849323852,89.27518553601026
4.799999999999938,2.0931884833936222E7,2.2333519868101004E-18,-3.573060772587857E-18,2.0931884833936222E7,2.2333519868101004E-18,-3.573060772587857E-18,-153.87355584917316,1.220130362227242E-18,-3.641893844289283E-19,1.4710455076283324E-14,-1.2375517277618542E-14,153.87355584912322,29630.303436223418,6.113240352054468E-24,1.095572130332824E-21,32.12744690309056,161.2283407099067,-25.139928689972386,71.60170284507078,9.999999999985631,19.999999999971262,29.999999999956895,-9232.413350947394,996.4355981590741,9.028674913227634E-4,640.316140801569,413.15350854476054,-0.08915945093846457,-0.18027898714980634,-0.05996488626395208,0.0,0.0,0.0,0.15442398498551368,10.688628933439821,91.16648548461353
4.899999999999971,2.0931869287007473E7,2.31372358421457E-18,-3.58729238315023E-18,2.0931869287007473E7,2.31372358421457E-18,-3.58729238315023E-18,-157.06487142700254,4.226693859560602E-19,1.698237227150117E-19,1.8464396678297135E-14,-8.68749516769185E-15,157.06487142695192,29614.75650747493,6.333242125568851E-24,1.0999358277044176E-21,32.12749462776402,164.4084538838623,-27.345834628364283,71.19530815730671,9.999999999985631,19.999999999971262,29.999999999956895,-9423.892285617116,996.5022643832334,9.033817730381445E-4,640.7666028172085,413.208794216719,-0.10050384685672421,-0.18396765964199216,-0.06264451096191963,0.0,0.0,0.0,0.15761617112249077,11.14293133802168,93.05726537656716
5.000000000000004,2.0931853420991845E7,2.3234591727346707E-18,-3.519280369131705E-18,2.0931853420991845E7,2.3234591727346707E-18,-3.519280369131705E-18,-160.25529026213286,-1.953767487574118E-19,1.1608793580013026E-18,-8.977193988179977E-15,2.7547408798511697E-15,160.25529026208122,29598.89049184695,6.359895695387796E-24,1.0790819794692713E-21,32.127543332053584,167.6731069205779,-29.527770876426246,70.64043880503039,9.999999999985631,19.999999999971262,29.999999999956895,-9615.317415724872,996.570294376729,9.039068417408325E-4,641.2265753807703,413.2652146627642,-0.11232046637536937,-0.18708884233144063,-0.0657359976436205,0.0,0.0,0.0,0.16080681028359697,11.606958407823992,94.94751396943028
5.100000000000038,2.093183723597996E7,2.2539684188404902E-18,-3.3694001290922087E-18,2.093183723597996E7,2.2539684188404902E-18,-3.3694001290922087E-18,-163.44479333687534,-1.1971732735619714E-18,1.6892353934173157E-18,-2.917110997202599E-14,-7.192163531399842E-15,163.44479333682273,29582.70547996089,6.16968668824495E-24,1.0331256903586504E-21,32.127593015687744,171.0362571754072,-31.677864346386887,69.92797810556499,9.999999999985631,19.999999999971262,29.999999999956895,-9806.687600209363,996.6396874780011,9.04442708633206E-4,641.6960721504712,413.3227695658126,-0.12456629651938161,-0.18960357016344437,-0.06928008817632725,0.0,0.0,0.0,0.163995870714768,12.080731915542627,96.83721999566694
5.200000000000071,2.093182073206436E7,2.0994077228283454E-18,-3.1515434602019474E-18,2.093182073206436E7,2.0994077228283454E-18,-3.1515434602019474E-18,-166.63336159034327,-1.8161289587364937E-18,2.6537701704786757E-18,6.080205783298709E-16,-8.326672684688674E-17,166.63336159028927,29566.20156436041,5.74661915630557E-24,9.663264641393748E-22,32.12764367838923,174.51263992422548,-33.78756393686646,69.04782930928226,9.999999999985631,19.999999999971262,29.999999999956895,-9998.001695417355,996.7104430119624,9.049893851416098E-4,642.1751070623897,413.38145860204736,-0.1371930133372992,-0.19147581517459464,-0.0733173450788132,0.0,0.0,0.0,0.16718332065104724,12.564274061014117,98.72637216214704
5.300000000000105,2.093180390933947E7,1.8694476896887227E-18,-2.8179518176334323E-18,2.093180390933947E7,1.8694476896887227E-18,-2.8179518176334323E-18,-169.82097591761422,-2.967350942743295E-18,3.866951780254839E-18,-1.000241556248227E-14,-1.6264767310758543E-14,169.82097591755934,29549.378839470446,5.1171634849806045E-24,8.64040572638763E-22,32.127695319875116,178.11767206565244,-35.84753040295027,67.9890217650722,9.999999999985631,19.999999999971262,29.999999999956895,-10189.25855505356,996.7825602901868,9.055468829177447E-4,642.6636943319191,413.44128144106315,-0.15014709994892467,-0.19267288591593737,-0.0778878458742664,0.0,0.0,0.0,0.1703691283163581,13.057607470413691,100.61495914965094
5.400000000000138,2.093178676790163E7,1.5266756551225929E-18,-2.3783709176551857E-18,2.093178676790163E7,1.5266756551225929E-18,-2.3783709176551857E-18,-173.00761716889306,-3.852509104626607E-18,4.887319973519993E-18,1.1777905040144532E-14,-6.356026815979021E-15,173.00761716883713,29532.23740163073,4.178910892501104E-24,7.292562480234318E-22,32.12774793985676,-178.13273925555043,-37.84752683139623,66.73991344975279,9.999999999985631,19.999999999971262,29.999999999956895,-10380.457030130228,996.8560386107798,9.061152138375836E-4,643.1618484530627,413.50223774574755,-0.16337000618060415,-0.19316581712670355,-0.08303087007921826,0.0,0.0,0.0,0.17355326192332524,13.560755195398434,102.50296961237231
5.500000000000171,2.093176930784913E7,1.1271117139104E-18,-1.851821319606168E-18,2.093176930784913E7,1.1271117139104E-18,-1.851821319606168E-18,-176.19326614867634,-4.1325067785886385E-18,5.392031727457995E-18,-8.902600878712974E-15,1.1046719095020308E-14,176.19326614861902,29514.777349133044,3.0852023685645357E-24,5.678055754554857E-22,32.127801538039634,-174.22252010304317,-39.77631743276428,65.28852646048801,9.999999999985631,19.999999999971262,29.999999999956895,-10571.595968917141,996.9308772582333,9.066943900001731E-4,643.6695841976259,413.5643271721478,-0.1767983498483712,-0.19292974667851073,-0.08878458079567285,0.0,0.0,0.0,0.1767356896731052,14.073740712223366,104.390392177424
5.600000000000205,2.0931751529282123E7,7.291609147132793E-19,-1.3046367430509123E-18,2.0931751529282123E7,7.291609147132793E-19,-1.3046367430509123E-18,-179.37790361491938,-3.828812292393281E-18,5.14692671590288E-18,4.597017211338539E-16,-6.106226635438361E-15,179.3779036148608,29496.99878212437,1.9959076497026568E-24,4.000278044136233E-22,32.12785611412365,-170.13592870044536,-41.62158649522788,63.62305857928888,9.999999999985631,19.999999999971262,29.999999999956895,-10762.674216891648,997.0070755038553,9.072844237308738E-4,644.186916618309,413.62754936981537,-0.19036415947317842,-0.1919442768288191,-0.09518570295391839,0.0,0.0,0.0,0.17991637975511687,14.596587920902452,106.2772154443444
5.700000000000238,2.0931733432302743E7,3.4163998059242826E-19,-7.832165992223307E-19,2.0931733432302743E7,3.4163998059242826E-19,-7.832165992223307E-19,-182.56151027820442,-3.923156880741091E-18,5.275486078345001E-18,-1.897787482718627E-15,3.5457747848965937E-15,182.56151027814477,29478.901802744716,9.351604378197004E-25,2.401499254378942E-22,32.12791166780274,-165.85827586478126,-43.36989457563518,61.73261665856092,9.999999999985631,19.999999999971262,29.999999999956895,-10953.690616688686,997.0846326051936,9.078853275768146E-4,644.7138610449779,413.69190398131565,-0.20399515792882586,-0.1901938168565813,-0.10226920032019346,0.0,0.0,0.0,0.18309530034694838,15.129321144227818,108.16342798460428
5.800000000000272,2.093171501701506E7,-4.142458689283581E-20,-2.8565482475279265E-19,2.093171501701506E7,-4.142458689283581E-20,-2.8565482475279265E-19,-185.74406680091084,-3.894090121247747E-18,4.832122910199944E-18,8.77206293714572E-15,-2.5951463200613034E-15,185.74406680085,29460.486515060067,-1.1339032635897715E-25,8.758750125249132E-23,32.12796819876505,-161.37690697566194,-45.00669499344076,59.608211705820544,9.999999999985631,19.999999999971262,29.999999999956895,-11144.644008051,997.1635478063386,9.084971143091508E-4,645.2504330869006,413.7573906424661,-0.2176150862458783,-0.18766790421592067,-0.11006795344188468,0.0,0.0,0.0,0.18627241961411348,15.671965126867697,110.04901834111536
5.900000000000305,2.0931696283525046E7,-4.57156736168234E-19,2.3342339279404996E-19,2.0931696283525046E7,-4.57156736168234E-19,2.3342339279404996E-19,-188.92555379638696,-3.912181577295592E-18,5.5621901152288306E-18,-8.713732860265999E-16,-1.6341095143701523E-14,188.9255537963252,29441.75302504748,-1.2513630622011094E-24,-7.157229613188863E-23,32.12802570669299,-156.68246457079297,-46.51643947580818,57.244034631216046,9.999999999985631,19.999999999971262,29.999999999956895,-11335.533227779511,997.2438203380024,9.091197969235844E-4,645.7966486334698,413.82400898238916,-0.23114406650818697,-0.18436150141521718,-0.11861244074399976,0.0,0.0,0.0,0.18944770570984568,16.2245450344177,111.93397502773972
6.000000000000338,2.093167723194061E7,-8.343507755781729E-19,8.116705351676373E-19,2.093167723194061E7,-8.343507755781729E-19,8.116705351676373E-19,-192.1059518281243,-3.839122627489363E-18,5.7347248789968146E-18,-6.495455215360657E-16,-8.43769498715119E-15,192.1059518280616,29422.70144060999,-2.28384842477643E-24,-2.488744731587479E-22,32.12808419126318,-151.7704072308947,-47.88280547000791,54.63898823317596,9.999999999985631,19.999999999971262,29.999999999956895,-11526.357109683695,997.3254494174702,9.097533886399002E-4,646.3525238540635,413.8917586234591,-0.2444990024991408,-0.18027526592665127,-0.12793042502130111,0.0,0.0,0.0,0.19262112677491636,16.78708645241174,113.81828652880027
6.100000000000372,2.093165786237163E7,-1.2221919705055465E-18,1.3884409148677727E-18,2.093165786237163E7,-1.2221919705055465E-18,1.3884409148677727E-18,-195.28524140893322,-3.796102513062768E-18,5.590857826805477E-18,-9.500863637490475E-15,1.2302658891627516E-14,195.28524140886964,29403.331871632487,-3.345479948371905E-24,-4.257238451170334E-22,32.12814365214629,-146.6426892314142,-49.089076172749465,51.798379843085954,9.999999999985631,19.999999999971262,29.999999999956895,-11717.114484532178,997.4084342483775,9.103979029001359E-4,646.9180751967126,413.9606391811031,-0.25759401647684815,-0.17541579054559323,-0.13804664758655266,0.0,0.0,0.0,0.19579265093749043,17.359615385281376,115.70194129859264
6.200000000000405,2.0931638174929928E7,-1.603937840873805E-18,1.9453307371750137E-18,2.0931638174929928E7,-1.603937840873805E-18,1.9453307371750137E-18,-198.4634030001207,-3.7360860590378174E-18,5.6400191335099234E-18,5.419276138951545E-15,1.061650767297806E-15,198.4634030000565,29383.644429929554,-4.390428886424342E-24,-5.964774392530564E-22,32.12820408900721,-141.30940908688814,-50.118693906353386,48.73558272318038,9.999999999985631,19.999999999971262,29.999999999956895,-11907.80418000339,997.4927740209489,9.110533533703424E-4,647.4933193899216,414.0306502639864,-0.2703409201863213,-0.16979581175326272,-0.14898253233835365,0.0,0.0,0.0,0.19896224631289466,17.942158255354297,117.58492776089793
6.300000000000439,2.093161816972931E7,-1.9933920363616346E-18,2.5119454131308476E-18,2.093161816972931E7,-1.9933920363616346E-18,2.5119454131308476E-18,-201.64041701067052,-3.860168204027817E-18,5.998259306967829E-18,-8.309325449928906E-16,4.85722573273506E-16,201.6404170106047,29363.63922931254,-5.456479746209101E-24,-7.7021286865779425E-22,32.12826550150482,-135.79013156742522,-50.95598471904916,45.473370784937856,9.999999999985631,19.999999999971262,29.999999999956895,-12098.425020636281,997.5784679117278,9.117197539383755E-4,648.0782734410127,414.101791473774,-0.28264971794752486,-0.1634343837845344,-0.16075590199830725,0.0,0.0,0.0,0.2021298810034862,18.53474190175366,119.46723430849651
6.400000000000472,2.0931597846885465E7,-2.3487700303803903E-18,3.1080847136334416E-18,2.0931597846885465E7,-2.3487700303803903E-18,3.1080847136334416E-18,-204.8162637964251,-3.242104869285602E-18,5.924748486046394E-18,1.435917357239802E-14,-2.2343238370581275E-15,204.81626379635824,29343.316385466605,-6.4292564175952126E-24,-9.530011403931549E-22,32.12832788929238,-130.11451522772055,-51.58701644325523,42.04455867137404,9.999999999985631,19.999999999971262,29.999999999956895,-12288.975827781494,997.6655150841191,9.123971187180208E-4,648.6729546400311,414.17406240556727,-0.2944291394057232,-0.15635701627446646,-0.17338070874356276,0.0,0.0,0.0,0.2052955230983627,19.137393579396996,121.34884930268464
6.500000000000505,2.0931577206516124E7,-2.6805632772079548E-18,3.696292568097497E-18,2.0931577206516124E7,-2.6805632772079548E-18,3.696292568097497E-18,-207.99092365926978,-3.239721497286372E-18,5.832858582520004E-18,-8.743006318923108E-16,1.6465995233971853E-14,207.99092365920174,29322.676016125828,-7.337476817273017E-24,-1.133357471619771E-21,32.12839125201697,-124.32188862610744,-52.00050908026316,38.49159039532507,9.999999999985631,19.999999999971262,29.999999999956895,-12479.455419552105,997.7539146876569,9.130854620431778E-4,649.2773805549315,414.24746264728134,-0.3055871992755221,-0.14859577353694706,-0.18686678141561833,0.0,0.0,0.0,0.20845914067332577,19.750140957769517,123.22976107278957
6.600000000000539,2.0931556248740945E7,-3.042816193077017E-18,4.2748713148117435E-18,2.0931556248740945E7,-3.042816193077017E-18,4.2748713148117435E-18,-211.1643768463197,-3.878601870655499E-18,5.715493438469159E-18,-6.102757188486407E-15,-6.4878658001532585E-15,211.16437684625052,29301.71824094653,-8.329076138706316E-24,-1.310761325191488E-21,32.12845558931992,-118.45955718241893,-52.18867767219356,34.86485850576258,9.999999999985631,19.999999999971262,29.999999999956895,-12669.862610775031,997.8436658585634,9.137847984721129E-4,649.8915690356037,414.32199178009523,-0.31603178118571584,-0.1401893337360129,-0.20121959143720497,0.0,0.0,0.0,0.21162070179059092,20.373012119873916,125.10995791568872
6.700000000000572,2.093153497368163E7,-3.393701641355904E-18,4.839057000547061E-18,2.093153497368163E7,-3.393701641355904E-18,4.839057000547061E-18,-214.33660354910748,-3.127535567418116E-18,5.560736148784909E-18,2.54154336465362E-14,9.034439862887211E-15,214.33660354903748,29280.443181630224,-9.289561478448645E-24,-1.4837519774542125E-21,32.128520900836406,-112.57988839024702,-52.14787077175761,31.21980152722181,9.999999999985631,19.999999999971262,29.999999999956895,-12860.196212942248,997.9347677192405,9.144951427833727E-4,650.5155382105839,414.39764937801465,-0.32567124249838353,-0.13118300641865147,-0.21644003949280194,0.0,0.0,0.0,0.21478017449871437,21.006035560978265,126.98942809532824
6.800000000000606,2.093151338146178E7,-3.664149808139E-18,5.395163782226538E-18,2.093151338146178E7,-3.664149808139E-18,5.395163782226538E-18,-217.5075839027753,-2.4742682047269326E-18,5.701487251679473E-18,6.375108774214766E-15,-9.610368056911511E-15,217.5075839027041,29258.85096178204,-1.0029868155446942E-23,-1.6542654756211778E-21,32.12858718619589,-106.7365453998014,-51.87888616096598,27.61314972217188,9.999999999985631,19.999999999971262,29.999999999956895,-13050.455034162247,998.0272193788936,9.15216509980532E-4,651.1493064915277,414.4744350083749,-0.3344150367803436,-0.12162870711289664,-0.23252426495142717,0.0,0.0,0.0,0.2179375268322863,21.649240187529823,128.86815984224393
6.900000000000639,2.0931491472207043E7,-3.883175968242742E-18,5.947008336586415E-18,2.0931491472207043E7,-3.883175968242742E-18,5.947008336586415E-18,-220.6772979852672,-2.1109514772041847E-18,5.424521429999554E-18,-4.326400349086157E-15,2.5396351688300456E-15,220.67729798519497,29236.94170704484,-1.0629419044617966E-23,-1.8234720893655993E-21,32.128654445021695,-100.98049345417525,-51.38690097875566,24.098943695041473,9.999999999985631,19.999999999971262,29.999999999956895,-13240.637879111699,998.121019932975,9.159489152877394E-4,651.792892569603,414.552348231364,-0.3421743504030387,-0.11158488793072155,-0.24946347990552986,0.0,0.0,0.0,0.22109272681187478,22.302655315836798,130.74614135308337
7.000000000000672,2.0931469246045057E7,-4.094316902381653E-18,6.481309491730573E-18,2.0931469246045057E7,-4.094316902381653E-18,6.481309491730573E-18,-223.8457258165257,-1.808743626038864E-18,5.297929990110165E-18,2.813721478034381E-15,1.099120794378905E-14,223.84572581645278,29214.71554505825,-1.1207387103983155E-23,-1.9872995448825708E-21,32.12872267693116,-95.35647513484736,-50.681030402543705,20.72502183012415,9.999999999985631,19.999999999971262,29.999999999956895,-13430.743548987168,998.2161684633778,9.166923741510982E-4,652.4463154170161,414.6313886001683,-0.3488627495859777,-0.10111642337307095,-0.267243829595905,0.0,0.0,0.0,0.22424574244381376,22.96631067085023,132.62336079012965
7.100000000000706,2.0931446703105427E7,-4.271916759652233E-18,6.996678194803185E-18,2.0931446703105427E7,-4.271916759652233E-18,6.996678194803185E-18,-227.01284735769,-1.4367436181878946E-18,4.946993323163727E-18,8.11156697366755E-15,-3.497896416959634E-14,227.01284735761618,29192.172605428845,-1.1693544370392801E-23,-2.1453219306935984E-21,32.12879188153569,-89.90050447023611,-49.773601078535435,17.53052665258922,9.999999999985631,19.999999999971262,29.999999999956895,-13620.770841456972,998.3126640385824,9.174469022396855E-4,653.1095942882205,414.7115556610778,-0.35439683403867267,-0.09029445079355101,-0.2858462808640416,0.0,0.0,0.0,0.22739654171999923,23.64023638491393,134.49980628082582
7.200000000000739,2.0931423843519792E7,-4.391667773352951E-18,7.502512384885673E-18,2.0931423843519792E7,-4.391667773352951E-18,7.502512384885673E-18,-230.17864251029613,-1.1451083796454254E-18,5.176764861666908E-18,6.29704621779581E-15,2.724209746673978E-14,230.17864251022073,29169.31301979348,-1.2021352695251105E-23,-2.300420843501196E-21,32.12886205844061,-84.63863597920744,-48.679268768104414,14.544686216722278,9.999999999985631,19.999999999971262,29.999999999956895,-13810.718550613243,998.4105057134035,9.182125154434456E-4,653.7827487183876,414.7928489532612,-0.35869689322449155,-0.07919616524924578,-0.305246540136986,0.0,0.0,0.0,0.23054509261777723,24.324462996407572,136.37546591730163
7.3000000000007725,2.093140066742181E7,-4.52924627368769E-18,7.978523248577622E-18,2.093140066742181E7,-4.52924627368769E-18,7.978523248577622E-18,-233.3430911154814,-2.0272975928158265E-18,4.676958330016899E-18,-8.593820099989102E-15,-1.2073675392798577E-15,233.3430911154047,29146.13692181185,-1.2397961320455861E-23,-2.446375325999081E-21,32.12893320724514,-79.58695012862063,-47.4141145687459,11.78681202813276,9.999999999985631,19.999999999971262,29.999999999956895,-14000.585466924282,998.5096925290413,9.189892298734564E-4,654.465798523962,414.875268008792,-0.3616875611622585,-0.06790456874618783,-0.32541500230371195,0.0,0.0,0.0,0.23369136309976915,25.019021448416687,138.25032775590236
7.400000000000806,2.0931377174947135E7,-4.720356690933851E-18,8.459533900101623E-18,2.0931377174947135E7,-4.720356690933851E-18,8.459533900101623E-18,-236.50617295318943,-1.918582462731849E-18,4.7972069478778174E-18,-1.9116652705264414E-14,1.1796119636642288E-14,236.5061729531112,29122.64444713667,-1.2921104709276345E-23,-2.5938628437726045E-21,32.12900532754253,-74.75247183275718,-45.99482734587518,9.267230148208926,9.999999999985631,19.999999999971262,29.999999999956895,-14190.370377186671,998.6102235132289,9.197770618629365E-4,655.158763803877,414.95881235275414,-0.36329846559068174,-0.056508174169716,-0.34631673168045896,0.0,0.0,0.0,0.23683532111367098,25.72394308739413,140.1243798167171
7.500000000000839,2.0931353366233476E7,-4.888988268872052E-18,8.941705164325151E-18,2.0931353366233476E7,-4.888988268872052E-18,8.941705164325151E-18,-239.66786774137955,-1.2014503152104296E-18,4.697343251097036E-18,1.3242879015606945E-14,3.6359804056473877E-14,239.66786774130043,29098.835733477026,-1.3382717734211442E-23,-2.741706228688793E-21,32.12907841891982,-70.13464828954164,-44.43803782181525,6.988771786558922,9.999999999985631,19.999999999971262,29.999999999956895,-14380.072064478025,998.7120976799798,9.205760279651378E-4,655.8616649380311,415.0434815030167,-0.3634648672552578,-0.04510066447761509,-0.36791147609115316,0.0,0.0,0.0,0.23997693459215255,26.439259661707734,141.997610083111
7.600000000000873,2.0931329241420537E7,-4.849389967285864E-18,9.325261735506421E-18,2.0931329241420537E7,-4.849389967285864E-18,9.325261735506421E-18,-242.82815513523843,2.0582821944222454E-18,2.8391209670107995E-18,-2.2652019149305147E-14,-5.738465258531278E-15,242.82815513515834,29074.710920538753,-1.327433987272696E-23,-2.8593123699042054E-21,32.12915248095807,-65.72703727275058,-42.75982810191092,4.948474498665894,9.999999999985631,19.999999999971262,29.999999999956895,-14569.6893081095,998.8153140298639,9.213861449553496E-4,656.5745225893892,415.12927497044575,-0.3621282850414919,-0.03378050802460006,-0.3901537149130795,0.0,0.0,0.0,0.24311617145263154,27.16500332026867,143.8700065012574
7.700000000000906,2.093130480065007E7,-4.540086623876924E-18,9.527072126844061E-18,2.093130480065007E7,-4.540086623876924E-18,9.527072126844061E-18,-245.98701472639405,4.2674470534624535E-18,1.1260196637168892E-18,1.4432899320127035E-14,2.120525977034049E-14,245.98701472631302,29050.270150072873,-1.2427691663248231E-23,-2.921191485439356E-21,32.129227513232166,-61.51894616165714,-40.975409122765434,3.139234251632324,9.999999999985631,19.999999999971262,29.999999999956895,-14759.22088357878,998.9198715498193,9.22207429829283E-4,657.2973577029,415.2161922587316,-0.3592371026573517,-0.022650531176142682,-0.41299274174401407,0.0,0.0,0.0,0.2462529995971608,27.901206611029085,145.741556979673
7.8000000000009395,2.0931280044065874E7,-3.989489561935975E-18,9.571507613484338E-18,2.0931280044065874E7,-3.989489561935975E-18,9.571507613484338E-18,-249.1444260421338,6.396556503424337E-18,-2.587434527831886E-19,1.4065137943219952E-14,1.3475331961387838E-14,249.144426042052,29025.51356587559,-1.0920541592736029E-23,-2.934816297290962E-21,32.12930351531086,-57.49686628191466,-39.09894041547444,1.5512528919809563,9.999999999985631,19.999999999971262,29.999999999956895,-14948.66556252312,999.0257692131736,9.230398998030799E-4,658.0301915058485,415.3042328643887,-0.35474715258341133,-0.011817449659950852,-0.4363727821552561,0.0,0.0,0.0,0.24938738691226903,28.64790247949156,147.612249388754
7.900000000000973,2.093125497181381E7,-3.2638795264745375E-18,9.481759308878507E-18,2.093125497181381E7,-3.2638795264745375E-18,9.481759308878507E-18,-252.30036854462384,8.256111172339864E-18,-1.5951793837227692E-18,-7.153999614928352E-15,-7.36216643204557E-15,252.30036854454102,29000.441313810647,-8.934319607590327E-24,-2.9072976661987866E-21,32.129380486756666,-53.64563563275101,-37.14345979228199,0.17321402378694328,9.999999999985631,19.999999999971262,29.999999999956895,-15138.022112672461,999.1330059795681,9.238835723125605E-4,658.7730455075424,415.3933962766762,-0.3486222730425595,-0.0013913603894879828,-0.4602331467890085,0.0,0.0,0.0,0.25251930126882616,29.40512426716235,149.4820715603138
8.000000000001005,2.0931229584041797E7,-2.2763834400731383E-18,9.204033009975866E-18,2.0931229584041797E7,-2.2763834400731383E-18,9.204033009975866E-18,-255.4548216301329,1.101292827648089E-17,-4.0306947473713386E-18,9.582612481295882E-15,-1.8735013540549517E-14,255.45482163004908,28975.053541798145,-6.231223213427534E-24,-2.822141210066683E-21,32.12945842712592,-49.94932412061155,-35.12089133686988,-1.00681868344269,9.999999999985631,19.999999999971262,29.999999999956895,-15327.289297802945,999.2415807950273,9.247384650135999E-4,659.5259414999945,415.4836819776368,-0.34083483380539736,0.008514804223857086,-0.48450841985145904,0.0,0.0,0.0,0.25564871052187726,30.172905710006184,151.35101128712333
8.10000000000095,2.093120388089984E7,-1.0231284312218382E-18,8.720307871953921E-18,2.093120388089984E7,-1.0231284312218382E-18,8.720307871953921E-18,-258.6077646282587,1.3818785028305156E-17,-5.904207643770488E-18,1.0547118733938987E-14,-1.2448375663609568E-14,258.6077646281746,28949.350399840623,-2.800648321157728E-24,-2.673821376263685E-21,32.12953733596869,-46.39187004213818,-33.042104787152304,-2.0007521573660356,9.999999999985631,19.999999999971262,29.999999999956895,-15516.465877690476,999.3514925918678,9.256045957812501E-4,660.2889015575059,415.57508944200447,-0.33136622673461213,0.017785857177679252,-0.5091286828374899,0.0,0.0,0.0,0.2587755825105184,30.95128093682813,153.21905632245242
8.200000000000895,2.0931177862539914E7,4.796464059975888E-19,8.005858668581789E-18,2.0931177862539914E7,4.796464059975888E-19,8.005858668581789E-18,-261.75917680115765,1.616781806465316E-17,-8.361466757023958E-18,-1.8866852524723754E-14,-2.3467339183014246E-14,261.7591768010732,28923.332039915025,1.3129559598967271E-24,-2.4547569142881093E-21,32.1296172128291,-42.957511329022566,-30.91700541959023,-2.820020239061247,9.999999999985631,19.999999999971262,29.999999999956895,-15705.55060806439,999.4627402891821,9.264819827133802E-4,661.061948040234,415.66761813758797,-0.3202073170896742,0.026304970444546567,-0.5340197731103005,0.0,0.0,0.0,0.26189988505762474,31.74028446777268,155.08619437961326
8.30000000000084,2.0931151529116187E7,2.1828793918731054E-18,7.10046049209421E-18,2.0931151529116187E7,2.1828793918731054E-18,7.10046049209421E-18,-264.9090373427773,1.7726919786118725E-17,-1.0271577473046038E-17,7.029099524658022E-15,8.951173136040325E-15,264.90903734269097,28896.998616188765,5.975293627129635E-24,-2.177143665550801E-21,32.12969805724469,-39.63105731760828,-28.75463933541055,-3.475300150662039,9.999999999985631,19.999999999971262,29.999999999956895,-15894.542240561457,999.5753227919362,9.273706441233872E-4,661.845103588134,415.7612675245023,-0.30735885174661887,0.03395431837867347,-0.5591035767286281,0.0,0.0,0.0,0.26502158596994047,32.53995121242399,156.9524131315056
8.400000000000784,2.0931124880784884E7,3.9718692145881946E-18,6.070696536070146E-18,2.0931124880784884E7,3.9718692145881946E-18,6.070696536070146E-18,-268.05732537809286,1.8040745020918105E-17,-1.021797654459659E-17,-9.305056725139593E-15,1.0443035325380379E-14,268.05732537800606,28870.350284885615,1.0872389518957907E-23,-1.8613973732692586E-21,32.12977986874679,-36.3980424384078,-26.563303904927963,-3.9763480592287275,9.999999999985631,19.999999999971262,29.999999999956895,-16083.439522680363,999.6892389915648,9.28270598544707E-4,662.6383911253013,415.8560370556454,-0.2928318206681507,0.04061574789887366,-0.5842983547150103,0.0,0.0,0.0,0.26814065303778994,33.350316468260786,158.8177002101661
