time,feVelocity_ft_s_X,feVelocity_ft_s_Y,feVelocity_ft_s_Z,altitudeMsl_ft,longitude_deg,latitude_deg,localGravity_ft_s2,eulerAngle_deg_Yaw,eulerAngle_deg_Pitch,eulerAngle_deg_Roll,bodyAngularRateWrtEi_deg_s_Roll,bodyAngularRateWrtEi_deg_s_Pitch,bodyAngularRateWrtEi_deg_s_Yaw,altitudeRateWrtMsl_ft_min,speedOfSound_ft_s,airDensity_slug_ft3,ambientPressure_lbf_ft2,ambientTemperature_dgR,aero_bodyForce_lbf_X,aero_bodyForce_lbf_Y,aero_bodyForce_lbf_Z,aero_bodyMoment_ftlbf_L,aero_bodyMoment_ftlbf_M,aero_bodyMoment_ftlbf_N,mach,trueAirspeed_nmi_h
0.0,0.01,0.0,0.0,30000.0,0.0,0.0,0.0,0.0,0.0,0.0,9.999999988558965,19.99999997711793,30.000000022972678,0.0,994.8492583,8.90951E-4,629.8546116,411.8392612,-8.75E-10,0.0,0.0,0.0,0.0,0.0,1.01E-5,0.005924838
0.1,0.009999986,3.45E-25,3.208189658,29999.83959,2.66E-32,2.73E-9,0.0,3.014778782,1.978243987,1.042479978,9.999999988558965,19.99999997711793,30.000000022972678,-192.4913795,994.8499466,8.90956E-4,629.859189,411.8398311,2.02E-6,-1.18E-6,-7.29E-5,0.0,0.0,0.0,0.003224813,1.900809633
0.2,0.009999944,4.27E-23,6.416361412,29999.35836,4.68E-31,5.47E-9,0.0,6.06949517,3.899364976,2.189229195,9.999999988558965,19.99999997711793,30.000000022972678,-384.9816847,994.85202,8.90972E-4,629.8728316,411.8415477,2.05E-5,-1.17E-5,-3.24147E-4,0.0,0.0,0.0,0.006449571,3.801594809
0.3,0.009999874,-5.05E-23,9.624497351,29998.55632,1.46E-29,8.2E-9,0.0,9.170066568,5.756777029,3.440577326,9.999999988558965,19.99999997711793,30.000000022972678,-577.4698411,994.8554617,8.90998E-4,629.8955686,411.8443973,7.27E-5,-4.34E-5,-7.52403E-4,0.0,0.0,0.0,0.009674272,5.702361841
0.4,0.009999777,3.9E-22,12.83257956,29997.43346,6.61E-29,1.09E-8,0.0,12.32167655,7.543972744,4.796238604,9.999999988558965,19.99999997711793,30.000000022972678,-769.9547738,994.8602884,8.91034E-4,629.9274214,411.8483936,1.74567E-4,-1.10025E-4,-0.001353764,0.0,0.0,0.0,0.01289888,7.603097812
0.5,0.009999651,4.58E-22,16.04059014,29995.98981,9.77E-29,1.37E-8,0.0,15.52886404,9.254276131,6.255705386,9.999999988558965,19.99999997711793,30.000000022972678,-962.4354083,994.8664835,8.91081E-4,629.9683193,411.8535228,3.40102E-4,-2.26688E-4,-0.002122774,0.0,0.0,0.0,0.016123363,9.503791646
0.6,0.009999498,-8.44E-23,19.24851116,29994.22535,2.3E-28,1.64E-8,0.0,18.7954283,10.88086106,7.818104484,9.999999988558965,19.99999997711793,30.000000022972678,-1154.91067,994.8740635,8.91138E-4,630.018384,411.8597987,5.81581E-4,-4.09862E-4,-0.003052464,0.0,0.0,0.0,0.019347689,11.40443257
0.7,0.009999316,-2.79E-21,22.4563247,29992.14011,-1.19E-28,1.91E-8,0.0,22.12432059,12.41678346,9.482045021,9.999999988558965,19.99999997711793,30.000000022972678,-1347.379482,994.8830201,8.91206E-4,630.0775056,411.8672145,9.09129E-4,-6.77135E-4,-0.004134426,0.0,0.0,0.0,0.022571827,13.30500991
0.8,0.009999107,-8.98E-22,25.66401285,29989.73409,-3.31E-28,2.19E-8,0.0,25.51752629,13.85502881,11.24546125,9.999999988558965,19.99999997711793,30.000000022972678,-1539.840771,994.8933533,8.91284E-4,630.1457348,411.8757701,0.001330587,-0.001046987,-0.005358899,0.0,0.0,0.0,0.025795745,15.20551301
0.9,0.009998869,-5.51E-21,28.87155766,29987.00731,-1.04E-27,2.46E-8,0.0,28.9759435,15.18857581,13.10545557,9.999999988558965,19.99999997711793,30.000000022972678,-1732.29346,994.9050712,8.91372E-4,630.2230331,411.8854724,0.00185135,-0.00153856,-0.006714873,0.0,0.0,0.0,0.029019411,17.10593122
1.0,0.009998604,2.63E-21,32.0789412,29983.95978,-1.89E-27,2.73E-8,0.0,32.49926574,16.41047708,15.0581491,9.999999988558965,19.99999997711793,30.000000022972678,-1924.736472,994.9181574,8.91471E-4,630.3094807,411.8963077,0.002474232,-0.002171416,-0.008190204,0.0,0.0,0.0,0.032242796,19.00625391
1.1,0.009998311,-1.2E-20,35.28614553,29980.59153,-3.38E-27,3.01E-8,0.0,36.08587843,17.51395613,17.09854892,9.999999988558965,19.99999997711793,30.000000022972678,-2117.168732,994.9326199,8.9158E-4,630.4049889,411.9082828,0.003199352,-0.002965288,-0.009771743,0.0,0.0,0.0,0.035465866,20.90647043
1.2,0.00999799,9.13E-21,38.49315269,29976.90256,-4.07E-27,3.28E-8,0.0,39.73278037,18.49251948,19.22044282,9.999999988558965,19.99999997711793,30.000000022972678,-2309.589161,994.9484672,8.917E-4,630.5096198,411.9214046,0.00402405,-0.003939825,-0.011445484,0.0,0.0,0.0,0.038688591,22.80657015
1.3,0.009997641,2.54E-20,41.69994471,29972.8929,-6.2E-28,3.55E-8,0.0,43.43554201,19.34008071,21.41633307,9.999999988558965,19.99999997711793,30.000000022972678,-2501.996682,994.9656907,8.9183E-4,630.6233642,411.9356662,0.004942825,-0.005114331,-0.013196705,0.0,0.0,0.0,0.041910939,24.70654241
1.4,0.009997264,1.35E-20,44.90650362,29968.56258,1.95E-27,3.83E-8,0.0,47.18831214,20.05109224,23.67742034,9.999999988558965,19.99999997711793,30.000000022972678,-2694.390217,994.9842904,8.9197E-4,630.7461735,411.9510677,0.005947302,-0.006507506,-0.015010144,0.0,0.0,0.0,0.045132878,26.60637657
1.5,0.009996859,2.86E-20,48.11281144,29963.91161,9.04E-27,4.1E-8,0.0,50.98388227,20.62067901,25.99364699,9.999999988558965,19.99999997711793,30.000000022972678,-2886.768686,995.004258,8.92121E-4,630.878089,411.9676021,0.007026228,-0.008137188,-0.016870164,0.0,0.0,0.0,0.048354378,28.50606196
1.6,0.009996426,2.49E-20,51.31885016,29958.94003,1.06E-26,4.37E-8,0.0,54.81381503,21.04476679,28.35380549,9.999999988558965,19.99999997711793,30.000000022972678,-3079.13101,995.0256099,8.92282E-4,631.0191334,411.9852832,0.008165496,-0.010020086,-0.018760935,0.0,0.0,0.0,0.051575407,30.40558793
1.7,0.009995965,1.04E-21,54.52460178,29953.64785,6.31E-27,4.65E-8,0.0,58.66863716,21.32019782,30.74571252,9.999999988558965,19.99999997711793,30.000000022972678,-3271.476107,995.0483378,8.92454E-4,631.1692982,412.0041042,0.009348199,-0.012171535,-0.020666622,0.0,0.0,0.0,0.054795934,32.3049438
1.8,0.009995476,-9.64E-20,57.73004827,29948.03512,-4.25E-27,4.92E-8,0.0,62.53809231,21.4448257,33.15644348,9.999999988558965,19.99999997711793,30.000000022972678,-3463.802896,995.0724416,8.92635E-4,631.3285353,412.0240649,0.010554708,-0.014605242,-0.022571578,0.0,0.0,0.0,0.058015926,34.20411889
1.9,0.009994959,-1.48E-19,60.9351716,29942.10185,-2.35E-26,5.19E-8,0.0,66.4114418,21.41758296,35.57261565,9.999999988558965,19.99999997711793,30.000000022972678,-3656.110296,995.0979211,8.92828E-4,631.4968969,412.0451656,0.011762791,-0.017333044,-0.024460537,0.0,0.0,0.0,0.061235353,36.10310251
2.0,0.009994414,-6.58E-20,64.13995371,29935.84809,-5.17E-26,5.47E-8,0.0,70.27779672,21.2385161,37.9807027,9.999999988558965,19.99999997711793,30.000000022972678,-3848.397223,995.1247763,8.93031E-4,631.6743852,412.067406,0.012947748,-0.020364692,-0.02631882,0.0,0.0,0.0,0.064454183,38.00188397
2.1,0.009993841,-1.19E-19,67.34437653,29929.27387,-8.35E-26,5.74E-8,0.0,74.12646034,20.90878529,40.3673598,9.999999988558965,19.99999997711793,30.000000022972678,-4040.662592,995.1530071,8.93244E-4,631.8609525,412.0907863,0.014082586,-0.023707625,-0.028132528,0.0,0.0,0.0,0.067672385,39.90045256
2.2,0.00999324,-1.99E-19,70.54842198,29922.37923,-1.21E-25,6.01E-8,0.0,77.94725891,20.43062867,42.71973672,9.999999988558965,19.99999997711793,30.000000022972678,-4232.905319,995.1826133,8.93467E-4,632.0566515,412.1153064,0.015138213,-0.027366784,-0.029888748,0.0,0.0,0.0,0.070889927,41.79879756
2.3,0.009992611,-2.12E-19,73.75207194,29915.1642,-1.67E-25,6.29E-8,0.0,81.73083995,19.80729405,45.02575819,9.999999988558965,19.99999997711793,30.000000022972678,-4425.124316,995.2135949,8.93701E-4,632.2614346,412.1409663,0.016083664,-0.03134443,-0.031575738,0.0,0.0,0.0,0.074106778,43.69690824
2.4,0.009991954,-1.82E-19,76.9553083,29907.62883,-2.27E-25,6.56E-8,0.0,85.46892129,19.04294288,47.27435438,9.999999988558965,19.99999997711793,30.000000022972678,-4617.318498,995.2459433,8.93945E-4,632.4753443,412.1677592,0.016886353,-0.03563999,-0.033183123,0.0,0.0,0.0,0.077322906,45.59477388
2.5,0.009991269,-2.56E-20,80.15811291,29899.77316,-2.63E-25,6.83E-8,0.0,89.15447954,18.14253358,49.4556299,9.999999988558965,19.99999997711793,30.000000022972678,-4809.486775,995.2796751,8.942E-4,632.6983542,412.1956989,0.017512338,-0.040249917,-0.034702068,0.0,0.0,0.0,0.08053828,47.49238371
2.6,0.009990556,-6.47E-20,83.36046761,29891.59722,-2.78E-25,7.11E-8,0.0,92.78187302,17.11169175,51.5609663,9.999999988558965,19.99999997711793,30.000000022972678,-5001.628056,995.3147818,8.94465E-4,632.930557,412.2247783,0.01792663,-0.045167606,-0.036125467,0.0,0.0,0.0,0.083752869,49.38972697
2.7,0.009989814,2.21E-20,86.56235421,29883.10108,-2.79E-25,7.38E-8,0.0,96.34690047,15.95657515,53.58305893,9.999999988558965,19.99999997711793,30.000000022972678,-5193.741252,995.351255,8.9474E-4,633.1717951,412.2549907,0.018093491,-0.05038328,-0.037448076,0.0,0.0,0.0,0.086966641,51.2867929
2.8,0.009989045,-1.51E-19,89.76375451,29874.28477,-3.1E-25,7.65E-8,0.0,99.84680179,14.68374063,55.51589429,9.999999988558965,19.99999997711793,30.000000022972678,-5385.82527,995.3891028,8.95026E-4,633.4221824,412.2863429,0.017976772,-0.055883958,-0.038666681,0.0,0.0,0.0,0.090179564,53.1835707
2.9,0.009988247,-2.82E-19,92.96465027,29865.14834,-3.59E-25,7.93E-8,0.0,103.2802107,13.30001886,57.35467734,9.999999988558965,19.99999997711793,30.000000022972678,-5577.879016,995.428325,8.95322E-4,633.6817222,412.318835,0.017540258,-0.061653428,-0.039780221,0.0,0.0,0.0,0.093391607,55.08004958
3.0,0.009987421,-1.69E-19,96.16502325,29855.69186,-4.33E-25,8.2E-8,0.0,106.6470709,11.81240149,59.09572019,9.999999988558965,19.99999997711793,30.000000022972678,-5769.901395,995.4689216,8.95629E-4,633.9503679,412.3524669,0.01674802,-0.067672237,-0.040789904,0.0,0.0,0.0,0.096602738,56.97621871
3.1,0.009986567,-3.68E-19,99.36485516,29845.91536,-4.97E-25,8.47E-8,0.0,109.9485286,10.22794348,60.736304,9.999999988558965,19.99999997711793,30.000000022972678,-5961.89131,995.510884,8.95945E-4,634.2281126,412.3872318,0.015564778,-0.073917715,-0.041699298,0.0,0.0,0.0,0.099812927,58.87206727
3.2,0.009985685,-2.29E-19,102.5641277,29835.8189,-5.77E-25,8.75E-8,0.0,113.1868118,8.553682386,62.27452486,9.999999988558965,19.99999997711793,30.000000022972678,-6153.847662,995.5542204,8.96273E-4,634.5150206,412.4231364,0.013956276,-0.080364074,-0.042514439,0.0,0.0,0.0,0.103022142,60.76758442
3.3,0.009984774,-1.43E-19,105.7628226,29825.40255,-6.39E-25,9.02E-8,0.0,116.365106,6.796574749,63.70913303,9.999999988558965,19.99999997711793,30.000000022972678,-6345.769353,995.5989305,8.9661E-4,634.8110457,412.460181,0.011889648,-0.086982431,-0.043243852,0.0,0.0,0.0,0.10623035,62.66275929
3.4,0.009983836,-2.29E-19,108.9609214,29814.66636,-6.96E-25,9.29E-8,0.0,119.4874361,4.963449104,65.03937261,9.999999988558965,19.99999997711793,30.000000022972678,-6537.655281,995.6450143,8.96958E-4,635.1162419,412.4983653,0.009333799,-0.093740992,-0.043898635,0.0,0.0,0.0,0.109437521,64.55758101
3.5,0.009982869,-2.47E-19,112.1584057,29803.61039,-7.54E-25,9.56E-8,0.0,122.558557,3.060974496,66.26482696,9.999999988558965,19.99999997711793,30.000000022972678,-6729.504343,995.6924632,8.97317E-4,635.4305525,412.5376826,0.006259767,-0.100605154,-0.044492456,0.0,0.0,0.0,0.112643623,66.45203868
3.6,0.009981874,-3.87E-20,115.3552572,29792.2347,-8.01E-25,9.84E-8,0.0,125.58386,1.095642944,67.38527309,9.999999988558965,19.99999997711793,30.000000022972678,-6921.315434,995.7412852,8.97685E-4,635.7539925,412.5781398,0.002641092,-0.107537674,-0.045041555,0.0,0.0,0.0,0.115848624,68.34612141
3.7,0.00998085,-2.13E-20,118.5514574,29780.53936,-8.12E-25,1.01E-7,0.0,128.5692953,-0.926235754,68.40054654,9.999999988558965,19.99999997711793,30.000000022972678,-7113.087447,995.791472,8.98065E-4,636.0866056,412.6197299,-0.00154583,-0.114498917,-0.045564746,0.0,0.0,0.0,0.119052494,70.23981825
3.8,0.009979799,-2.13E-20,121.7469879,29768.52443,-8.29E-25,1.04E-7,0.0,131.5213126,-2.998528451,69.31041717,9.999999988558965,19.99999997711793,30.000000022972678,-7304.819274,995.8430316,8.98454E-4,636.4283066,412.6624599,-0.006321399,-0.121447031,-0.046083351,0.0,0.0,0.0,0.122255199,72.13311828
3.9,0.009978719,-1.95E-19,124.9418301,29756.18998,-8.69E-25,1.07E-7,0.0,134.4468194,-5.115263767,70.11447528,9.999999988558965,19.99999997711793,30.000000022972678,-7496.509806,995.8959556,8.98854E-4,636.7791898,412.7063228,-0.011702487,-0.128338229,-0.046621151,0.0,0.0,0.0,0.12545671,74.02601051
4.0,0.00997761,-4.38E-19,128.1359655,29743.53609,-9.4E-25,1.09E-7,0.0,137.3531583,-7.270609084,70.81202672,9.999999988558965,19.99999997711793,30.000000022972678,-7688.15793,995.9502518,8.99264E-4,637.1392202,412.7513255,-0.017702124,-0.135127073,-0.047204306,0.0,0.0,0.0,0.128656994,75.91848399
4.1,0.009976473,-4.03E-19,131.3293755,29730.56281,-1.04E-24,1.12E-7,0.0,140.2480994,-9.458840364,71.40199541,9.999999988558965,19.99999997711793,30.000000022972678,-7879.762532,996.005912,8.99684E-4,637.5084423,412.7974612,-0.024329198,-0.141766728,-0.047861224,0.0,0.0,0.0,0.13185602,77.81052769
4.2,0.009975308,-2.13E-20,134.5220416,29717.27024,-1.09E-24,1.15E-7,0.0,143.1398506,-11.67430544,71.88283159,9.999999988558965,19.99999997711793,30.000000022972678,-8071.322496,996.0629357,9.00115E-4,637.8867605,412.8447299,-0.031588201,-0.148209363,-0.048622468,0.0,0.0,0.0,0.135053757,79.70213061
4.3,0.009974114,2.22E-19,137.7139451,29703.65843,-1.03E-24,1.17E-7,0.0,146.0370808,-13.91138116,72.25242394,9.999999988558965,19.99999997711793,30.000000022972678,-8262.836704,996.1213312,9.00556E-4,638.2742408,412.8931384,-0.039478967,-0.154406413,-0.049520573,0.0,0.0,0.0,0.138250172,81.5932817
4.4,0.009972892,8.11E-19,140.9050673,29689.72747,-8.8E-25,1.2E-7,0.0,148.9489584,-16.16442443,72.50801429,9.999999988558965,19.99999997711793,30.000000022972678,-8454.304036,996.1810898,9.01008E-4,638.6709278,412.9426799,-0.047996469,-0.160308985,-0.050589897,0.0,0.0,0.0,0.141445234,83.48396991
4.5,0.009971642,8.81E-19,144.0953895,29675.47744,-6.17E-25,1.23E-7,0.0,151.8851999,-18.42771705,72.64611371,9.999999988558965,19.99999997711793,30.000000022972678,-8645.72337,996.2422196,9.0147E-4,639.0767371,412.9933612,-0.057130625,-0.165868217,-0.051866419,0.0,0.0,0.0,0.144638911,85.37418414
4.6,0.009970363,6.73E-19,147.284893,29660.90842,-3.8E-25,1.26E-7,0.0,154.8561298,-20.69540399,72.66241974,9.999999988558965,19.99999997711793,30.000000022972678,-8837.093582,996.3047038,9.01942E-4,639.4917533,413.0451686,-0.066866147,-0.171035656,-0.05338753,0.0,0.0,0.0,0.147831173,87.26391331
4.7,0.009969055,6.73E-19,150.4735591,29646.02049,-1.46E-25,1.28E-7,0.0,157.872747,-22.96142438,72.55173511,9.999999988558965,19.99999997711793,30.000000022972678,-9028.413544,996.3685586,9.02425E-4,639.9159026,413.0981158,-0.077182432,-0.175763702,-0.055191822,0.0,0.0,0.0,0.151021987,89.15314627
4.8,0.009967719,1.52E-19,153.6613688,29630.81374,-2.08E-26,1.31E-7,0.0,160.9467949,-25.21943475,72.30789014,9.999999988558965,19.99999997711793,30.000000022972678,-9219.682128,996.4337757,9.02918E-4,640.3492303,413.152196,-0.088053462,-0.18000594,-0.057318816,0.0,0.0,0.0,0.154211321,91.04187189
4.9,0.009966354,-9.07E-20,156.8483034,29615.28825,7.08E-27,1.34E-7,0.0,164.0908302,-27.46272368,71.92367231,9.999999988558965,19.99999997711793,30.000000022972678,-9410.898202,996.5003545,9.03421E-4,640.7917422,413.2074092,-0.099447758,-0.183717583,-0.059808722,0.0,0.0,0.0,0.157399145,92.93007899
5.0,0.009964961,3.6E-19,160.0343439,29599.44411,4.57E-27,1.37E-7,0.0,167.3182819,-29.68411728,71.39076973,9.999999988558965,19.99999997711793,30.000000022972678,-9602.060634,996.568295,9.03934E-4,641.243444,413.2637553,-0.111328407,-0.186855926,-0.062702174,0.0,0.0,0.0,0.160585426,94.81775639
5.1,0.009963539,6.03E-19,163.2194714,29583.28141,9.6E-26,1.39E-7,0.0,170.6434901,-31.87587537,70.6997384,9.999999988558965,19.99999997711793,30.000000022972678,-9793.168287,996.6375968,9.04458E-4,641.704342,413.3212344,-0.123653041,-0.189380661,-0.066039928,0.0,0.0,0.0,0.163770133,96.70489286
5.2,0.009962089,3.26E-19,166.403667,29566.80025,2.04E-25,1.42E-7,0.0,174.0817082,-34.02957875,69.84000846,9.999999988558965,19.99999997711793,30.000000022972678,-9984.220023,996.7082597,9.04992E-4,642.1743917,413.3798465,-0.136373952,-0.191254363,-0.069862594,0.0,0.0,0.0,0.166953234,98.59147716
5.3,0.009960609,-2.29E-19,169.5869117,29550.00071,1.98E-25,1.45E-7,0.0,177.6490468,-36.13600921,68.79995076,9.999999988558965,19.99999997711793,30.000000022972678,-10175.2147,996.7802833,9.05537E-4,642.6536499,413.4395915,-0.149438217,-0.192442886,-0.074210358,0.0,0.0,0.0,0.170134697,100.477498
5.4,0.009959101,-8.54E-19,172.7691863,29532.8829,2.44E-26,1.47E-7,0.0,-178.6376711,-38.18502595,67.56703316,9.999999988558965,19.99999997711793,30.000000022972678,-10366.15118,996.8536591,9.06092E-4,643.1421121,413.5004626,-0.162787786,-0.192915664,-0.079122653,0.0,0.0,0.0,0.173314493,102.3629442
5.5,0.009957565,1.87E-19,175.9504716,29515.44691,-6.58E-26,1.5E-7,0.0,-174.7611815,-40.16544474,66.12810533,9.999999988558965,19.99999997711793,30.000000022972678,-10557.02829,996.9284033,9.06675E-4,643.6528306,413.5624736,-0.176362804,-0.192649516,-0.084639391,0.0,0.0,0.0,0.176492586,104.2478042
5.6,0.009955999,-1.6E-19,179.1307478,29497.69284,-1.95E-26,1.53E-7,0.0,-170.7042278,-42.06493051,64.46985995,9.999999988558965,19.99999997711793,30.000000022972678,-10747.84487,997.0044991,9.07278E-4,644.178856,413.6256107,-0.190095435,-0.191621235,-0.090797588,0.0,0.0,0.0,0.179668947,106.1320663
5.7,0.009954404,-9.93E-19,182.3099956,29479.62079,-1.73E-25,1.56E-7,0.0,-166.4502393,-43.86991942,62.57952559,9.999999988558965,19.99999997711793,30.000000022972678,-10938.59974,997.0819544,9.07891E-4,644.714474,413.6898807,-0.203911767,-0.189810935,-0.097631982,0.0,0.0,0.0,0.182843542,108.0157192
5.8,0.009952781,-1.41E-18,185.4881958,29461.23087,-5.57E-25,1.58E-7,0.0,-161.9842967,-45.5655933,60.44584645,9.999999988558965,19.99999997711793,30.000000022972678,-11129.29175,997.1607689,9.08515E-4,645.2595911,413.7552837,-0.217735704,-0.18720599,-0.105176474,0.0,0.0,0.0,0.186016339,109.8987513
5.9,0.009951129,-2.38E-18,188.665329,29442.52319,-1.04E-24,1.61E-7,0.0,-157.2944262,-47.13593712,58.06039058,9.999999988558965,19.99999997711793,30.000000022972678,-11319.91974,997.2409341,9.0915E-4,645.8143046,413.8218127,-0.231487281,-0.183798937,-0.113462918,0.0,0.0,0.0,0.189187309,111.7811512
6.0,0.009949448,-2.52E-18,191.8413757,29423.49784,-1.73E-24,1.64E-7,0.0,-152.3732257,-48.56391631,55.41919072,9.999999988558965,19.99999997711793,30.000000022972678,-11510.48254,997.3224496,9.09796E-4,646.3785714,413.8894679,-0.245083104,-0.179587803,-0.12252094,0.0,0.0,0.0,0.19235642,113.6629074
6.1,0.009947737,-2.94E-18,195.0163165,29404.15495,-2.39E-24,1.66E-7,0.0,-147.2197573,-49.83181378,52.5246512,9.999999988558965,19.99999997711793,30.000000022972678,-11700.97899,997.4053233,9.10452E-4,646.9524602,413.9582561,-0.258436586,-0.174576202,-0.132377626,0.0,0.0,0.0,0.195523637,115.5440084
6.2,0.009945998,-3.14E-18,198.1901319,29384.49462,-3.28E-24,1.69E-7,0.0,-141.8415324,-50.92176002,49.38754727,9.999999988558965,19.99999997711793,30.000000022972678,-11891.40791,997.4895549,9.11119E-4,647.5358779,414.0281772,-0.271458381,-0.168773582,-0.14305727,0.0,0.0,0.0,0.19868893,117.4244426
6.3,0.00994423,-4.12E-18,201.3628024,29364.51696,-4.32E-24,1.72E-7,0.0,-136.2562834,-51.81647074,46.02881026,9.999999988558965,19.99999997711793,30.000000022972678,-12081.76814,997.5751358,9.11797E-4,648.1288719,414.0992244,-0.284056784,-0.162195424,-0.154581027,0.0,0.0,0.0,0.201852267,119.3041985
6.4,0.009942432,-4.39E-18,204.5343082,29344.2221,-5.42E-24,1.75E-7,0.0,-130.4930941,-52.50016952,42.48067176,9.999999988558965,19.99999997711793,30.000000022972678,-12272.05849,997.6620656,9.12486E-4,648.7315004,414.1713977,-0.296138078,-0.154863441,-0.166966447,0.0,0.0,0.0,0.205013617,121.1832643
6.5,0.009940606,-3.56E-18,207.7046298,29323.61014,-6.53E-24,1.77E-7,0.0,-124.5924202,-52.95962227,38.78669665,9.999999988558965,19.99999997711793,30.000000022972678,-12462.27779,997.7503441,9.13185E-4,649.3436707,414.2446971,-0.307607152,-0.146805965,-0.180227063,0.0,0.0,0.0,0.208172948,123.0616285
6.6,0.00993875,-3.28E-18,210.8737474,29302.68121,-7.49E-24,1.8E-7,0.0,-118.6046322,-53.18515623,35.00033868,9.999999988558965,19.99999997711793,30.000000022972678,-12652.42485,997.839979,9.13896E-4,649.965452,414.3191295,-0.318367967,-0.138058266,-0.194371824,0.0,0.0,0.0,0.211330225,124.9392793
6.7,0.009936865,-3.7E-18,214.0416413,29281.43543,-8.4E-24,1.83E-7,0.0,-112.5870004,-53.17149963,31.18193777,9.999999988558965,19.99999997711793,30.000000022972678,-12842.49848,997.9309618,9.14617E-4,650.5968419,414.394688,-0.328324334,-0.128663001,-0.209404699,0.0,0.0,0.0,0.21448542,126.8162051
6.8,0.009934951,-2.45E-18,217.2082916,29259.87292,-9.42E-24,1.86E-7,0.0,-106.5994487,-52.91828188,27.39448649,9.999999988558965,19.99999997711793,30.000000022972678,-13032.4975,998.0232838,9.15348E-4,651.2377874,414.4713657,-0.337380493,-0.118670476,-0.225324203,0.0,0.0,0.0,0.217638501,128.6923942
6.9,0.009933007,-1.48E-18,220.3736785,29237.99381,-9.87E-24,1.88E-7,0.0,-100.6997884,-52.43008768,23.69887605,9.999999988558965,19.99999997711793,30.000000022972678,-13222.42071,998.1169612,9.16091E-4,651.8883691,414.5491763,-0.345442112,-0.108138909,-0.242123283,0.0,0.0,0.0,0.220789434,130.5678346
7.0,0.009931034,1.87E-19,223.5377819,29215.79823,-1.02E-23,1.91E-7,0.0,-94.9393191,-51.71605065,20.14951066,9.999999988558965,19.99999997711793,30.000000022972678,-13412.26692,998.2119854,9.16844E-4,652.5485848,414.6281131,-0.352417051,-0.097134339,-0.259789171,0.0,0.0,0.0,0.223938187,132.4425146
7.1,0.009929032,-1.48E-18,226.700582,29193.2863,-1.03E-23,1.94E-7,0.0,-89.35957,-50.78907019,16.79106197,9.999999988558965,19.99999997711793,30.000000022972678,-13602.03492,998.3083477,9.17608E-4,653.2184325,414.7081691,-0.358216218,-0.085730354,-0.278303397,0.0,0.0,0.0,0.227084731,134.3164224
7.2,0.009927,-5.07E-19,229.8620586,29170.45816,-1.06E-23,1.96E-7,0.0,-83.990597,-49.66480369,13.65677945,9.999999988558965,19.99999997711793,30.000000022972678,-13791.72352,998.4060559,9.18382E-4,653.8978308,414.7893512,-0.362754475,-0.074007635,-0.297641905,0.0,0.0,0.0,0.230229031,136.1895461
7.3,0.009924939,-2.17E-18,233.0221916,29147.31394,-1.09E-23,1.99E-7,0.0,-78.8508255,-48.36060476,10.76834644,9.999999988558965,19.99999997711793,30.000000022972678,-13981.3315,998.5051097,9.19168E-4,654.5869402,414.8716594,-0.365951299,-0.062053347,-0.317775034,0.0,0.0,0.0,0.233371056,138.0618737
7.4,0.009922848,-2.45E-18,236.1809609,29123.85377,-1.13E-23,2.02E-7,0.0,-73.9481025,-46.89455043,8.136945227,9.999999988558965,19.99999997711793,30.000000022972678,-14170.85765,998.6055087,9.19964E-4,655.2856183,414.9550937,-0.367731601,-0.049960546,-0.33866765,0.0,0.0,0.0,0.236510773,139.9333933
7.5,0.009920728,-1.62E-18,239.3383462,29100.07779,-1.18E-23,2.05E-7,0.0,-69.2814779,-45.28464739,5.765050788,9.999999988558965,19.99999997711793,30.000000022972678,-14360.30077,998.7072442,9.20771E-4,655.9939644,415.0396472,-0.368026243,-0.037827558,-0.360279053,0.0,0.0,0.0,0.239648153,141.804093
7.6,0.009918578,-1.34E-18,242.4943272,29075.98614,-1.2E-23,2.07E-7,0.0,-64.843255,-43.54825168,3.648494978,9.999999988558965,19.99999997711793,30.000000022972678,-14549.65963,998.8103157,9.21588E-4,656.7119374,415.12532,-0.366772844,-0.025757458,-0.382563202,0.0,0.0,0.0,0.242783163,143.6739606
7.7,0.009916398,-1.2E-18,245.6488836,29051.57897,-1.22E-23,2.1E-7,0.0,-60.6209728,-41.70169394,1.778461238,9.999999988558965,19.99999997711793,30.000000022972678,-14738.93302,998.9147313,9.22417E-4,657.4396081,415.2121188,-0.363916196,-0.013857528,-0.405468614,0.0,0.0,0.0,0.245915769,145.5429842
7.8,0.009914189,-2.3E-19,248.801995,29026.85642,-1.24E-23,2.13E-7,0.0,-56.5991188,-39.76007759,0.14321094,9.999999988558965,19.99999997711793,30.000000022972678,-14928.1197,999.0204903,9.23256E-4,658.1768852,415.3000438,-0.359408814,-0.002238776,-0.428938447,0.0,0.0,0.0,0.249045938,147.4111516
7.9,0.00991195,7.42E-19,251.9536409,29001.81862,-1.23E-23,2.15E-7,0.0,-52.7604935,-37.73720873,-1.270538581,9.999999988558965,19.99999997711793,30.000000022972678,-15117.21845,999.127576,9.24105E-4,658.9238069,415.3890811,-0.353211606,0.008984559,-0.452910793,0.0,0.0,0.0,0.252173643,149.2784507
8.0,0.009909682,6.03E-19,255.1038007,28976.46574,-1.23E-23,2.18E-7,0.0,-49.0872255,-35.64561747,-2.476584489,9.999999988558965,19.99999997711793,30.000000022972678,-15306.22804,999.2360043,9.24966E-4,659.6804554,415.4792445,-0.345294269,0.019695525,-0.477318735,0.0,0.0,0.0,0.255298848,151.1448693
8.1,0.009907383,-3.14E-18,258.2524538,28950.79791,-1.26E-23,2.21E-7,0.0,-45.5614818,-33.49663743,-3.488514546,9.999999988558965,19.99999997711793,30.000000022972678,-15495.14723,999.3457666,9.25837E-4,660.4467287,415.5705272,-0.335635817,0.029774998,-0.502090639,0.0,0.0,0.0,0.258421522,153.0103953
8.2,0.009905055,-3.01E-18,261.3995796,28924.8153,-1.35E-23,2.23E-7,0.0,-42.1659305,-31.30051779,-4.319229621,9.999999988558965,19.99999997711793,30.000000022972678,-15683.97478,999.4568624,9.26718E-4,661.2226874,415.6629291,-0.324224899,0.039102254,-0.527150227,0.0,0.0,0.0,0.261541633,154.8750164
8.3,0.009902697,-2.59E-18,264.5451574,28898.51805,-1.43E-23,2.26E-7,0.0,-38.8840179,-29.06655035,-4.980653164,9.999999988558965,19.99999997711793,30.000000022972678,-15872.70944,999.5692913,9.27611E-4,662.0083417,415.7564502,-0.311060465,0.047555602,-0.552417259,0.0,0.0,0.0,0.264659149,156.7387202
8.4,0.009900308,-3.68E-19,267.6891663,28871.90632,-1.48E-23,2.29E-7,0.0,-35.7001098,-26.80319957,-5.483575727,9.999999988558965,19.99999997711793,30.000000022972678,-16061.34998,999.6830529,9.28514E-4,662.8036512,415.8510905,-0.296151851,0.055013005,-0.577807446,0.0,0.0,0.0,0.267774037,158.6014946
8.5,0.00989789,-2.3E-19,270.8315855,28844.98027,-1.51E-23,2.32E-7,0.0,-32.5995416,-24.5182288,-5.837592975,9.999999988558965,19.99999997711793,30.000000022972678,-16249.89513,999.7981384,9.29427E-4,663.608666,415.9468433,-0.279519299,0.061352788,-0.603233138,0.0,0.0,0.0,0.270886267,160.4633271
8.6,0.009895442,-9.08E-20,273.9723941,28817.74006,-1.51E-23,2.34E-7,0.0,-29.5686069,-22.21881865,-6.051105677,9.999999988558965,19.99999997711793,30.000000022972678,-16438.34365,999.9145556,9.30352E-4,664.423357,416.0437152,-0.261194123,0.066454331,-0.628603563,0.0,0.0,0.0,0.273995806,162.3242053
8.7,0.009892964,3.26E-19,277.1115711,28790.18584,-1.51E-23,2.37E-7,0.0,-26.5945096,-19.91167579,-6.131358949,9.999999988558965,19.99999997711793,30.000000022972678,-16626.69426,1000.032304,9.31287E-4,665.2477853,416.1417064,-0.24121893,0.070198797,-0.653825255,0.0,0.0,0.0,0.27710262,164.1841167
8.8,0.009890455,-1.2E-18,280.2490953,28762.3178,-1.53E-23,2.4E-7,0.0,-23.6652954,-17.60313184,-6.08450492,9.999999988558965,19.99999997711793,30.000000022972678,-16814.94572,1000.151383,9.32233E-4,666.0819619,416.2408168,-0.219647816,0.072469891,-0.678802605,0.0,0.0,0.0,0.280206677,166.0430491
8.9,0.009887917,-9.23E-19,283.3849458,28734.13608,-1.57E-23,2.42E-7,0.0,-20.7697744,-15.29923248,-5.915678324,9.999999988558965,19.99999997711793,30.000000022972678,-17003.09675,1000.271785,9.33189E-4,666.9257852,416.3410396,-0.19654643,0.073154613,-0.703438305,0.0,0.0,0.0,0.283307947,167.9009897
9.0,0.009885348,-1.2E-18,286.5191013,28705.64086,-1.6E-23,2.45E-7,0.0,-17.897443,-13.00581766,-5.629078398,9.999999988558965,19.99999997711793,30.000000022972678,-17191.14608,1000.393508,9.34156E-4,667.7793677,416.4423747,-0.171992019,0.072144033,-0.727633916,0.0,0.0,0.0,0.286406398,169.757926
9.1,0.009882748,-1.62E-18,289.6515405,28676.83232,-1.64E-23,2.48E-7,0.0,-15.0384099,-10.72859371,-5.228053287,9.999999988558965,19.99999997711793,30.000000022972678,-17379.09243,1000.51656,9.35133E-4,668.64263,416.5448291,-0.146073341,0.069334039,-0.751290242,0.0,0.0,0.0,0.289501996,171.6138455
9.2,0.009880119,-5.76E-19,292.7822422,28647.71061,-1.67E-23,2.51E-7,0.0,-12.1833304,-8.473198025,-4.715185137,9.999999988558965,19.99999997711793,30.000000022972678,-17566.93453,1000.640925,9.36122E-4,669.5156626,416.648389,-0.118890599,0.064626111,-0.774307979,0.0,0.0,0.0,0.292594711,173.4687355
9.3,0.009877459,-8.54E-19,295.9111848,28618.27593,-1.69E-23,2.53E-7,0.0,-9.3233513,-6.245257187,-4.092375505,9.999999988558965,19.99999997711793,30.000000022972678,-17754.67109,1000.766618,9.37121E-4,670.3984483,416.7530681,-0.090555279,0.057928093,-0.796588469,0.0,0.0,0.0,0.295684508,175.3225833
9.4,0.009874769,-1.2E-18,299.038347,28588.52844,-1.72E-23,2.56E-7,0.0,-6.4500686,-4.05043893,-3.360931669,9.999999988558965,19.99999997711793,30.000000022972678,-17942.30082,1000.89363,9.3813E-4,671.2909876,416.8588596,-0.061189851,0.049154898,-0.818033941,0.0,0.0,0.0,0.298771356,177.1753763
9.5,0.009872048,-1.27E-18,302.1637072,28558.46832,-1.75E-23,2.59E-7,0.0,-3.5554991,-1.894498161,-2.521655133,9.999999988558965,19.99999997711793,30.000000022972678,-18129.82243,1001.021962,9.3915E-4,672.1932412,416.9657634,-0.030927485,0.038229247,-0.838548269,0.0,0.0,0.0,0.301855223,179.0271016
9.6,0.009869296,-1.15E-18,305.2872439,28528.09576,-1.78E-23,2.61E-7,0.0,-0.6320681,0.216682937,-1.574934105,9.999999988558965,19.99999997711793,30.000000022972678,-18317.23463,1001.151604,9.40181E-4,673.1052605,417.0737727,8.83E-5,0.025082364,-0.858037705,0.0,0.0,0.0,0.304936078,180.8777464
9.7,0.009866515,-1.11E-18,308.4089352,28497.41093,-1.81E-23,2.64E-7,0.0,2.3273861,2.277061069,-0.520841978,9.999999988558965,19.99999997711793,30.000000022972678,-18504.53611,1001.282573,9.41222E-4,674.0270288,417.1829013,0.031704269,0.009654637,-0.876411307,0.0,0.0,0.0,0.308013885,182.727298
9.8,0.009863702,-1.07E-18,311.5287596,28466.41403,-1.84E-23,2.67E-7,0.0,5.3295893,4.280404905,0.640756002,9.999999988558965,19.99999997711793,30.000000022972678,-18691.72557,1001.414851,9.42274E-4,674.9586371,417.2931354,0.063757659,-0.008103757,-0.893581537,0.0,0.0,0.0,0.311088616,184.5757434
9.9,0.009860859,-1.09E-18,314.6466951,28435.10524,-1.87E-23,2.69E-7,0.0,8.3807888,6.220276047,1.910085812,9.999999988558965,19.99999997711793,30.000000022972678,-18878.8017,1001.548438,9.43336E-4,675.8999454,417.4044749,0.096077097,-0.02823225,-0.909464997,0.0,0.0,0.0,0.314160238,186.4230697
10.0,0.009857985,-7.85E-19,317.7627199,28403.48476,-1.89E-23,2.72E-7,0.0,11.4866912,8.09001919,3.287335689,9.999999988558965,19.99999997711793,30.000000022972678,-19065.76319,1001.683341,9.44409E-4,676.8510783,417.5169269,0.128483099,-0.050759344,-0.923983036,0.0,0.0,0.0,0.317228716,188.2692639
10.1,0.00985508,-5.77E-19,320.8768119,28371.55276,-1.91E-23,2.75E-7,0.0,14.6523787,9.882763076,4.772513939,9.999999988558965,19.99999997711793,30.000000022972678,-19252.60872,1001.819552,9.45493E-4,677.8119862,417.6304843,0.160788804,-0.075702105,-0.937062196,0.0,0.0,0.0,0.32029402,190.114313
10.2,0.009852144,-5.08E-19,323.9889493,28339.30946,-1.93E-23,2.78E-7,0.0,17.8822061,11.59143408,6.365293289,9.999999988558965,19.99999997711793,30.000000022972678,-19439.33696,1001.957079,9.46587E-4,678.7826926,417.7451541,0.192800722,-0.103065691,-0.948634717,0.0,0.0,0.0,0.323356116,191.9582039
10.3,0.009849178,-2.99E-19,327.0991098,28306.75504,-1.95E-23,2.8E-7,0.0,21.1796797,13.20878441,8.064842876,9.999999988558965,19.99999997711793,30.000000022972678,-19625.94659,1002.095912,9.47692E-4,679.7631989,417.8609294,0.224319622,-0.132842974,-0.958639433,0.0,0.0,0.0,0.326414973,193.8009237
10.4,0.00984618,-1.69E-18,330.2072713,28273.88971,-1.96E-23,2.83E-7,0.0,24.5473218,14.72743685,9.869650766,9.999999988558965,19.99999997711793,30.000000022972678,-19812.43628,1002.236043,9.48807E-4,680.7535572,417.9778033,0.255141365,-0.16501417,-0.967022038,0.0,0.0,0.0,0.329470561,195.642459
10.5,0.009843151,-8.55E-19,333.3134116,28240.71365,-1.98E-23,2.86E-7,0.0,27.9865259,16.1399478,11.77734209,9.999999988558965,19.99999997711793,30.000000022972678,-19998.8047,1002.377488,9.49933E-4,681.753701,418.0957896,0.285057872,-0.199546548,-0.97373573,0.0,0.0,0.0,0.332522843,197.4827968
10.6,0.009840092,-3.69E-19,336.4175082,28207.22709,-1.98E-23,2.88E-7,0.0,31.4974123,17.43888967,13.78450039,9.999999988558965,19.99999997711793,30.000000022972678,-20185.05049,1002.52023,9.51069E-4,682.7636207,418.2148746,0.313857984,-0.236394109,-0.978741342,0.0,0.0,0.0,0.33557179,199.3219238
10.7,0.009837001,1.52E-19,339.5195389,28173.43022,-1.99E-23,2.91E-7,0.0,35.078693,18.61695294,15.88650238,9.999999988558965,19.99999997711793,30.000000022972678,-20371.17233,1002.664276,9.52216E-4,683.7834421,418.335065,0.341328701,-0.275497523,-0.982008517,0.0,0.0,0.0,0.338617369,201.1598267
10.8,0.009833879,1.23E-18,342.6194811,28139.32325,-1.97E-23,2.94E-7,0.0,38.7275604,19.66706688,18.07737862,9.999999988558965,19.99999997711793,30.000000022972678,-20557.16886,1002.809627,9.53374E-4,684.8130765,418.4563609,0.367256001,-0.316783806,-0.983515354,0.0,0.0,0.0,0.341659545,202.9964922
10.9,0.009830726,-1.76E-18,345.7173122,28104.9064,-1.97E-23,2.96E-7,0.0,42.4396131,20.58253634,20.34971418,9.999999988558965,19.99999997711793,30.000000022972678,-20743.03873,1002.956272,9.54542E-4,685.8525259,418.5787555,0.391426129,-0.360166356,-0.983249392,0.0,0.0,0.0,0.34469829,204.831907
11.0,0.009827542,-1.43E-19,348.8130097,28070.17986,-1.99E-23,2.99E-7,0.0,46.2088343,21.35719009,22.69460379,9.999999988558965,19.99999997711793,30.000000022972678,-20928.78058,1003.10422,9.5572E-4,686.9018656,418.7022556,0.413626612,-0.405544798,-0.981207628,0.0,0.0,0.0,0.347733568,206.6660576
11.1,0.009824326,-1.18E-18,351.9065509,28035.14387,-1.99E-23,3.02E-7,0.0,50.027636,21.98553438,25.10167426,9.999999988558965,19.99999997711793,30.000000022972678,-21114.39305,1003.253463,9.56909E-4,687.9610468,418.8268542,0.433647523,-0.452805059,-0.977397103,0.0,0.0,0.0,0.350765349,208.4989306
11.2,0.009821079,-2.69E-18,354.9979129,27999.79863,-2.01E-23,3.04E-7,0.0,53.8869778,22.4629039,27.55918347,9.999999988558965,19.99999997711793,30.000000022972678,-21299.87477,1003.403998,9.58108E-4,689.0300831,418.9525516,0.451282672,-0.501819431,-0.971835154,0.0,0.0,0.0,0.3537936,210.3305125
11.3,0.009817801,-2.02E-18,358.087073,27964.14436,-2.06E-23,3.07E-7,0.0,57.7765657,22.7856006,30.05419941,9.999999988558965,19.99999997711793,30.000000022972678,-21485.22438,1003.555827,9.59318E-4,690.1089878,419.0793475,0.466330891,-0.55244676,-0.96454979,0.0,0.0,0.0,0.356818289,212.1607898
11.4,0.009814491,1.01E-18,361.1740081,27928.18129,-2.07E-23,3.1E-7,0.0,61.685125,22.95101135,32.57285526,9.999999988558965,19.99999997711793,30.000000022972678,-21670.44049,1003.708948,9.60539E-4,691.1978258,419.2072421,0.478597184,-0.604532535,-0.955579675,0.0,0.0,0.0,0.359839383,213.9897489
11.5,0.009811149,-1.47E-18,364.2586954,27891.90963,-2.07E-23,3.12E-7,0.0,65.6007371,22.95769527,35.10066852,9.999999988558965,19.99999997711793,30.000000022972678,-21855.52172,1003.86336,9.6177E-4,692.296509,419.3362354,0.487894223,-0.657909466,-0.944974777,0.0,0.0,0.0,0.362856849,215.8173761
11.6,0.009807776,-1.85E-18,367.3411089,27855.32962,-2.13E-23,3.15E-7,0.0,69.5112208,22.80543399,37.62290444,9.999999988558965,19.99999997711793,30.000000022972678,-22040.46653,1004.019064,9.63061E-4,693.4412139,419.4663272,0.494066358,-0.712430693,-0.932839326,0.0,0.0,0.0,0.365870651,217.6436562
11.7,0.009804371,1.9E-18,370.4212204,27818.44149,-2.11E-23,3.18E-7,0.0,73.4045315,22.49524065,40.12495843,9.999999988558965,19.99999997711793,30.000000022972678,-22225.27323,1004.17605,9.64371E-4,694.6016706,419.5975108,0.49692973,-0.767887563,-0.919214356,0.0,0.0,0.0,0.368880756,219.4685724
11.8,0.009800933,2.1E-18,373.4990065,27781.24546,-2.05E-23,3.21E-7,0.0,77.269153,22.02932659,42.5927299,9.999999988558965,19.99999997711793,30.000000022972678,-22409.94039,1004.334317,9.65692E-4,695.7723869,419.7297862,0.496320231,-0.824068374,-0.904170434,0.0,0.0,0.0,0.37188713,221.2921108
11.9,0.009797464,4.19E-18,376.5744435,27743.74176,-1.98E-23,3.23E-7,0.0,81.094453,21.41102868,45.01296047,9.999999988558965,19.99999997711793,30.000000022972678,-22594.46661,1004.493874,9.67024E-4,696.95344,419.8631602,0.492093256,-0.880760126,-0.887802519,0.0,0.0,0.0,0.374889736,223.1142574
12.0,0.009793963,2.66E-18,379.6475077,27705.93065,-1.86E-23,3.26E-7,0.0,84.8709824,20.6447028,47.37351447,9.999999988558965,19.99999997711793,30.000000022972678,-22778.85046,1004.654711,9.68367E-4,698.1447314,419.997626,0.484118111,-0.937740168,-0.870216583,0.0,0.0,0.0,0.377888546,224.9349981
12.1,0.00979043,5.78E-19,382.7181753,27667.81234,-1.77E-23,3.29E-7,0.0,88.5907018,19.73559171,49.66358637,9.999999988558965,19.99999997711793,30.000000022972678,-22963.09052,1004.816837,9.69721E-4,699.34639,420.1331905,0.472279344,-0.994777444,-0.851529615,0.0,0.0,0.0,0.380883522,226.7543189
12.2,0.009786865,6.27E-18,385.7864224,27629.38709,-1.7E-23,3.31E-7,0.0,92.2471288,18.68967669,51.87382784,9.999999988558965,19.99999997711793,30.000000022972678,-23147.18534,1004.980233,9.71085E-4,700.5583058,420.2698398,0.456477694,-1.051633218,-0.831868957,0.0,0.0,0.0,0.383874637,228.5722056
12.3,0.009783267,5.57E-18,388.852225,27590.65514,-1.54E-23,3.34E-7,0.0,95.835407,17.51352235,53.99639522,9.999999988558965,19.99999997711793,30.000000022972678,-23331.1335,1005.144908,9.72461E-4,701.7805567,420.4075809,0.436631314,-1.108062555,-0.81137219,0.0,0.0,0.0,0.386861857,230.388644
12.4,0.009779637,4.19E-18,391.9155592,27551.61673,-1.37E-23,3.37E-7,0.0,99.3523046,16.21412355,56.02492498,9.999999988558965,19.99999997711793,30.000000022972678,-23514.93355,1005.310861,9.73847E-4,703.0131581,420.5464137,0.412676725,-1.163815546,-0.790186611,0.0,0.0,0.0,0.389845146,232.2036199
12.5,0.009775975,4.32E-18,394.9764007,27512.27211,-1.28E-23,3.39E-7,0.0,102.7961548,14.79876155,57.9544488,9.999999988558965,19.99999997711793,30.000000022972678,-23698.58404,1005.478082,9.75244E-4,704.2560631,420.6863315,0.384569505,-1.218638052,-0.768468312,0.0,0.0,0.0,0.392824476,234.0171189
12.6,0.00977228,3.63E-18,398.0347254,27472.62154,-1.18E-23,3.42E-7,0.0,106.1667524,13.27487479,59.78126298,9.999999988558965,19.99999997711793,30.000000022972678,-23882.08353,1005.646581,9.76653E-4,705.5093499,420.827341,0.352285268,-1.272273449,-0.746381898,0.0,0.0,0.0,0.39579981,235.8291267
12.7,0.009768553,5.3E-18,401.090509,27432.66525,-1.1E-23,3.45E-7,0.0,109.4652225,11.64994787,61.50276664,9.999999988558965,19.99999997711793,30.000000022972678,-24065.43054,1005.816347,9.78072E-4,706.7729717,420.9694354,0.315820304,-1.324463872,-0.724099741,0.0,0.0,0.0,0.398771118,237.639629
12.8,0.009764793,6.41E-18,404.1437272,27392.40352,-9.54E-24,3.47E-7,0.0,112.6938742,9.931420236,63.11728227,9.999999988558965,19.99999997711793,30.000000022972678,-24248.62363,1005.987389,9.79501E-4,708.0469558,421.1126216,0.275192075,-1.374951161,-0.70180103,0.0,0.0,0.0,0.401738363,239.4486113
12.9,0.009761,3.35E-18,407.1943553,27351.83659,-8.33E-24,3.5E-7,0.0,115.8560522,8.12661502,64.62386997,9.999999988558965,19.99999997711793,30.000000022972678,-24431.66132,1006.159689,9.80942E-4,709.3312951,421.2568858,0.230439863,-1.42347888,-0.679671367,0.0,0.0,0.0,0.40470152,241.2560591
13.0,0.009757175,2.8E-18,410.242369,27310.96474,-7.53E-24,3.53E-7,0.0,118.955995,6.242687015,66.02214403,9.999999988558965,19.99999997711793,30.000000022972678,-24614.54214,1006.333264,9.82394E-4,710.6260289,421.4022418,0.18162499,-1.469793016,-0.657901584,0.0,0.0,0.0,0.407660547,243.0619578
13.1,0.009753318,4.46E-18,413.2877437,27269.78821,-6.66E-24,3.55E-7,0.0,121.9987063,4.286588292,67.31209786,9.999999988558965,19.99999997711793,30.000000022972678,-24797.26462,1006.508095,9.83856E-4,711.9311502,421.5486758,0.128831176,-1.513643637,-0.636687045,0.0,0.0,0.0,0.41061542,244.8662929
13.2,0.009749427,6.13E-18,416.3304545,27228.30728,-5.01E-24,3.58E-7,0.0,124.9898449,2.265049501,68.49394094,9.999999988558965,19.99999997711793,30.000000022972678,-24979.82727,1006.684191,9.85329E-4,713.2466357,421.6961948,0.072164712,-1.554786514,-0.616226846,0.0,0.0,0.0,0.4135661,246.6690498
13.3,0.009745503,6.13E-18,419.3704767,27186.52221,-3.02E-24,3.61E-7,0.0,127.935634,0.184574809,69.56794926,9.999999988558965,19.99999997711793,30.000000022972678,-25162.2286,1006.861543,9.86813E-4,714.5725415,421.8447917,0.011754467,-1.592984212,-0.596722734,0.0,0.0,0.0,0.416512558,248.4702137
13.4,0.009741547,6.41E-18,422.4077854,27144.43327,-1.6E-24,3.63E-7,0.0,130.8427928,-1.948551499,70.53432949,9.999999988558965,19.99999997711793,30.000000022972678,-25344.46713,1007.040158,9.88308E-4,715.9088443,421.9944736,-0.052248152,-1.62800747,-0.578378158,0.0,0.0,0.0,0.419454758,250.2697699
13.5,0.009737558,1.08E-17,425.4423558,27102.04074,7.69E-25,3.66E-7,0.0,133.7184886,-4.128248518,71.39309559,9.999999988558965,19.99999997711793,30.000000022972678,-25526.54135,1007.220027,9.89813E-4,717.2555492,422.1452335,-0.119669375,-1.659636821,-0.561397354,0.0,0.0,0.0,0.422392669,252.0677037
13.6,0.009733535,1.28E-17,428.4741627,27059.34489,3.5E-24,3.69E-7,0.0,136.5703105,-6.34861376,72.14395629,9.999999988558965,19.99999997711793,30.000000022972678,-25708.44976,1007.40115,9.9133E-4,718.6127243,422.2970714,-0.190313382,-1.687663868,-0.545984276,0.0,0.0,0.0,0.425326259,253.8640002
13.7,0.009729479,1.0E-17,431.503181,27016.346,6.78E-24,3.71E-7,0.0,139.4062618,-8.603890868,72.78621095,9.999999988558965,19.99999997711793,30.000000022972678,-25890.19086,1007.583526,9.92857E-4,719.9802837,422.4499873,-0.263962721,-1.711892633,-0.532341549,0.0,0.0,0.0,0.428255494,255.6586445
13.8,0.009725391,7.24E-18,434.5293856,26973.04435,9.14E-24,3.74E-7,0.0,142.2347717,-10.88843075,73.31865164,9.999999988558965,19.99999997711793,30.000000022972678,-26071.76314,1007.767154,9.94395E-4,721.3582958,422.6039813,-0.340378848,-1.732140891,-0.520669395,0.0,0.0,0.0,0.431180341,257.4516217
13.9,0.009721269,2.8E-18,437.5527512,26929.44022,1.09E-23,3.77E-7,0.0,145.0647244,-13.19664661,73.73946887,9.999999988558965,19.99999997711793,30.000000022972678,-26253.16507,1007.952026,9.95943E-4,722.7467657,422.7590465,-0.419302796,-1.748241457,-0.511164549,0.0,0.0,0.0,0.434100771,259.2429168
14.0,0.009717113,3.08E-18,440.5732524,26885.5339,1.21E-23,3.79E-7,0.0,147.9055037,-15.52296284,74.0461588,9.999999988558965,19.99999997711793,30.000000022972678,-26434.39514,1008.138149,9.97502E-4,724.1456711,422.9151897,-0.500455924,-1.760043309,-0.504019123,0.0,0.0,0.0,0.437016745,261.0325148
14.1,0.009712925,5.02E-18,443.5908638,26841.32567,1.38E-23,3.82E-7,0.0,150.767053,-17.86175773,74.23543013,9.999999988558965,19.99999997711793,30.000000022972678,-26615.45183,1008.325523,9.99072E-4,725.5550805,423.0724109,-0.58354092,-1.767413155,-0.499419617,0.0,0.0,0.0,0.439928231,262.8204007
14.2,0.009708702,8.63E-18,446.6055598,26796.81582,1.58E-23,3.85E-7,0.0,153.6599489,-20.20729929,74.3031094,9.999999988558965,19.99999997711793,30.000000022972678,-26796.33359,1008.514129,0.001000653,726.9749365,423.2306964,-0.66824265,-1.770235946,-0.497545632,0.0,0.0,0.0,0.442835204,264.6065592
14.3,0.009704447,9.74E-18,449.6173148,26752.00465,1.86E-23,3.87E-7,0.0,156.5954855,-22.55367348,74.24404404,9.999999988558965,19.99999997711793,30.000000022972678,-26977.03889,1008.703984,0.001002245,728.4052799,423.39006,-0.754229586,-1.768416811,-0.498569032,0.0,0.0,0.0,0.445737622,266.3909753
14.4,0.009700157,1.31E-17,452.6261032,26706.89246,2.11E-23,3.9E-7,0.0,159.5857689,-24.89470391,74.05200416,9.999999988558965,19.99999997711793,30.000000022972678,-27157.56619,1008.895072,0.001003847,729.8461049,423.5504878,-0.841154772,-1.761881178,-0.502652621,0.0,0.0,0.0,0.448635459,268.1736337
14.5,0.009695835,1.17E-17,455.6318992,26661.47953,2.46E-23,3.93E-7,0.0,162.6438149,-27.22386173,73.71958523,9.999999988558965,19.99999997711793,30.000000022972678,-27337.91395,1009.087406,0.001005459,731.297401,423.7119937,-0.928657361,-1.750576175,-0.509949241,0.0,0.0,0.0,0.451528675,269.9545191
14.6,0.009691478,1.42E-17,458.634677,26615.76618,2.84E-23,3.95E-7,0.0,165.7836463,-29.53416461,73.23811689,9.999999988558965,19.99999997711793,30.000000022972678,-27518.08062,1009.280972,0.001007083,732.759214,423.8745639,-1.016363978,-1.734471201,-0.52060069,0.0,0.0,0.0,0.454417244,271.7336163
14.7,0.009687088,1.25E-17,461.6344106,26569.7527,3.21E-23,3.98E-7,0.0,169.0203781,-31.81806377,72.59758625,9.999999988558965,19.99999997711793,30.000000022972678,-27698.06463,1009.475767,0.001008717,734.2315617,424.0381984,-1.103890413,-1.71355889,-0.534736841,0.0,0.0,0.0,0.457301132,273.5109098
14.8,0.009682664,1.11E-17,464.631074,26523.4394,3.56E-23,4.0E-7,0.0,172.3702775,-34.06731845,71.78658962,9.999999988558965,19.99999997711793,30.000000022972678,-27877.86444,1009.671799,0.001010362,735.7144224,424.2029041,-1.190843316,-1.687855711,-0.552474756,0.0,0.0,0.0,0.460180303,275.2863844
14.9,0.009678206,9.46E-18,467.6246411,26476.82659,3.79E-23,4.03E-7,0.0,175.8507752,-36.27285822,70.79233343,9.999999988558965,19.99999997711793,30.000000022972678,-28057.47847,1009.869051,0.001012017,737.2077903,424.3686671,-1.27682178,-1.657402214,-0.573917812,0.0,0.0,0.0,0.46305473,277.0600244
15.0,0.009673714,1.17E-17,470.6150859,26429.91458,4.07E-23,4.06E-7,0.0,179.4803999,-38.42463506,69.60071464,9.999999988558965,19.99999997711793,30.000000022972678,-28236.90515,1010.067539,0.001013683,738.7117074,424.5355014,-1.361419019,-1.62226329,-0.599154959,0.0,0.0,0.0,0.465924374,278.8318145
15.1,0.009669188,1.17E-17,473.6023819,26382.70368,4.37E-23,4.08E-7,0.0,-176.7214097,-40.51147009,68.19652334,9.999999988558965,19.99999997711793,30.000000022972678,-28416.14292,1010.267254,0.00101536,740.2261801,424.7034,-1.444224669,-1.582528963,-0.628260349,0.0,0.0,0.0,0.468789204,280.601739
15.2,0.009664628,1.17E-17,476.586503,26335.19421,4.7E-23,4.11E-7,0.0,-172.7346709,-42.52090372,66.563824,9.999999988558965,19.99999997711793,30.000000022972678,-28595.19018,1010.468187,0.001017047,741.7512147,424.872356,-1.524826318,-1.538313986,-0.661292757,0.0,0.0,0.0,0.471649191,282.3697824
15.3,0.009660034,5.57E-18,479.5674227,26287.38648,4.95E-23,4.14E-7,0.0,-168.5394721,-44.43906449,64.68658668,9.999999988558965,19.99999997711793,30.000000022972678,-28774.04536,1010.670337,0.001018745,743.286778,425.0423694,-1.602811354,-1.489757727,-0.698295314,0.0,0.0,0.0,0.474504302,284.135929
15.4,0.009655405,8.9E-18,482.5451144,26239.28083,5.15E-23,4.16E-7,0.0,-164.1169198,-46.25057993,62.5496497,9.999999988558965,19.99999997711793,30.000000022972678,-28952.70687,1010.87372,0.001020466,744.8418574,425.213454,-1.677776127,-1.437030167,-0.73929862,0.0,0.0,0.0,0.477354496,285.9001631
15.5,0.009650742,8.9E-18,485.51954,26190.87757,5.41E-23,4.19E-7,0.0,-159.4504965,-47.9385633,60.14009361,9.999999988558965,19.99999997711793,30.000000022972678,-29131.1724,1011.078376,0.001022264,746.4565262,425.3856441,-1.749435107,-1.380413671,-0.784369184,0.0,0.0,0.0,0.480199707,287.6624621
15.6,0.009646045,8.9E-18,488.4906659,26142.17703,5.7E-23,4.22E-7,0.0,-154.5278825,-49.48472112,57.44907895,9.999999988558965,19.99999997711793,30.000000022972678,-29309.43995,1011.284246,0.001024073,748.0822411,425.5588916,-1.817268273,-1.320009355,-0.833453077,0.0,0.0,0.0,0.483039924,289.422806
15.7,0.009641313,1.06E-17,491.4584648,26093.17955,5.91E-23,4.24E-7,0.0,-149.3432259,-50.86963511,54.47413159,9.999999988558965,19.99999997711793,30.000000022972678,-29487.50789,1011.491332,0.001025893,749.7189182,425.7331966,-1.880879384,-1.256049614,-0.886531757,0.0,0.0,0.0,0.485875113,291.1811788
15.8,0.009636546,1.06E-17,494.4229095,26043.88545,6.19E-23,4.27E-7,0.0,-143.8997164,-52.07327321,51.22173287,9.999999988558965,19.99999997711793,30.000000022972678,-29665.37457,1011.699622,0.001027725,751.3666171,425.9085521,-1.939880782,-1.188788701,-0.943570971,0.0,0.0,0.0,0.488705243,292.9375643
15.9,0.009631744,7.24E-18,497.3839726,25994.29508,6.45E-23,4.3E-7,0.0,-138.21214,-53.07576899,47.70988854,9.999999988558965,19.99999997711793,30.000000022972678,-29843.03835,1011.909125,0.001029567,753.0253178,426.0849651,-1.993893808,-1.118501408,-1.004519517,0.0,0.0,0.0,0.491530277,294.6919462
16.0,0.009626907,2.8E-18,500.3416265,25944.40877,6.73E-23,4.32E-7,0.0,-132.3088797,-53.8584703,43.97014445,9.999999988558965,19.99999997711793,30.000000022972678,-30020.49759,1012.119832,0.00103142,754.69508,426.2624286,-2.042551646,-1.045483736,-1.069308526,0.0,0.0,0.0,0.494350185,296.4443082
16.1,0.009622035,2.24E-18,503.2958436,25894.22687,6.82E-23,4.35E-7,0.0,-126.2326878,-54.40519292,40.04837261,9.999999988558965,19.99999997711793,30.000000022972678,-30197.75062,1012.331743,0.001033285,756.3758203,426.4409427,-2.0855,-0.97005273,-1.137849043,0.0,0.0,0.0,0.497164934,298.194634
16.2,0.009617128,-6.64E-18,506.2465963,25843.74972,6.72E-23,4.37E-7,0.0,-120.039593,-54.70353456,36.00369133,9.999999988558965,19.99999997711793,30.000000022972678,-30374.79578,1012.544863,0.00103516,758.0676228,426.6205142,-2.122399762,-0.89254801,-1.210030138,0.0,0.0,0.0,0.499974485,299.9429072
16.3,0.009612186,-4.42E-18,509.1938569,25792.97767,6.52E-23,4.4E-7,0.0,-113.7956269,-54.74603536,31.9052049,9.999999988558965,19.99999997711793,30.000000022972678,-30551.63142,1012.759178,0.001037046,759.7704833,426.8011295,-2.152929365,-0.813333214,-1.285716893,0.0,0.0,0.0,0.502778813,301.6891113
16.4,0.009607208,-9.97E-18,512.1375976,25741.91107,6.26E-23,4.43E-7,0.0,-107.5716338,-54.53095145,27.82682629,9.999999988558965,19.99999997711793,30.000000022972678,-30728.25586,1012.974685,0.001038944,761.4844223,426.9827884,-2.176788349,-0.732797436,-1.364749674,0.0,0.0,0.0,0.505577884,303.43323
16.5,0.009602195,2.24E-18,515.0777904,25690.55027,6.19E-23,4.45E-7,0.0,-101.4370584,-54.06246324,23.84107796,9.999999988558965,19.99999997711793,30.000000022972678,-30904.66742,1013.1914,0.001040852,763.2093809,427.1655048,-2.193700381,-0.651355172,-1.446944129,0.0,0.0,0.0,0.508371657,305.1752466
16.6,0.009597147,3.35E-18,518.0144074,25638.89563,6.16E-23,4.48E-7,0.0,-95.4539848,-53.35026495,20.01314481,9.999999988558965,19.99999997711793,30.000000022972678,-31080.86444,1013.409298,0.001042771,764.9454467,427.349258,-2.203416586,-0.56944471,-1.532092412,0.0,0.0,0.0,0.511160109,306.9151446
16.7,0.009592064,-6.64E-18,520.9474205,25586.94751,6.13E-23,4.51E-7,0.0,-89.6726178,-52.40862874,16.3963698,9.999999988558965,19.99999997711793,30.000000022972678,-31256.84523,1013.628386,0.001044701,766.6926007,427.5340549,-2.205719483,-0.487525016,-1.619965702,0.0,0.0,0.0,0.513943204,308.6529074
16.8,0.009586945,-5.53E-18,523.8768017,25534.70627,5.9E-23,4.53E-7,0.0,-84.1288943,-51.25514769,13.02987897,9.999999988558965,19.99999997711793,30.000000022972678,-31432.6081,1013.848665,0.001046641,768.4508116,427.7198955,-2.200425195,-0.406071032,-1.710316056,0.0,0.0,0.0,0.516720907,310.3885183
16.9,0.009581791,-2.44E-17,526.8025227,25482.17227,5.47E-23,4.56E-7,0.0,-78.8442525,-49.90939703,9.938365009,9.999999988558965,19.99999997711793,30.000000022972678,-31608.15136,1014.070132,0.001048593,770.2201523,427.9067798,-2.187384873,-0.325568666,-1.802877749,0.0,0.0,0.0,0.519493185,312.1219605
17.0,0.0095766,-3.33E-17,529.7245552,25429.34588,4.76E-23,4.58E-7,0.0,-73.8270749,-48.39171538,7.133544074,9.999999988558965,19.99999997711793,30.000000022972678,-31783.47331,1014.292787,0.001050556,772.0006438,428.0947078,-2.166487473,-0.246510461,-1.897369709,0.0,0.0,0.0,0.522260004,313.8532175
17.1,0.009571375,-2.88E-17,532.6428709,25376.22748,4.02E-23,4.61E-7,0.0,-69.0750989,-46.72222923,4.616579525,9.999999988558965,19.99999997711793,30.000000022972678,-31958.57226,1014.516613,0.001052529,773.7921781,428.2836658,-2.13765954,-0.169391509,-1.993495692,0.0,0.0,0.0,0.52502134,315.5822723
17.2,0.009566113,-3.22E-17,535.5574415,25322.81744,3.19E-23,4.64E-7,0.0,-64.5781341,-44.92016273,2.380813194,9.999999988558965,19.99999997711793,30.000000022972678,-32133.44649,1014.741625,0.001054513,775.5949053,428.4736674,-2.100866612,-0.094706473,-2.090945854,0.0,0.0,0.0,0.527777148,317.3091081
17.3,0.009560816,-3.0E-17,538.4682383,25269.11612,2.3E-23,4.66E-7,0.0,-60.320619,-43.003415,0.414335707,9.999999988558965,19.99999997711793,30.000000022972678,-32308.0943,1014.967816,0.001056508,777.4087301,428.664706,-2.056112831,-0.022947079,-2.189396918,0.0,0.0,0.0,0.530527402,319.033708
17.4,0.009555483,-2.55E-17,541.3752328,25215.12392,1.69E-23,4.69E-7,0.0,-56.2837636,-40.98835494,-1.297856427,9.999999988558965,19.99999997711793,30.000000022972678,-32482.51397,1015.195175,0.001058514,779.2336611,428.8567744,-2.003442705,0.045399894,-2.288514681,0.0,0.0,0.0,0.533272071,320.7560552
17.5,0.009550113,-2.55E-17,544.2783964,25160.8412,9.45E-24,4.71E-7,0.0,-52.4471974,-38.88977494,-2.772198142,9.999999988558965,19.99999997711793,30.000000022972678,-32656.70379,1015.42371,0.001060531,781.0698366,429.0498798,-1.942939827,0.109854544,-2.387953698,0.0,0.0,0.0,0.536011117,322.4761326
17.6,0.009544708,-2.44E-17,547.1777005,25106.26837,2.24E-24,4.74E-7,0.0,-48.7901471,-36.7209493,-4.025362422,9.999999988558965,19.99999997711793,30.000000022972678,-32830.66203,1015.653412,0.001062558,782.9171091,429.244015,-1.874728032,0.169945663,-2.48735968,0.0,0.0,0.0,0.538744511,324.1939233
17.7,0.009539267,-3.33E-17,550.0731161,25051.40579,-6.62E-24,4.77E-7,0.0,-45.2922207,-34.49375463,-5.073460291,9.999999988558965,19.99999997711793,30.000000022972678,-33004.38697,1015.88428,0.001064597,784.7755521,429.4391803,-1.798971188,0.225212639,-2.586370726,0.0,0.0,0.0,0.54147222,325.9094102
17.8,0.00953379,-3.44E-17,552.9646146,24996.25387,-1.5E-23,4.79E-7,0.0,-41.9338874,-32.21882121,-5.931544685,9.999999988558965,19.99999997711793,30.000000022972678,-33177.87687,1016.116322,0.001066646,786.6451999,429.6353824,-1.71587316,0.275207432,-2.684618932,0.0,0.0,0.0,0.544194206,327.6225762
17.9,0.009528276,-3.44E-17,555.8521669,24940.813,-2.35E-23,4.82E-7,0.0,-38.6967362,-29.90569465,-6.613335092,9.999999988558965,19.99999997711793,30.000000022972678,-33351.13001,1016.349513,0.001068705,788.5260366,429.8326007,-1.625677524,0.319496602,-2.781731893,0.0,0.0,0.0,0.546910448,329.3334041
18.0,0.009522727,-2.11E-17,558.7357441,24885.08357,-3.05E-23,4.85E-7,0.0,-35.5635829,-27.56299532,-7.131094539,9.999999988558965,19.99999997711793,30.000000022972678,-33524.14465,1016.583875,0.001070776,790.4180695,430.0308559,-1.528667568,0.357663497,-2.877334981,0.0,0.0,0.0,0.5496209,331.0418769
18.1,0.00951714,-1.44E-17,561.6153172,24829.06599,-3.62E-23,4.87E-7,0.0,-32.5184768,-25.19856848,-7.495606667,9.999999988558965,19.99999997711793,30.000000022972678,-33696.91903,1016.819393,0.001072857,792.3212951,430.2301341,-1.42516535,0.389310335,-2.971052404,0.0,0.0,0.0,0.552325537,332.7479773
18.2,0.009511518,-1.39E-17,564.490857,24772.76064,-3.92E-23,4.9E-7,0.0,-29.546647,-22.81962185,-7.716215109,9.999999988558965,19.99999997711793,30.000000022972678,-33869.45142,1017.056056,0.001074949,794.2356705,430.4304286,-1.315531337,0.414060455,-3.062509569,0.0,0.0,0.0,0.555024331,334.4516881
18.3,0.009505859,-1.77E-17,567.3623344,24716.16795,-4.42E-23,4.92E-7,0.0,-26.6344134,-20.43284965,-7.800898982,9.999999988558965,19.99999997711793,30.000000022972678,-34041.74007,1017.293881,0.001077051,796.1613476,430.6317531,-1.200163346,0.431560439,-3.151334543,0.0,0.0,0.0,0.557717239,336.1529919
18.4,0.009500164,-2.22E-17,570.2297202,24659.28831,-5.03E-23,4.95E-7,0.0,-23.7690817,-18.04454348,-7.756367163,9.999999988558965,19.99999997711793,30.000000022972678,-34213.78321,1017.532851,0.001079164,798.0982186,430.8340938,-1.079495723,0.44148234,-3.237160518,0.0,0.0,0.0,0.560404236,337.8518716
18.5,0.009494432,-1.89E-17,573.0929851,24602.12215,-5.55E-23,4.98E-7,0.0,-20.9388346,-15.66069103,-7.588160357,9.999999988558965,19.99999997711793,30.000000022972678,-34385.57911,1017.77298,0.001081295,800.0515724,431.0374644,-0.953997815,0.44352569,-3.319627086,0.0,0.0,0.0,0.563085282,339.5483096
18.6,0.009488663,-1.77E-17,575.9520818,24544.66986,-6.05E-23,5.0E-7,0.0,-18.1326254,-13.28706406,-7.300754506,9.999999988558965,19.99999997711793,30.000000022972678,-34557.12491,1018.014317,0.001083526,802.0824999,431.2419063,-0.824243927,0.437457388,-3.398676376,0.0,0.0,0.0,0.565760296,341.2422781
18.7,0.009482857,-1.94E-17,578.806967,24486.93187,-6.52E-23,5.03E-7,0.0,-15.3400809,-10.92929683,-6.897662169,9.999999988558965,19.99999997711793,30.000000022972678,-34728.41802,1018.256797,0.001085768,804.1251764,431.4473643,-0.690676173,0.422998526,-3.473693587,0.0,0.0,0.0,0.568429269,342.9337513
18.8,0.009477014,-1.72E-17,581.6576104,24428.90861,-7.0E-23,5.05E-7,0.0,-12.5514149,-8.592956473,-6.38153067,9.999999988558965,19.99999997711793,30.000000022972678,-34899.45662,1018.500417,0.001088021,806.1794679,431.6538387,-0.553856592,0.399939502,-3.544340275,0.0,0.0,0.0,0.571092167,344.6227114
18.9,0.009471134,-2.08E-17,584.5039819,24370.60049,-7.56E-23,5.08E-7,0.0,-9.7573562,-6.283606119,-5.754237229,9.999999988558965,19.99999997711793,30.000000022972678,-35070.23891,1018.745178,0.001090286,808.245503,431.8613292,-0.414377822,0.368106641,-3.610299731,0.0,0.0,0.0,0.573748956,346.3091403
19.0,0.009465216,-1.83E-17,587.346051,24312.00795,-8.09E-23,5.1E-7,0.0,-6.9490909,-4.006861629,-5.016982308,9.999999988558965,19.99999997711793,30.000000022972678,-35240.76306,1018.99107,0.001092561,810.3232398,432.0698291,-0.272858622,0.327362672,-3.671270486,0.0,0.0,0.0,0.576399606,347.9930202
19.1,0.009459261,-1.41E-17,590.1837873,24253.13143,-8.54E-23,5.13E-7,0.0,-4.1182218,-1.768442433,-4.170383091,9.999999988558965,19.99999997711793,30.000000022972678,-35411.02724,1019.238093,0.001094847,812.4126497,432.2793384,-0.129941656,0.277608271,-3.726969254,0.0,0.0,0.0,0.579044084,349.6743331
19.2,0.009453268,-1.39E-17,593.0171605,24193.97134,-8.91E-23,5.16E-7,0.0,-1.2567449,0.425783422,-3.214569476,9.999999988558965,19.99999997711793,30.000000022972678,-35581.02963,1019.486245,0.001097144,814.5138088,432.489857,0.013709154,0.218783201,-3.777131473,0.0,0.0,0.0,0.581682356,351.3530608
19.3,0.009447238,-1.26E-17,595.84614,24134.52814,-9.28E-23,5.18E-7,0.0,1.6429545,2.569760216,-2.149285305,9.999999988558965,19.99999997711793,30.000000022972678,-35750.7684,1019.735527,0.001099453,816.6266885,432.701385,0.15741124,0.15086747,-3.821513926,0.0,0.0,0.0,0.584314388,353.0291853
19.4,0.00944117,-1.18E-17,598.6706952,24074.80226,-9.61E-23,5.21E-7,0.0,4.5880859,4.657212062,-0.973997683,9.999999988558965,19.99999997711793,30.000000022972678,-35920.24171,1019.985929,0.001101772,818.7512997,432.9139156,0.30046618,0.073882175,-3.859895103,0.0,0.0,0.0,0.586940151,354.7026885
19.5,0.009435064,-1.14E-17,601.4907954,24014.79415,-9.93E-23,5.23E-7,0.0,7.5854144,6.68161797,0.311982745,9.999999988558965,19.99999997711793,30.000000022972678,-36089.44773,1020.237458,0.001104102,820.8876796,433.1274554,0.442162651,-0.012109711,-3.892078185,0.0,0.0,0.0,0.589559608,356.3735522
19.6,0.009428921,-1.13E-17,604.3064101,23954.50425,-1.02E-22,5.26E-7,0.0,10.6411997,8.636195837,1.709367909,9.999999988558965,19.99999997711793,30.000000022972678,-36258.38461,1020.490105,0.001106443,823.0357864,433.3419978,0.581779447,-0.107002864,-3.91789147,0.0,0.0,0.0,0.592172729,358.0417583
19.7,0.00942274,-1.14E-17,607.1175084,23893.93302,-1.06E-22,5.29E-7,0.0,13.7611102,10.51389715,3.218742718,9.999999988558965,19.99999997711793,30.000000022972678,-36427.0505,1020.743862,0.001108796,825.195684,433.5575359,0.718588555,-0.210649252,-3.937189686,0.0,0.0,0.0,0.594779485,359.7072885
19.8,0.009416521,-1.07E-17,609.9240596,23833.0809,-1.09E-22,5.31E-7,0.0,16.9501121,12.30741454,4.840398486,9.999999988558965,19.99999997711793,30.000000022972678,-36595.44358,1020.998736,0.001111159,827.3673043,433.7740764,0.851858424,-0.322857995,-3.94985569,0.0,0.0,0.0,0.597379838,361.3701246
19.9,0.009410264,-1.13E-17,612.7260328,23771.94836,-1.12E-22,5.34E-7,0.0,20.2123368,14.00920455,6.574149558,9.999999988558965,19.99999997711793,30.000000022972678,-36763.56197,1021.254725,0.001113532,829.5507244,433.9916194,0.980857214,-0.443395428,-3.955801306,0.0,0.0,0.0,0.599973756,363.0302483
20.0,0.009403969,-1.54E-17,615.5233972,23710.53585,-1.15E-22,5.36E-7,0.0,23.550926,15.6115282,8.419135159,9.999999988558965,19.99999997711793,30.000000022972678,-36931.40383,1021.511814,0.001115917,831.7459423,434.2101512,1.104856038,-0.571985284,-3.954968035,0.0,0.0,0.0,0.602561213,364.6876414
