time,gePosition_ft_X,gePosition_ft_Y,gePosition_ft_Z,feVelocity_ft_s_X,feVelocity_ft_s_Y,feVelocity_ft_s_Z,altitudeMsl_ft,longitude_deg,latitude_deg,localGravity_ft_s2,eulerAngle_deg_Yaw,eulerAngle_deg_Pitch,eulerAngle_deg_Roll,bodyAngularRateWrtEi_deg_s_Roll,bodyAngularRateWrtEi_deg_s_Pitch,bodyAngularRateWrtEi_deg_s_Yaw,altitudeRateWrtMsl_ft_min,speedOfSound_ft_s,airDensity_slug_ft3,ambientPressure_lbf_ft2,ambientTemperature_dgR,aero_bodyForce_lbf_X,aero_bodyForce_lbf_Y,aero_bodyForce_lbf_Z,aero_bodyMoment_ftlbf_L,aero_bodyMoment_ftlbf_M,aero_bodyMoment_ftlbf_N,mach,dynamicPressure_lbf_ft2,trueAirspeed_nmi_h
0.0,2.09556463253E7,0.0,0.0,0.0,5.73526540393E-5,0.0,30000.0,0.0,0.0,32.1065364063,0.0,-0.0,0.0,0.0,0.0,0.0,0.0,994.853991834,8.91300230208E-4,630.333405472,411.83924,6.92690455674E-17,0.0428765568651,-0.0,0.0,0.0,0.0,0.0703620838581,2.18368556401,41.4738660195
0.1,2.09556461659E7,2.20920701273E-4,0.0,0.0,0.0043693792943,3.19941791156,29999.8405607,6.04029276396E-10,0.0,32.1065368662,0.0,0.0,-4.178080256580272E-4,0.0,0.0,0.0,-191.9650746936,994.854680617,8.91305280325E-4,630.337770086,411.839806885,6.93367247156E-17,0.0429158197937,-0.00196132726465,0.0,0.0,0.0,0.0704307726575,2.18796658213,41.5143823356
0.2,2.0955645686E7,8.75714646166E-4,0.0,0.0,0.00873623357575,6.39863947689,29999.3606561,2.39433105689E-9,0.0,32.1065383064,0.0,0.0,-8.356172375907919E-4,0.0,0.0,0.0,-383.9183686134,994.85675382,8.91320480931E-4,630.350907363,411.841513182,6.95474389197E-17,0.0430435982834,-0.00393453029994,0.0,0.0,0.0,0.0706448158203,2.20133221831,41.6406337034
0.3,2.09556448861E7,0.00197029780125,0.0,0.0,0.0131666457701,9.59766278978,29998.5608393,5.3870806176E-9,0.0,32.1065407285,0.0,0.0,-0.0012534276519671626,0.0,0.0,0.0,-575.8597673868,994.860209054,8.91345814511E-4,630.372802163,411.844356924,6.98998473008E-17,0.0432590406416,-0.00593171288951,0.0,0.0,0.0,0.0710028567527,2.22378092668,41.851821456
0.4,2.09556437664E7,0.00351146207041,0.0,0.0,0.0176693163087,12.7964849887,29997.4411302,9.60084828684E-9,0.0,32.1065441324,0.0,0.0,-0.0016712392873624315,0.0,0.0,0.0,-767.789099322,994.865046233,8.91381280433E-4,630.403453942,411.848338041,7.03917777981E-17,0.0435607808161,-0.00796473417564,0.0,0.0,0.0,0.0715026907408,2.25531199224,42.1466478041
0.5,2.09556423269E7,0.00550686180056,0.0,0.0,0.0222527859082,15.9951020416,29996.001549,1.50565625531E-8,0.0,32.106548518,0.0,0.0,-0.002089052164706747,0.0,0.0,0.0,-959.7061224959999,994.871265269,8.91426878053E-4,630.442862143,411.85345646,7.1020283072E-17,0.0439469731209,-0.0100451004426,0.0,0.0,0.0,0.0721413264283,2.29592528106,42.5233519503
0.6,2.09556405674E7,0.00796499548237,0.0,0.0,0.026925389888,19.1935087858,29994.2421166,2.17774600357E-8,0.0,32.1065538853,0.0,0.0,-0.002506866307233547,0.0,0.0,0.0,-1151.6105271479998,994.878866073,8.91482606713E-4,630.491026197,411.859712108,7.1781723382E-17,0.0444153435996,-0.0121838710263,0.0,0.0,0.0,0.0729150699728,2.34562122688,42.9797596598
0.7,2.09556384882E7,0.0108951831544,0.0,0.0,0.031695218071,22.3916989767,29992.1628544,2.97890237093E-8,0.0,32.1065602342,0.0,0.0,-0.002924681740422265,0.0,0.0,0.0,-1343.5019386019999,994.887848553,8.91548465739E-4,630.547945522,411.867104909,7.26718636419E-17,0.0449632501504,-0.0143915809847,0.0,0.0,0.0,0.0738196235971,2.40440081823,43.5133413082
0.8,2.09556360891E7,0.0143075401069,0.0,0.0,0.0365700809709,25.5896653427,29989.7637842,3.91189110105E-8,0.0,32.1065675647,0.0,0.0,-0.0033424984919410332,0.0,0.0,0.0,-1535.3799205619998,994.898212612,8.91624454433E-4,630.613619513,411.875634783,7.36859789997E-17,0.0455877479143,-0.0166781820408,0.0,0.0,0.0,0.0748501927944,2.47226558601,44.1212750261
0.9,2.09556333702E7,0.018212947536,0.0,0.0,0.0415574826422,28.7873996461,29987.0449289,4.97968736076E-8,0.0,32.1065758767,0.0,0.0,-0.0037603165915320903,0.0,0.0,0.0,-1727.243978766,994.909958153,8.91710572073E-4,630.688047548,411.885301652,7.48189634132E-17,0.0462856565021,-0.0190530020698,0.0,0.0,0.0,0.0760015965732,2.54921759188,44.8005116324
1.0,2.09556303316E7,0.0226230208177,0.0,0.0,0.0466646002117,31.9848927461,29984.0063122,6.18546706628E-8,0.0,32.1065851701,0.0,0.0,-0.004178136070960217,0.0,0.0,0.0,-1919.093564766,994.923085074,8.91806817909E-4,630.771228978,411.896105429,7.6065436262E-17,0.0470536259924,-0.0215247223184,0.0,0.0,0.0,0.0772683757068,2.6352594172,45.5478383904
1.1,2.09556269733E7,0.0275500760613,0.0,0.0,0.0518982698661,35.1821346647,29980.6479586,7.53259773896E-8,0.0,32.1065954449,0.0,0.0,-0.004595956963892413,0.0,0.0,0.0,-2110.928079882,994.937593269,8.91913191163E-4,630.863163131,411.908046028,7.74198429194E-17,0.0478881991801,-0.0241013707031,0.0,0.0,0.0,0.0786448948488,2.73039415272,46.3599391484
1.2,2.09556232952E7,0.0330070955634,0.0,0.0,0.0572649788057,38.3791146511,29976.9698938,9.02462906077E-8,0.0,32.1066067009,0.0,0.0,-0.0050137793058348725,0.0,0.0,0.0,-2302.7468790659996,994.953482626,8.92029691022E-4,630.963849303,411.921123358,7.88765462483E-17,0.0487858681948,-0.0267903289679,0.0,0.0,0.0,0.0801254354294,2.83462538895,47.2334490494
1.3,2.09556192975E7,0.0390076927325,0.0,0.0,0.0627708625534,41.5758212459,29972.9721446,1.06652832846E-7,0.0,32.1066189381,0.0,0.0,-0.005431603134006935,0.0,0.0,0.0,-2494.549274754,994.970753029,8.92156316638E-4,631.073286763,411.935337324,8.04299070445E-17,0.0497431242718,-0.0295983511896,0.0,0.0,0.0,0.0817042773307,2.94795720732,48.1650026274
1.4,2.095561498E7,0.045566076981,0.0,0.0,0.0684217068972,44.7722423426,29968.6547389,1.2458445636E-7,0.0,32.1066321564,0.0,0.0,-0.005849428487272326,0.0,0.0,0.0,-2686.3345405560003,994.989404359,8.92293067126E-4,631.191474746,411.950687825,8.20743524308E-17,0.0507565000586,-0.03253159106,0.0,0.0,0.0,0.0833757683241,3.07039417187,49.1512746956
1.5,2.0955610343E7,0.0526970190121,0.0,0.0,0.0742229537016,47.9683652463,29964.0177059,1.44081548229E-7,0.0,32.1066463557,0.0,0.0,-0.006267255405984464,0.0,0.0,0.0,-2878.1019147780003,995.009436489,8.92439941563E-4,631.318412452,411.967174759,8.38044320259E-17,0.0518226043495,-0.0355956354984,0.0,0.0,0.0,0.0851343810952,3.20194132172,50.1890139209
1.6,2.09556053864E7,0.0604158168503,0.0,0.0,0.0801797098582,51.1641767282,29959.0610761,1.65185937487E-7,0.0,32.1066615359,0.0,0.0,-0.006685083932015105,0.0,0.0,0.0,-3069.850603692,995.030849288,8.92596938982E-4,631.454099048,411.984798016,8.56148623486E-17,0.052938149538,-0.0387955423948,0.0,0.0,0.0,0.0869747583229,3.34260416406,51.2750693616
1.7,2.09556001102E7,0.0687382628938,0.0,0.0,0.0862967586525,54.359663077,29953.7848812,1.87940805043E-7,0.0,32.106677697,0.0,0.0,-0.007102914108507972,0.0,0.0,0.0,-3261.57978462,995.053642618,8.92764058376E-4,631.598533662,412.003557485,8.75005603674E-17,0.054099972348,-0.0421358806055,0.0,0.0,0.0,0.0888917467371,3.49238866774,52.406410512
1.8,2.09555945145E7,0.0776806121989,0.0,0.0,0.0925785729269,57.5548101457,29948.1891546,2.12390596979E-7,0.0,32.1066948388,0.0,0.0,-0.0075207459799245865,0.0,0.0,0.0,-3453.288608742,995.077816335,8.92941298693E-4,631.751715385,412.023453046,8.94566673785E-17,0.0553050485802,-0.0456207706661,0.0,0.0,0.0,0.0908804213554,3.65130125739,53.5801415628
1.9,2.09555885992E7,0.0872595521446,0.0,0.0,0.0990293294635,60.7496033949,29942.2739308,2.38580941614E-7,0.0,32.1067129612,0.0,0.0,-0.007938579591872393,0.0,0.0,0.0,-3644.976203694,995.10337029,8.93128658835E-4,631.913643268,412.044484577,9.14785645292E-17,0.0565505026884,-0.0492539250228,0.0,0.0,0.0,0.0929361012393,3.81934880795,54.7935106652
2.0,2.09555823646E7,0.0974921735785,0.0,0.0,0.105652924118,63.9440279313,29936.039246,2.6655857062E-7,0.0,32.1067320641,0.0,0.0,-0.00835641499116204,0.0,0.0,0.0,-3836.641675878,995.130304327,8.93326137657E-4,632.084316323,412.066651949,9.35618813259E-17,0.0578336130152,-0.0530386868972,0.0,0.0,0.0,0.0950543581271,3.99653863967,56.0439150004
2.1,2.09555758104E7,0.108395943495,0.0,0.0,0.112452987305,67.138068543,29929.4851378,2.96371244331E-7,0.0,32.1067521474,0.0,0.0,-0.008774252225463618,0.0,0.0,0.0,-4028.28411258,995.158618283,8.93533733969E-4,632.263733519,412.089955028,9.57024984105E-17,0.0591518134827,-0.0569780671627,0.0,0.0,0.0,0.0972310192477,4.18287851348,57.3289024207
2.2,2.0955568937E7,0.119988679269,0.0,0.0,0.119432899515,70.3317097315,29922.6116454,3.28067681298E-7,0.0,32.106773211,0.0,0.0,-0.009192091343535835,0.0,0.0,0.0,-4219.90258389,995.188311989,8.93751446529E-4,632.451893785,412.114393676,9.78965457804E-17,0.060502692465,-0.0610747788363,0.0,0.0,0.0,0.0994621655096,4.37837662669,58.6461703691
2.3,2.09555617441E7,0.132288524424,0.0,0.0,0.126595806612,73.5249357394,29915.4188095,3.61697492058E-7,0.0,32.1067952548,0.0,0.0,-0.00960993239493954,0.0,0.0,0.0,-4411.4961443639995,995.219385269,8.93979274047E-4,632.648796005,412.139967746,1.00140397497E-16,0.06188398949,-0.065331268969,0.0,0.0,0.0,0.101744126126,4.58304160899,59.9935626976
2.4,2.0955554232E7,0.145313925926,0.0,0.0,0.133944634725,76.7177305761,29907.9066724,3.97311117037E-7,0.0,32.1068182786,0.0,0.0,-0.010027775430209608,0.0,0.0,0.0,-4603.063834566,995.25183794,8.94217215184E-4,632.854439021,412.16667709,1.02430663778E-16,0.0632935903255,-0.0697497478505,0.0,0.0,0.0,0.104073470583,4.7968825187,61.3690649248
2.5,2.09555464006E7,0.159083612923,0.0,0.0,0.141482104586,79.9100780398,29900.075278,4.34959768452E-7,0.0,32.1068422823,0.0,0.0,-0.010445620500511177,0.0,0.0,0.0,-4794.604682388,995.285669813,8.94465268547E-4,633.06882163,412.19452155,1.04764181233E-16,0.0647295209159,-0.0743322155498,0.0,0.0,0.0,0.106446998729,5.01990883924,62.7707983824
2.6,2.095553825E7,0.173616576898,0.0,0.0,0.149210745229,83.1019617377,29891.924672,4.74695376044E-7,0.0,32.1068672658,0.0,0.0,-0.010863467657696921,0.0,0.0,0.0,-4986.117704261999,995.32088069,8.94723432694E-4,633.291942586,412.223500964,1.07138001861E-16,0.0661899405556,-0.0790804858812,0.0,0.0,0.0,0.108861729596,5.25213047584,64.1970136226
2.7,2.09555297802E7,0.188932053154,0.0,0.0,0.157132906978,86.2933651033,29883.4549014,5.16570536465E-7,0.0,32.1068932289,0.0,0.0,-0.011281316954536255,0.0,0.0,0.0,-5177.6019061980005,995.357470369,8.9499170613E-4,633.523800597,412.253615166,1.09549381299E-16,0.0676731346049,-0.0839962079335,0.0,0.0,0.0,0.111314889478,5.49355775234,65.6460833835
2.8,2.09555209913E7,0.205049503559,0.0,0.0,0.165250773703,89.4842714123,29874.6660153,5.60638466114E-7,0.0,32.1069201715,0.0,0.0,-0.011699168444085072,0.0,0.0,0.0,-5369.056284738001,995.395438636,8.95270087307E-4,633.764394323,412.28486398,1.11995766735E-16,0.0691775069942,-0.0890808853283,0.0,0.0,0.0,0.113803899658,5.74420140823,67.1164953492
2.9,2.09555118834E7,0.221988600482,0.0,0.0,0.173566374311,92.674663796,29865.558064,6.06952957219E-7,0.0,32.1069480935,0.0,0.0,-0.012117022180201402,0.0,0.0,0.0,-5560.47982776,995.434785276,8.95558574624E-4,634.013722383,412.317247228,1.14474784773E-16,0.0707015727018,-0.0943358933894,0.0,0.0,0.0,0.11632636409,6.00407259572,68.6068448845
3.0,2.09555024564E7,0.239769211839,0.0,0.0,0.182081593507,95.8645252537,29856.1310999,6.55568336963E-7,0.0,32.1069769946,0.0,0.0,-0.012534878217201648,0.0,0.0,0.0,-5751.871515221999,995.475510061,8.95857166426E-4,634.271783345,412.350764723,1.16984229475E-16,0.0722439503464,-0.0997624944075,0.0,0.0,0.0,0.118880057262,6.27318287695,70.1158278804
3.1,2.09554927105E7,0.258411387178,0.0,0.0,0.190798181805,99.0538386631,29846.3851769,7.06539429446E-7,0.0,32.1070068747,0.0,0.0,-0.012952736609917867,0.0,0.0,0.0,-5943.230319786,995.517612758,8.96165861004E-4,634.538575734,412.385416275,1.19522050761E-16,0.0738033549974,-0.105361851182,0.0,0.0,0.0,0.121462912426,6.55154422133,71.6422338099
3.2,2.09554826457E7,0.277935344731,0.0,0.0,0.199717764853,102.24258679,29836.3203507,7.59921520295E-7,0.0,32.1070377336,0.0,0.0,-0.013370597413640488,0.0,0.0,0.0,-6134.555207400001,995.561093128,8.96484656596E-4,634.814098024,412.421201684,1.22086343267E-16,0.0753785912741,-0.111135039015,0.0,0.0,0.0,0.12407301029,6.83916900286,73.1849390619
3.3,2.0955472262E7,0.298361459363,0.0,0.0,0.208841852065,105.430752295,29825.9366787,8.15770323721E-7,0.0,32.1070695712,0.0,0.0,-0.013788460684061008,0.0,0.0,0.0,-6325.8451377,995.605950921,8.96813551382E-4,635.098348645,412.458120746,1.24675335751E-16,0.0769685467802,-0.117083056323,0.0,0.0,0.0,0.126708568268,7.13606999754,74.7429006018
3.4,2.09554615595E7,0.319710251354,0.0,0.0,0.218171844625,108.618317745,29815.2342199,8.74141951854E-7,0.0,32.1071023874,0.0,0.0,-0.014206326477329292,0.0,0.0,0.0,-6517.0990647,995.652185884,8.97152543491E-4,635.391325978,412.496173253,1.27287381079E-16,0.0785721859037,-0.123206834014,0.0,0.0,0.0,0.129367930321,7.44226038091,76.315149982
3.5,2.09554505383E7,0.342002375946,0.0,0.0,0.227709042891,111.805265614,29804.2130354,9.35092886184E-7,0.0,32.1071361818,0.0,0.0,-0.014624194849881684,0.0,0.0,0.0,-6708.31593684,995.699797752,8.97501630994E-4,635.693028357,412.535358986,1.29920946824E-16,0.0801885439939,-0.129507243772,0.0,0.0,0.0,0.132049557419,7.75775372542,77.9007877197
3.6,2.09554391985E7,0.365258613612,0.0,0.0,0.237454653221,114.991578291,29792.8731876,9.98679950944E-7,0.0,32.1071709544,0.0,0.0,-0.015042065858612891,0.0,0.0,0.0,-6899.49469746,995.748786255,8.97860811907E-4,636.003454067,412.575677724,1.32574606482E-16,0.0818167219195,-0.135985105371,0.0,0.0,0.0,0.134752018632,8.08256399808,79.4989780414
3.7,2.09554275401E7,0.389499860966,0.0,0.0,0.247409794289,118.177238088,29781.2147411,1.06496028829E-6,0.0,32.1072067049,0.0,0.0,-0.015459939560532212,0.0,0.0,0.0,-7090.63428528,995.799151115,8.9823008419E-4,636.322601345,412.617129238,1.35247031287E-16,0.0834558810014,-0.142641193135,0.0,0.0,0.0,0.137473982829,8.41670555788,81.1089439906
3.8,2.09554155631E7,0.414747122296,0.0,0.0,0.257575502898,121.362227239,29769.237762,1.13399133514E-6,0.0,32.1072434331,0.0,0.0,-0.01587781601322191,0.0,0.0,0.0,-7281.73363434,995.850892046,8.98609445747E-4,636.650468379,412.659713291,1.37936982617E-16,0.0851052383099,-0.149476241642,0.0,0.0,0.0,0.140214210976,8.7601931534,82.7299628871
3.9,2.09554032676E7,0.441021501642,0.0,0.0,0.267952739349,124.546527907,29756.9423182,1.20583080153E-6,0.0,32.1072811389,0.0,0.0,-0.016295695274321537,0.0,0.0,0.0,-7472.79167442,995.904008754,8.98998894425E-4,636.987053308,412.703429643,1.40643304962E-16,0.0867640623106,-0.156490950759,0.0,0.0,0.0,0.14297154901,9.11304192029,84.3613621245
4.0,2.09553906538E7,0.468344195399,0.0,0.0,0.278542392385,127.730122185,29744.3284796,1.28053665041E-6,0.0,32.107319822,0.0,0.0,-0.01671357740181442,0.0,0.0,0.0,-7663.8073311,995.958500938,8.99398428016E-4,637.332354225,412.748278045,1.4336491943E-16,0.0884316688419,-0.163685990094,0.0,0.0,0.0,0.145744921248,9.47526737887,86.0025152863
4.1,2.09553777216E7,0.496736485389,0.0,0.0,0.28934528375,130.912992104,29731.3963176,1.35816707869E-6,0.0,32.1073594822,0.0,0.0,-0.017131462453855776,0.0,0.0,0.0,-7854.77952624,996.01436829,8.99808044253E-4,637.68636917,412.794258244,1.46100817751E-16,0.0901074174039,-0.171062002932,0.0,0.0,0.0,0.148533324316,9.84688543159,87.6528385659
4.2,2.09553644712E7,0.52621973237,0.0,0.0,0.300362172388,134.095119627,29718.1459055,1.43878049951E-6,0.0,32.1074001193,0.0,0.0,-0.017549350488887297,0.0,0.0,0.0,-8045.70717762,996.071610491,9.00227740814E-4,638.049096137,412.841369978,1.48850056756E-16,0.0917907077405,-0.178619609711,0.0,0.0,0.0,0.151335821556,10.2279123606,89.3117874675
4.3,2.09553509026E7,0.556815369959,0.0,0.0,0.31159375832,137.27648666,29704.5773186,1.52243552565E-6,0.0,32.107441733,0.0,0.0,-0.017967241565579873,0.0,0.0,0.0,-8236.5891996,996.130227219,9.00657515318E-4,638.420533066,412.88961298,1.51611753296E-16,0.0934809766931,-0.186359411101,0.0,0.0,0.0,0.154151537872,10.618364825,90.9788537712
4.4,2.09553370159E7,0.58854489891,0.0,0.0,0.323040686206,140.457075047,29690.6906337,1.60919095388E-6,0.0,32.1074843232,0.0,0.0,-0.018385135742604367,0.0,0.0,0.0,-8427.424502819998,996.190218139,9.01097365329E-4,638.800677854,412.938986977,1.54385079571E-16,0.0951776953079,-0.194281990735,0.0,0.0,0.0,0.156979655003,11.0182598589,92.6535627426
4.5,2.09553228112E7,0.621429881751,0.0,0.0,0.334703548643,143.636866576,29676.4859297,1.69910575028E-6,0.0,32.1075278896,0.0,0.0,-0.018803033079032742,0.0,0.0,0.0,-8618.211994559999,996.251582913,9.0154728835E-4,639.189528342,412.989491689,1.57169258832E-16,0.0968803661763,-0.202387917616,0.0,0.0,0.0,0.15981940717,11.427614868,94.3354705683
4.6,2.09553082886E7,0.655491937724,0.0,0.0,0.346582889201,146.815842977,29661.9632871,1.79223903649E-6,0.0,32.107572432,0.0,0.0,-0.019220933633936933,0.0,0.0,0.0,-8808.950578619999,996.314321191,9.02007281829E-4,639.587082324,413.041126828,1.59963561434E-16,0.0985885209921,-0.210677748266,0.0,0.0,0.0,0.162670077079,11.8464476278,96.0241620005
4.7,2.09552934481E7,0.690752738027,0.0,0.0,0.358679205217,149.993985926,29647.1227884,1.88865007661E-6,0.0,32.10761795,0.0,0.0,-0.01963883746661808,0.0,0.0,0.0,-8999.63915556,996.378432617,9.02477343156E-4,639.993337544,413.093892103,1.62767301213E-16,0.100301718307,-0.219152028621,0.0,0.0,0.0,0.165530992255,12.2747762805,97.7192481932
4.8,2.09552782898E7,0.72723400132,0.0,0.0,0.370992950388,153.171277044,29631.9645179,1.988398265E-6,0.0,32.1076644436,0.0,0.0,-0.020056744636434615,0.0,0.0,0.0,-9190.27662264,996.443916829,9.0295746966E-4,640.408291696,413.147787212,1.65579832152E-16,0.102019541467,-0.227811295721,0.0,0.0,0.0,0.16840152167,12.7126193323,99.420364716
4.9,2.09552628139E7,0.76495748948,0.0,0.0,0.383524537155,156.347697901,29616.4885615,2.09154311465E-6,0.0,32.1077119123,0.0,0.0,-0.02047465520291684,0.0,0.0,0.0,-9380.86187406,996.510773452,9.03447658616E-4,640.831942422,413.202811851,1.68400545323E-16,0.103741596723,-0.236656079204,0.0,0.0,0.0,0.171281072649,13.1599956513,101.127169729
5.0,2.09552470203E7,0.803945003584,0.0,0.0,0.396274338908,159.523230011,29600.6950074,2.19814424623E-6,0.0,32.107760356,0.0,0.0,-0.02089256922570967,0.0,0.0,0.0,-9571.39380066,996.579002109,9.03947907236E-4,641.264287314,413.258965707,1.71228866076E-16,0.105467511486,-0.245686902642,0.0,0.0,0.0,0.174169088027,13.616924464,102.839342308
5.1,2.09552309093E7,0.844218380109,0.0,0.0,0.409242692024,162.697854838,29584.5839453,2.30826137765E-6,0.0,32.1078097743,0.0,0.0,-0.02131048676445801,0.0,0.0,0.0,-9761.87129028,996.64860241,9.04458212677E-4,641.705323915,413.316248459,1.74064251453E-16,0.107196932727,-0.254904284721,0.0,0.0,0.0,0.177065043538,14.083425353,104.556580904
5.2,2.09552144808E7,0.885799487324,0.0,0.0,0.422429897748,165.871553793,29568.1554668,2.42195431429E-6,0.0,32.107860167,0.0,0.0,-0.02172840787903595,0.0,0.0,0.0,-9952.29322758,996.71957396,9.04978572036E-4,642.155049714,413.374659783,1.76906187814E-16,0.108929525513,-0.264308740297,0.0,0.0,0.0,0.179968445416,14.5595182541,106.278601928
5.3,2.0955197735E7,0.928710221862,0.0,0.0,0.435836223943,169.044308237,29551.4096655,2.53928293955E-6,0.0,32.1079115339,0.0,0.0,-0.022146332629260284,0.0,0.0,0.0,-10142.658494219999,996.791916354,9.0550898235E-4,642.613462153,413.434199346,1.79754188652E-16,0.110664971649,-0.273900781331,0.0,0.0,0.0,0.182878828187,15.0452234535,108.005138452
5.4,2.09551806719E7,0.972972505463,0.0,0.0,0.449461906695,172.216099479,29534.3466367,2.66030720603E-6,0.0,32.1079638745,0.0,0.0,-0.02256426107517699,0.0,0.0,0.0,-10332.96596874,996.865629181,9.06049440598E-4,643.08055862,413.494866808,1.82607792582E-16,0.112402968434,-0.283680917725,0.0,0.0,0.0,0.185795752642,15.5405615847,109.73593901
5.5,2.09551632918E7,1.01860828401,0.0,0.0,0.46330726372,175.386908489,29516.9664778,2.78508713285E-6,0.0,32.1080171888,0.0,0.0,-0.022982193276717446,0.0,0.0,0.0,-10523.21450934,996.940077613,9.06632251666E-4,643.593505003,413.55667151,1.8547317055E-16,0.114147294799,-0.293660121723,0.0,0.0,0.0,0.188718923753,16.046125379,111.470766318
5.6,2.09551455946E7,1.06563955789,0.0,0.0,0.477372978757,178.556715149,29499.2692879,2.9136828887E-6,0.0,32.1080714762,0.0,0.0,-0.02340012929409952,0.0,0.0,0.0,-10713.402908940001,997.015470121,9.07246773917E-4,644.140059581,413.619609909,1.88347989712E-16,0.115896493547,-0.303836399755,0.0,0.0,0.0,0.191647913371,16.5617956302,113.209395783
5.7,2.09551275805E7,1.11408837464,0.0,0.0,0.4916592918,181.725500313,29481.2551683,3.04615477173E-6,0.0,32.1081267366,0.0,0.0,-0.023818069187598382,0.0,0.0,0.0,-10903.53001878,997.092212795,9.07872301328E-4,644.696402121,413.68367544,1.91227689297E-16,0.117647738249,-0.314203839295,0.0,0.0,0.0,0.194582274562,17.0872420306,114.951615885
5.8,2.09551092495E7,1.16397679934,0.0,0.0,0.506166357949,184.893244931,29462.924222,3.1825631286E-6,0.0,32.1081829696,0.0,0.0,-0.024236013017603773,0.0,0.0,0.0,-11093.59469586,997.170305194,9.08508830317E-4,645.262529438,413.748867734,1.94111899555E-16,0.119400782326,-0.324763011646,0.0,0.0,0.0,0.197521655949,17.6224897745,116.697226751
5.9,2.09550906019E7,1.21532691124,0.0,0.0,0.52089430743,188.059929893,29444.276554,3.32296834529E-6,0.0,32.108240175,0.0,0.0,-0.02465396084444815,0.0,0.0,0.0,-11283.59579358,997.249746871,9.09156357239E-4,645.83843829,413.81518642,1.97000267813E-16,0.1211553897,-0.335514490026,0.0,0.0,0.0,0.200465724442,18.1675644386,118.446039269
6.0,2.09550716376E7,1.26816080132,0.0,0.0,0.535843246612,191.225536035,29425.3122713,3.46743084044E-6,0.0,32.1082983523,0.0,0.0,-0.02507191272857856,0.0,0.0,0.0,-11473.5321621,997.330537372,9.0981487838E-4,646.424125372,413.882631116,1.99892457247E-16,0.122911334037,-0.346458849973,0.0,0.0,0.0,0.203414163998,18.722491978,120.197874356
6.1,2.09550523568E7,1.32250056997,0.0,0.0,0.551013258944,194.390044131,29406.0314828,3.61601105896E-6,0.0,32.1083575013,0.0,0.0,-0.025489868730384755,0.0,0.0,0.0,-11663.402647859999,997.412676232,9.10484389962E-4,647.019587326,413.951201436,2.02788145741E-16,0.124668398037,-0.357596669704,0.0,0.0,0.0,0.206366674469,19.2872987229,121.95256228
6.2,2.09550327596E7,1.37836832473,0.0,0.0,0.56640440582,197.5534349,29386.4342992,3.7687694659E-6,0.0,32.1084176217,0.0,0.0,-0.025907828910428383,0.0,0.0,0.0,-11853.206094000001,997.49616298,9.11164888137E-4,647.624820728,414.020896985,2.05687024829E-16,0.126426372782,-0.368928530432,0.0,0.0,0.0,0.209322970553,19.862011375,123.709942037
6.3,2.09550128461E7,1.43578617809,0.0,0.0,0.582016727391,200.715689003,29366.5208331,3.92576654053E-6,0.0,32.108478713,0.0,0.0,-0.026325793329156476,0.0,0.0,0.0,-12042.94134018,997.580997135,9.11856368992E-4,648.2398221,414.091717363,2.08588798724E-16,0.128185057135,-0.380455016647,0.0,0.0,0.0,0.212282780807,20.4466570035,125.469860777
6.4,2.09549926165E7,1.49477624547,0.0,0.0,0.597850243311,203.876787039,29346.2911993,4.08706277064E-6,0.0,32.108540775,0.0,0.0,-0.026743762047016093,0.0,0.0,0.0,-12232.607222339999,997.667178209,9.12558828547E-4,648.8645879,414.163662163,2.11493183409E-16,0.129944257177,-0.392176716362,0.0,0.0,0.0,0.215245846746,21.0412630418,127.232173264
6.5,2.09549720708E7,1.55536064316,0.0,0.0,0.613904953431,207.036709552,29325.7455142,4.25271864704E-6,0.0,32.1086038073,0.0,0.0,-0.02716173512451157,0.0,0.0,0.0,-12422.20257312,997.754705705,9.13272262754E-4,649.499114528,414.236730968,2.14399905808E-16,0.131703785694,-0.404094221328,0.0,0.0,0.0,0.218211922007,21.6458572831,128.996741388
6.6,2.09549512092E7,1.61756148637,0.0,0.0,0.630180838448,210.195437024,29304.8838965,4.42279465823E-6,0.0,32.1086678096,0.0,0.0,-0.027579712622147253,0.0,0.0,0.0,-12611.72622144,997.843579119,9.13996667496E-4,650.143398323,414.310923359,2.17308703001E-16,0.133463461692,-0.416208127221,0.0,0.0,0.0,0.221180771568,22.2604678772,130.763433705
6.7,2.09549300318E7,1.68140088735,0.0,0.0,0.646677860496,213.352949878,29283.7064666,4.59735128529E-6,0.0,32.1087327814,0.0,0.0,-0.027997694600427493,0.0,0.0,0.0,-12801.17699268,997.933797937,9.1473203859E-4,650.797435565,414.386238906,2.2021932151E-16,0.135223109951,-0.428519033809,0.0,0.0,0.0,0.224152171036,22.8851233261,132.532125009
6.8,2.09549085387E7,1.74690095359,0.0,0.0,0.663395963708,216.509228477,29262.213347,4.77644899682E-6,0.0,32.1087987225,0.0,0.0,-0.028415681119742027,0.0,0.0,0.0,-12990.55370862,998.025361638,9.15478371785E-4,651.461222472,414.462677175,2.23131516624E-16,0.136982560616,-0.441027545089,0.0,0.0,0.0,0.22712590597,23.5198524801,134.302695947
6.9,2.095488673E7,1.81408378598,0.0,0.0,0.680335074723,219.664253123,29240.4046621,4.96014824414E-6,0.0,32.1088656324,0.0,0.0,-0.0288336722406525,0.0,0.0,0.0,-13179.85518738,998.118269691,9.1623566276E-4,652.134755202,414.540237721,2.26045051784E-16,0.138741648808,-0.453734269411,0.0,0.0,0.0,0.230101771273,24.164684534,136.075032644
7.0,2.09548646058E7,1.88297147716,0.0,0.0,0.697495103174,222.818004058,29218.2805382,5.14850945659E-6,0.0,32.1089335108,0.0,0.0,-0.029251668023491374,0.0,0.0,0.0,-13369.08024348,998.212521558,9.17003907127E-4,652.818029851,414.618920097,2.28959697998E-16,0.140500214267,-0.466639819576,0.0,0.0,0.0,0.233079570609,24.8196490228,137.849026372
7.1,2.09548421664E7,1.95358610977,0.0,0.0,0.714875942121,225.970461461,29195.8411037,5.3415930369E-6,0.0,32.1090023573,0.0,0.0,-0.029669668528648392,0.0,0.0,0.0,-13558.22768766,998.308116692,9.17783100428E-4,653.511042456,414.698723846,2.31875233307E-16,0.14225810102,-0.479744812926,0.0,0.0,0.0,0.236059115873,25.4847758174,139.624573229
7.2,2.09548194118E7,2.02594975487,0.0,0.0,0.732477468468,229.12160545,29173.0864889,5.53945935675E-6,0.0,32.1090721715,0.0,0.0,-0.0300876738166279,0.0,0.0,0.0,-13747.296327,998.405054538,9.18573238137E-4,654.213788991,414.779648503,2.34791442281E-16,0.14401515707,-0.493049871406,0.0,0.0,0.0,0.23904022669,26.160095121,141.401573851
7.3,2.09547963421E7,2.1000844703,0.0,0.0,0.750299543343,232.271416079,29150.0168263,5.74216875243E-6,0.0,32.109142953,0.0,0.0,-0.030505683947647765,0.0,0.0,0.0,-13936.28496474,998.503334533,9.1937431566E-4,654.926265369,414.861693599,2.37708115554E-16,0.145771234107,-0.50655562163,0.0,0.0,0.0,0.242022729959,26.8456374639,143.179933133
7.4,2.09547729576E7,2.17601229915,0.0,0.0,0.768342012448,235.419873342,29126.6322501,5.94978152053E-6,0.0,32.1092147013,0.0,0.0,-0.030923698982040438,0.0,0.0,0.0,-14125.19240052,998.602956103,9.2018632833E-4,655.64846744,414.944858655,2.40625049384E-16,0.147526187238,-0.520262694913,0.0,0.0,0.0,0.245006459415,27.5414337001,144.95955998
7.5,2.09547492582E7,2.2537552682,0.0,0.0,0.78660470639,238.566957167,29102.9328966,6.16235791382E-6,0.0,32.1092874162,0.0,0.0,-0.03134171898008109,0.0,0.0,0.0,-14314.01743002,998.703918669,9.21009271415E-4,656.380390995,415.029143188,2.43542045248E-16,0.149279874738,-0.534171727312,0.0,0.0,0.0,0.247991255234,28.2475150023,146.740367068
7.6,2.09547252442E7,2.33333538647,0.0,0.0,0.805087440979,241.712647419,29078.9189043,6.37995813713E-6,0.0,32.1093610972,0.0,0.0,-0.03175974400193027,0.0,0.0,0.0,-14502.75884514,998.80622164,9.21843140109E-4,657.12203176,415.114546704,2.46458909464E-16,0.15103215781,-0.548283359639,0.0,0.0,0.0,0.250976963657,28.9639128578,148.522270624
7.7,2.09547009157E7,2.4147746437,0.0,0.0,0.82379001751,244.856923898,29054.5904135,6.60264234338E-6,0.0,32.1094357438,0.0,0.0,-0.032177774107748566,0.0,0.0,0.0,-14691.41543388,998.909864419,9.22687929539E-4,657.8733854,415.201068704,2.49375452831E-16,0.15278290037,-0.562598237473,0.0,0.0,0.0,0.253963436637,29.6906590637,150.305190218
7.8,2.09546762729E7,2.49809500895,0.0,0.0,0.842712223022,247.999766342,29029.9475666,6.83047062965E-6,0.0,32.1095113556,0.0,0.0,-0.032595809357696535,0.0,0.0,0.0,-14879.98598052,999.014846399,9.2354363476E-4,658.634447518,415.288708683,2.52291490298E-16,0.154531968838,-0.577117011166,0.0,0.0,0.0,0.256950531521,30.4277857226,152.089048573
7.9,2.09546513158E7,2.58331842918,0.0,0.0,0.861853830533,251.14115442,29004.9905079,7.06350303327E-6,0.0,32.1095879322,0.0,0.0,-0.03301384981170556,0.0,0.0,0.0,-15068.4692652,999.121166965,9.24410250758E-4,659.405213655,415.377466126,2.55206840652E-16,0.156279231949,-0.59184033583,0.0,0.0,0.0,0.259938110739,31.1753252379,153.873771386
8.0,2.09546260447E7,2.67046682784,0.0,0.0,0.881214599263,254.281067738,28979.719384,7.30179952812E-6,0.0,32.1096654732,0.0,0.0,-0.033431895529821634,0.0,0.0,0.0,-15256.86406428,999.228825493,9.25287772446E-4,660.185679285,415.467340512,2.58121326229E-16,0.15802456057,-0.606768871325,0.0,0.0,0.0,0.262926041522,31.9333103091,155.659287156
8.1,2.09546004597E7,2.75956210351,0.0,0.0,0.900794274833,257.419485833,28954.1343434,7.54542002077E-6,0.0,32.1097439781,0.0,0.0,-0.033849946571976125,0.0,0.0,0.0,-15445.16914998,999.33782135,9.26176194669E-4,660.975839824,415.558331315,2.61034772635E-16,0.159767827532,-0.621903282236,0.0,0.0,0.0,0.265914195637,32.7017739271,157.44552703
8.2,2.09545745608E7,2.85062612855,0.0,0.0,0.920592589453,260.556388178,28928.2355366,7.79442434689E-6,0.0,32.1098234465,0.0,0.0,-0.034268002997928544,0.0,0.0,0.0,-15633.383290680002,999.448153895,9.27075512199E-4,661.775690623,415.650437997,2.63947008493E-16,0.161508907471,-0.637244237847,0.0,0.0,0.0,0.268902449135,33.4807493694,159.232424656
8.3,2.09545483484E7,2.94368074777,0.0,0.0,0.94060926209,263.691754177,28902.0231161,8.04887226758E-6,0.0,32.1099038778,0.0,0.0,-0.03468606486743838,0.0,0.0,0.0,-15821.50525062,999.559822478,9.27985719736E-4,662.585226967,415.743660017,2.66857865201E-16,0.16324767668,-0.652792412101,0.0,0.0,0.0,0.271890682121,34.2702701952,161.019916044
8.4,2.09545218225E7,3.0387477771,0.0,0.0,0.960843998627,266.825563169,28875.4972368,8.30882346574E-6,0.0,32.1099852717,0.0,0.0,-0.03510413224026514,0.0,0.0,0.0,-16009.533790140002,999.67282644,9.2890681191E-4,663.40444408,415.837996824,2.69767176704E-16,0.164984012971,-0.668548483566,0.0,0.0,0.0,0.274878778536,35.0703702406,162.807939437
8.5,2.09544949834E7,3.13584900229,0.0,0.0,0.981296492002,269.95779442,28848.6580552,8.57433754257E-6,0.0,32.1100676277,0.0,0.0,-0.03552220517599641,0.0,0.0,0.0,-16197.467665200002,999.787165114,9.29838783278E-4,664.233337122,415.933447861,2.72674779282E-16,0.166717795541,-0.684513135382,0.0,0.0,0.0,0.277866625947,35.8810836134,164.59643519
8.6,2.0954467831E7,3.23500617764,0.0,0.0,1.00196642234,273.088427133,28821.5057303,8.84547401403E-6,0.0,32.1101509453,0.0,0.0,-0.03594028373410524,0.0,0.0,0.0,-16385.30562798,999.902837821,9.30781628326E-4,665.071901188,416.030012563,2.75580511351E-16,0.168448904849,-0.700687055216,0.0,0.0,0.0,0.28085411536,36.7024446885,166.385345659
8.7,2.09544403657E7,3.33624102469,0.0,0.0,1.02285345706,276.217440439,28794.0404229,9.12229230736E-6,0.0,32.1102352239,0.0,0.0,-0.03635836797400734,0.0,0.0,0.0,-16573.04642634,1000.01984388,9.31735341467E-4,665.920131309,416.127690358,2.78484213269E-16,0.1701772225,-0.717070935204,0.0,0.0,0.0,0.283841141039,37.5344881024,168.174615089
8.8,2.09544125876E7,3.439575231,0.0,0.0,1.04395725101,279.344813398,28766.262296,9.40485175759E-6,0.0,32.1103204632,0.0,0.0,-0.03677645795506114,0.0,0.0,0.0,-16760.68880388,1000.13818259,9.32699917041E-4,666.778022451,416.226480666,2.81385727166E-16,0.171902631139,-0.733665471891,0.0,0.0,0.0,0.286827600335,38.3772487483,169.964189518
8.9,2.09543844968E7,3.54503044884,0.0,0.0,1.06527744652,282.470525005,28738.1715147,9.69321160421E-6,0.0,32.1104066627,0.0,0.0,-0.03719455373656777,0.0,0.0,0.0,-16948.2315003,1000.25785325,9.33675349315E-4,667.645569515,416.326382901,2.84284896768E-16,0.173625014342,-0.750471366164,0.0,0.0,0.0,0.289813393525,39.2307617706,171.754016683
9.0,2.09543560936E7,3.65262829398,0.0,0.0,1.08681367352,285.594554179,28709.7682462,9.98743098766E-6,0.0,32.1104938217,0.0,0.0,-0.03761265537759918,0.0,0.0,0.0,-17135.67325074,1000.37885516,9.34661632484E-4,668.52276734,416.427396467,2.87181567245E-16,0.175344256524,-0.767489323191,0.0,0.0,0.0,0.29279842367,40.0950625602,173.544045929
9.1,2.0954327378E7,3.76239034446,0.0,0.0,1.10856554961,288.716879773,28681.0526597,1.0287568946E-5,0.0,32.1105819399,0.0,0.0,-0.038030762937170025,0.0,0.0,0.0,-17323.01278638,1000.50118758,9.3565876067E-4,669.409610694,416.529520762,2.90075585057E-16,0.177060242846,-0.784720052342,0.0,0.0,0.0,0.295782596465,40.9701867486,175.334228127
9.2,2.09542983502E7,3.87433813933,0.0,0.0,1.13053268012,291.837480566,28652.0249268,1.05936844117E-5,0.0,32.1106710166,0.0,0.0,-0.038448876474237656,0.0,0.0,0.0,-17510.248833960002,1000.62484979,9.36666727919E-4,670.306094286,416.632755178,2.92966797819E-16,0.178772859127,-0.802164267117,0.0,0.0,0.0,0.298765820113,41.856170203,177.124515597
9.3,2.09542690105E7,3.98849317742,0.0,0.0,1.15271465817,294.956335267,28622.6852208,1.09058362078E-5,0.0,32.1107610515,0.0,0.0,-0.038866996047702135,0.0,0.0,0.0,-17697.38011602,1000.74984104,9.37685528206E-4,671.212212755,416.737099095,2.95855054159E-16,0.180481991764,-0.81982268507,0.0,0.0,0.0,0.301748005197,42.7530490204,178.914862031
9.4,2.0954239359E7,4.10487691618,0.0,0.0,1.17511106471,298.073422511,28593.0337177,1.12240830453E-5,0.0,32.1108520439,0.0,0.0,-0.03928512171611976,0.0,0.0,0.0,-17884.40535066,1000.8761606,9.3871515543E-4,672.127960675,416.842551891,2.987402036E-16,0.182187527654,-0.837696027722,0.0,0.0,0.0,0.304729064565,43.6608595225,180.705222427
9.5,2.09542093959E7,4.22351077038,0.0,0.0,1.19772146859,301.188720863,28563.070595,1.15484835194E-5,0.0,32.1109439933,0.0,0.0,-0.03970325353827598,0.0,0.0,0.0,-18071.323251780002,1001.0038077,9.39755603418E-4,673.053332555,416.949112932,3.01622096436E-16,0.183889354123,-0.855785020481,0.0,0.0,0.0,0.307708913218,44.57963825,182.495553021
9.6,2.09541791213E7,4.34441611098,0.0,0.0,1.22054542659,304.302208814,28532.7960328,1.18790961061E-5,0.0,32.1110368992,0.0,0.0,-0.04012139157244062,0.0,0.0,0.0,-18258.13252884,1001.13278158,9.40806865919E-4,673.988322837,417.056781579,3.04500583618E-16,0.185587358856,-0.874090392552,0.0,0.0,0.0,0.310687468203,45.5094219571,184.285811225
9.7,2.09541485355E7,4.46761426385,0.0,0.0,1.24358248341,307.413864782,28502.2102133,1.22159791593E-5,0.0,32.111130761,0.0,0.0,-0.04053953587716996,0.0,0.0,0.0,-18444.83188692,1001.26308145,9.4186893661E-4,674.932925896,417.165557183,3.07375516653E-16,0.18728142983,-0.892612876849,0.0,0.0,0.0,0.31366464852,46.4502476056,186.07595557
9.8,2.09541176386E7,4.59312650863,0.0,0.0,1.26683217175,310.523667112,28471.3133207,1.25591909071E-5,0.0,32.1112255783,0.0,0.0,-0.04095768651050463,0.0,0.0,0.0,-18631.42002672,1001.39470654,9.42941809091E-4,675.887136042,417.27543909,3.10246747495E-16,0.188971455255,-0.911353209901,0.0,0.0,0.0,0.316640375025,47.4021523595,187.865945651
9.9,2.09540864309E7,4.72097407748,0.0,0.0,1.29029401229,313.631594073,28440.1055414,1.29087894489E-5,0.0,32.1113213503,0.0,0.0,-0.04137584353071444,0.0,0.0,0.0,-18817.895644379998,1001.52765605,9.4402547689E-4,676.850947515,417.386426636,3.13114128454E-16,0.190657323516,-0.930312131756,0.0,0.0,0.0,0.319614570344,48.365173579,189.655742074
10.0,2.09540549124E7,4.85117815391,0.0,0.0,1.3139675137,316.737623864,28408.587064,1.32648327518E-5,0.0,32.1114180766,0.0,0.0,-0.04179400699561081,0.0,0.0,0.0,-19004.25743184,1001.66192918,9.45119933454E-4,677.824354491,417.49851915,3.15977512101E-16,0.192338923115,-0.949490385889,0.0,0.0,0.0,0.322587158788,49.3393488148,191.445306405
10.1,2.09540230834E7,4.98375987155,0.0,0.0,1.33785217269,319.841734605,28376.7580795,1.36273786475E-5,0.0,32.1115157566,0.0,0.0,-0.0422121769631771,0.0,0.0,0.0,-19190.5040763,1001.79752512,9.4622517216E-4,678.807351076,417.611715955,3.18836751183E-16,0.19401614262,-0.968888719094,0.0,0.0,0.0,0.325558066276,50.324715802,193.234601128
10.2,2.09539909441E7,5.11874031298,0.0,0.0,1.36194747394,322.943904344,28344.6187808,1.39964848291E-5,0.0,32.1116143897,0.0,0.0,-0.04263035349093824,0.0,0.0,0.0,-19376.63426064,1001.93444303,9.47341186304E-4,679.799931311,417.726016363,3.2169169854E-16,0.195688870616,-0.98850788139,0.0,0.0,0.0,0.328527220262,51.3213124545,195.023589597
10.3,2.09539584947E7,5.25614050852,0.0,0.0,1.38625289015,326.044111053,28312.169363,1.43722088474E-5,0.0,32.1117139753,0.0,0.0,-0.043048536636591105,0.0,0.0,0.0,-19562.64666318,1002.0726821,9.48467969109E-4,680.802089165,417.84141968,3.24542207029E-16,0.197356995658,-1.00834862591,0.0,0.0,0.0,0.331494549664,52.3291768589,196.812235995
10.4,2.09539257353E7,5.395981435,0.0,0.0,1.41076788202,329.142332628,28279.4100236,1.47546081083E-5,0.0,32.1118145129,0.0,0.0,-0.043466726457488766,0.0,0.0,0.0,-19748.53995768,1002.21224147,9.4960551372E-4,681.813818543,417.957925204,3.27388129445E-16,0.199020406225,-1.02841170881,0.0,0.0,0.0,0.334459984794,53.3483472682,198.600505298
10.5,2.09538926663E7,5.53828401459,0.0,0.0,1.43549189822,332.23854689,28246.3409623,1.5143739869E-5,0.0,32.1119160017,0.0,0.0,-0.0438849230108697,0.0,0.0,0.0,-19934.3128134,1002.35312031,9.50753813205E-4,682.83511328,418.075532225,3.30229318452E-16,0.200678990677,-1.04869788914,0.0,0.0,0.0,0.337423457302,54.3788620959,200.388363231
10.6,2.09538592877E7,5.68306911362,0.0,0.0,1.4604243754,335.332731584,28212.9623808,1.55396612348E-5,0.0,32.1120184413,0.0,0.0,-0.0443031263538578,0.0,0.0,0.0,-20119.96389504,1002.49531774,9.51912860556E-4,683.865967142,418.194240026,3.33065626516E-16,0.202332637218,-1.06920792873,0.0,0.0,0.0,0.34038490011,55.42075991,202.175776239
10.7,2.09538255998E7,5.83035754129,0.0,0.0,1.48556473812,338.424864377,28179.2744832,1.59424291558E-5,0.0,32.112121831,0.0,0.0,-0.04472133654340508,0.0,0.0,0.0,-20305.49186262,1002.6388329,9.53082648685E-4,684.906373826,418.31404788,3.35896905841E-16,0.203981233854,-1.08994259214,0.0,0.0,0.0,0.343344247361,56.4740794262,203.96271145
10.8,2.09537916028E7,5.98017004856,0.0,0.0,1.51091239889,341.514922862,28145.2774759,1.6352100424E-5,0.0,32.1122261702,0.0,0.0,-0.04513955363634893,0.0,0.0,0.0,-20490.89537172,1002.78366491,9.5426317043E-4,685.956326962,418.434955055,3.38723008306E-16,0.205624668362,-1.11090264645,0.0,0.0,0.0,0.34630143436,57.5388595026,205.749136643
10.9,2.09537572969E7,6.13252732687,0.0,0.0,1.53646675811,344.602884553,28110.9715674,1.67687316695E-5,0.0,32.1123314583,0.0,0.0,-0.04555777768918302,0.0,0.0,0.0,-20676.17307318,1002.92981289,9.55454418548E-4,687.015820106,418.556960807,3.41543785409E-16,0.207262828248,-1.13208886121,0.0,0.0,0.0,0.349256397529,58.6151391323,207.535020221
11.0,2.09537226823E7,6.28745000696,0.0,0.0,1.56222720401,347.688726888,28076.3569685,1.71923793572E-5,0.0,32.1124376945,0.0,0.0,-0.04597600875851556,0.0,0.0,0.0,-20861.32361328,1003.07727593,9.56656385719E-4,688.084846751,418.680064389,3.44359088207E-16,0.208895600722,-1.15350200834,0.0,0.0,0.0,0.352209074354,59.7029574379,209.320331178
11.1,2.09536877592E7,6.44495865765,0.0,0.0,1.58819311266,350.772427227,28041.4338923,1.76230997838E-5,0.0,32.1125448784,0.0,0.0,-0.046394246900553715,0.0,0.0,0.0,-21046.34563362,1003.22605313,9.57869064544E-4,689.163400314,418.80426504,3.47168767268E-16,0.210522872662,-1.17514286193,0.0,0.0,0.0,0.35515940334,60.8023536643,211.105039074
11.2,2.09536525279E7,6.60507378458,0.0,0.0,1.61436384792,353.853962853,28006.202554,1.80609490744E-5,0.0,32.1126530092,0.0,0.0,-0.04681249217150465,0.0,0.0,0.0,-21231.23777118,1003.37614356,9.59092447546E-4,690.251474147,418.929561997,3.49972672617E-16,0.212144530587,-1.1970121982,0.0,0.0,0.0,0.358107323973,61.9133671731,212.889114009
11.3,2.09536169885E7,6.76781582907,0.0,0.0,1.64073876139,356.933310971,27970.6631714,1.8505983179E-5,0.0,32.1127620864,0.0,0.0,-0.04723074462723174,0.0,0.0,0.0,-21415.998658260003,1003.52754631,9.60326527169E-4,691.349061527,419.055954485,3.52770653689E-16,0.213760460626,-1.21911079536,0.0,0.0,0.0,0.361052776672,63.0360374352,214.672526598
11.4,2.09535811413E7,6.9332051668,0.0,0.0,1.66731719235,360.010448708,27934.8159643,1.8958257869E-5,0.0,32.1128721091,0.0,0.0,-0.04764900432354107,0.0,0.0,0.0,-21600.62692248,1003.68026044,9.61571295777E-4,692.456155665,419.183441722,3.55562559281E-16,0.215370548495,-1.24143943344,0.0,0.0,0.0,0.363995702752,64.1704040248,216.455247948
11.5,2.09535449865E7,7.10126210664,0.0,0.0,1.69409846776,363.085353113,27898.6611549,1.94178287345E-5,0.0,32.1129830768,0.0,0.0,-0.04806727131606686,0.0,0.0,0.0,-21785.12118678,1003.83428499,9.62826745655E-4,693.572749697,419.312022917,3.5834823751E-16,0.216974679471,-1.26399889423,0.0,0.0,0.0,0.366936044389,65.3165066124,218.237249636
11.6,2.09535085243E7,7.27200688938,0.0,0.0,1.72108190216,366.158001157,27862.1989677,1.98847511799E-5,0.0,32.1130949888,0.0,0.0,-0.04848554566009952,0.0,0.0,0.0,-21969.48006942,1003.98961901,9.64092869008E-4,694.698836692,419.441697273,3.61127535769E-16,0.218572738367,-1.28678996113,0.0,0.0,0.0,0.369873744582,66.4743849584,220.018503688
11.7,2.09534717549E7,7.44545968649,0.0,0.0,1.74826679767,369.228369733,27825.4296294,2.03590804216E-5,0.0,32.1132078444,0.0,0.0,-0.04890382741098679,0.0,0.0,0.0,-22153.70218398,1004.14626155,9.65369657961E-4,695.834409645,419.572463983,3.63900300688E-16,0.220164609508,-1.30981341901,0.0,0.0,0.0,0.372808747121,67.6440789061,221.798982555
11.8,2.09534346787E7,7.62164059889,0.0,0.0,1.77565244389,372.296435653,27788.3533692,2.08408714838E-5,0.0,32.1133216429,0.0,0.0,-0.049322116623675305,0.0,0.0,0.0,-22337.78613918,1004.30421161,9.66657104557E-4,696.97946148,419.704322232,3.66666378095E-16,0.221750176712,-1.33307005407,0.0,0.0,0.0,0.375740996555,68.8256283751,223.5786591
11.9,2.09533972957E7,7.80056965568,0.0,0.0,1.80323811786,375.362175653,27750.9704185,2.13301791953E-5,0.0,32.1134363837,0.0,0.0,-0.04974041335299714,0.0,0.0,0.0,-22521.73053918,1004.46346822,9.67955200762E-4,698.133985051,419.837271197,3.69425612978E-16,0.223329323269,-1.35656065378,0.0,0.0,0.0,0.378670438159,70.0190733543,225.357506576
12.0,2.09533596063E7,7.98226681288,0.0,0.0,1.83102308403,378.425566389,27713.2810111,2.18270581863E-5,0.0,32.1135520659,0.0,0.0,-0.05015871765361246,0.0,0.0,0.0,-22705.53398334,1004.62403037,9.69263938457E-4,699.297973137,419.971310047,3.72177849453E-16,0.22490193192,-1.38028600666,0.0,0.0,0.0,0.381597017909,71.2244538951,227.135498609
12.1,2.09533216107E7,8.16675195218,0.0,0.0,1.85900659416,381.486584437,27675.285383,2.23315628846E-5,0.0,32.113668689,0.0,0.0,-0.05057702957995227,0.0,0.0,0.0,-22889.19506622,1004.78589707,9.70583309445E-4,700.471418448,420.106437942,3.74922930725E-16,0.226467884841,-1.40424690222,0.0,0.0,0.0,0.384520682451,72.4418101044,228.912609183
12.2,2.09532833091E7,8.35404487965,0.0,0.0,1.88718788728,384.545206298,27636.9837728,2.28437475123E-5,0.0,32.1137862522,0.0,0.0,-0.050995349186218356,0.0,0.0,0.0,-23072.712377879998,1004.94906729,9.71913305446E-4,701.654313619,420.242654034,3.77660699061E-16,0.228027063621,-1.42844413076,0.0,0.0,0.0,0.387441379077,73.6711821379,230.688812622
12.3,2.09532447017E7,8.54416532449,0.0,0.0,1.91556618963,387.601408388,27598.3764211,2.33636660825E-5,0.0,32.1139047548,0.0,0.0,-0.051413676526440646,0.0,0.0,0.0,-23256.08450328,1005.11354002,9.73253918098E-4,702.846651213,420.379957466,3.80390995756E-16,0.229579349253,-1.45287848329,0.0,0.0,0.0,0.390359055698,74.9126101923,232.464083574
12.4,2.09532057889E7,8.73713293769,0.0,0.0,1.94414071458,390.655167049,27559.4635712,2.38913723952E-5,0.0,32.114024196,0.0,0.0,-0.05183201165436259,0.0,0.0,0.0,-23439.31002294,1005.27931421,9.74605138958E-4,704.048423721,420.518347375,3.83113661105E-16,0.23112462211,-1.4775507514,0.0,0.0,0.0,0.393273660824,76.166134499,234.238397002
12.5,2.09531665708E7,8.93296729082,0.0,0.0,1.97291066257,393.70645854,27520.2454686,2.44269200344E-5,0.0,32.1141445751,0.0,0.0,-0.05225035462361302,0.0,0.0,0.0,-23622.3875124,1005.44638882,9.759669595E-4,705.259623561,420.657822886,3.85828534374E-16,0.232662761938,-1.50246172704,0.0,0.0,0.0,0.396185143534,77.4317953168,236.011728165
12.6,2.09531270477E7,9.13168787468,0.0,0.0,2.00187522114,396.755259044,27480.7223612,2.49703623645E-5,0.0,32.1142658913,0.0,0.0,-0.052668705487591616,0.0,0.0,0.0,-23805.31554264,1005.6147628,9.77339371115E-4,706.480243075,420.798383118,3.88535460355E-16,0.234193651905,-1.52761220309,0.0,0.0,0.0,0.399093453618,78.7096329853,237.784052698
12.7,2.09530872198E7,9.33331409803,0.0,0.0,2.0310335655,399.801544662,27440.8944992,2.55217525264E-5,0.0,32.114388144,0.0,0.0,-0.053087064299354274,0.0,0.0,0.0,-23988.09267972,1005.78443507,9.78722365113E-4,707.710274534,420.940027181,3.91234280318E-16,0.235717173013,-1.55300297229,0.0,0.0,0.0,0.401998541327,79.9996878323,239.555346469
12.8,2.09530470874E7,9.53786528636,0.0,0.0,2.06038485709,402.845291418,27400.7621355,2.60811434343E-5,0.0,32.1145113323,0.0,0.0,-0.05350543111189958,0.0,0.0,0.0,-24170.71748508,1005.95540456,9.80115932719E-4,708.949710134,421.082754176,3.93924819984E-16,0.237233196659,-1.57863482611,0.0,0.0,0.0,0.404900357089,81.3020000583,241.325585408
12.9,2.09530066508E7,9.74536068043,0.0,0.0,2.08992824398,405.886475254,27360.325525,2.6648587772E-5,0.0,32.1146354555,0.0,0.0,-0.05392380597788236,0.0,0.0,0.0,-24353.18851524,1006.12767019,9.81520065075E-4,710.198541996,421.226563197,3.9660691425E-16,0.238741599935,-1.60450855682,0.0,0.0,0.0,0.407798852074,82.6166099586,243.094745839
13.0,2.09529659102E7,9.95581943501,0.0,0.0,2.11966286099,408.925072035,27319.5849253,2.72241379891E-5,0.0,32.1147605128,0.0,0.0,-0.05434218894972825,0.0,0.0,0.0,-24535.5043221,1006.30123085,9.82934753239E-4,711.456762169,421.371453326,3.99280396859E-16,0.240242259238,-1.63062495639,0.0,0.0,0.0,0.410693977924,83.9435578193,244.862804325
13.1,2.09529248659E7,10.1692606175,0.0,0.0,2.14958782957,411.961057547,27278.5405962,2.78078462975E-5,0.0,32.1148865034,0.0,0.0,-0.054760580079633706,0.0,0.0,0.0,-24717.66345282,1006.47608544,9.84359988187E-4,712.724362625,421.517423641,4.01945100382E-16,0.241735050264,-1.65698481639,0.0,0.0,0.0,0.41358568674,85.2828839101,246.629737655
13.2,2.09528835181E7,10.3857032067,0.0,0.0,2.17970225774,414.994407496,27237.1928002,2.83997646676E-5,0.0,32.1150134265,0.0,0.0,-0.05517897941968059,0.0,0.0,0.0,-24899.66444976,1006.65223284,9.85795760809E-4,714.001335262,421.664473207,4.04600856195E-16,0.243219847995,-1.68358892778,0.0,0.0,0.0,0.416473931064,86.6346284764,248.395522839
13.3,2.09528418671E7,10.6051660913,0.0,0.0,2.21000524003,418.025097507,27195.5418019,2.89999448248E-5,0.0,32.1151412814,0.0,0.0,-0.0555973870214351,0.0,0.0,0.0,-25081.50585042,1006.82967193,9.8724206191E-4,715.287671903,421.812601084,4.07247494457E-16,0.24469652669,-1.71043808083,0.0,0.0,0.0,0.419358663865,87.9988317322,250.16013709
13.4,2.09527999132E7,10.8276680687,0.0,0.0,2.24049585741,421.05310313,27153.5878687,2.96084382456E-5,0.0,32.1152700673,0.0,0.0,-0.05601580293652075,0.0,0.0,0.0,-25263.1861878,1007.00840156,9.88698882212E-4,716.583364295,421.961806321,4.09884844096E-16,0.24616495988,-1.73753306495,0.0,0.0,0.0,0.422239838519,89.3755338526,251.923557825
13.5,2.09527576566E7,11.0532278433,0.0,0.0,2.27117317718,424.078399833,27111.3312701,3.02252961541E-5,0.0,32.1153997832,0.0,0.0,-0.05643422721604535,0.0,0.0,0.0,-25444.70398998,1007.18842059,9.90166212351E-4,717.888404111,422.112087958,4.12512732789E-16,0.247625020356,-1.76487466852,0.0,0.0,0.0,0.425117408802,90.7647749657,253.685762647
13.6,2.09527150976E7,11.2818640257,0.0,0.0,2.30203625291,427.100963006,27068.7722783,3.08505695181E-5,0.0,32.1155304285,0.0,0.0,-0.05685265991100217,0.0,0.0,0.0,-25626.05778036,1007.36972786,9.91644042878E-4,719.202782945,422.263445029,4.15130986942E-16,0.249076580163,-1.79246367877,0.0,0.0,0.0,0.427991328872,92.1665951455,255.446729344
13.7,2.09526722365E7,11.5135951308,0.0,0.0,2.33308412437,430.12076796,27025.9111679,3.14843090452E-5,0.0,32.1156620023,0.0,0.0,-0.057271101072155266,0.0,0.0,0.0,-25807.2460776,1007.55232219,9.93132364257E-4,720.526492318,422.415876557,4.17739431678E-16,0.250519510595,-1.82030088163,0.0,0.0,0.0,0.430861553255,93.5810344041,257.206435876
13.8,2.09526290735E7,11.7484395768,0.0,0.0,2.36431581743,433.137789929,26982.748216,3.21265651795E-5,0.0,32.1157945037,0.0,0.0,-0.057689550749695714,0.0,0.0,0.0,-25988.26739574,1007.73620242,9.94631166868E-4,721.859523673,422.569381555,4.20337890819E-16,0.251953682188,-1.84838706155,0.0,0.0,0.0,0.433728036838,95.0081326836,258.964860369
13.9,2.0952585609E7,11.9864156834,0.0,0.0,2.39573034401,436.152004067,26939.283702,3.27773880972E-5,0.0,32.1159279319,0.0,0.0,-0.058108008994273014,0.0,0.0,0.0,-26169.12024402,1007.92136733,9.96140441005E-4,723.201868377,422.723959031,4.22926186872E-16,0.253378964714,-1.87672300139,0.0,0.0,0.0,0.436590734849,96.4479298489,260.721981109
14.0,2.09525418432E7,12.2275416708,0.0,0.0,2.42732670197,439.163385451,26895.517908,3.34368277033E-5,0.0,32.116062286,0.0,0.0,-0.05852647585556259,0.0,0.0,0.0,-26349.80312706,1008.10781575,9.97660176874E-4,724.553517719,422.879607981,4.25504141015E-16,0.254795227175,-1.90530948224,0.0,0.0,0.0,0.439449602854,97.9004656796,262.477776533
14.1,2.09524977764E7,12.4718356581,0.0,0.0,2.45910387507,442.171909077,26851.4511186,3.41049336273E-5,0.0,32.1161975653,0.0,0.0,-0.05894495138341176,0.0,0.0,0.0,-26530.31454462,1008.29554644,9.99190364595E-4,725.914462914,423.036327392,4.28071573082E-16,0.2562023378,-1.93414728328,0.0,0.0,0.0,0.442304596741,99.3657798622,264.232225226
14.2,2.09524534089E7,12.7193156619,0.0,0.0,2.49106083281,445.177549867,26807.0836207,3.47817552196E-5,0.0,32.1163337688,0.0,0.0,-0.05936343562652198,0.0,0.0,0.0,-26710.652992019997,1008.4845582,0.0010007309942,727.284695095,423.194116246,4.30628301553E-16,0.257600164042,-1.96323718161,0.0,0.0,0.0,0.445155672712,100.843911982,265.985305907
14.3,2.0952408741E7,12.9699995947,0.0,0.0,2.52319653046,448.180282663,26762.415704,3.54673415477E-5,0.0,32.1164708957,0.0,0.0,-0.05978192863474054,0.0,0.0,0.0,-26890.81695978,1008.67484978,0.00100228205564,728.664205321,423.352973511,4.33174143538E-16,0.25898857257,-1.99257995212,0.0,0.0,0.0,0.448002787272,102.334901517,267.736997432
14.4,2.0952363773E7,13.223905264,0.0,0.0,2.55550990887,451.18008223,26717.4476604,3.61617413919E-5,0.0,32.116608945,0.0,0.0,-0.0602004304561959,0.0,0.0,0.0,-27070.8049338,1008.86641995,0.00100384353876,730.052984572,423.512898149,4.35708914772E-16,0.260367429272,-2.02217636733,0.0,0.0,0.0,0.450845897217,103.838787825,269.487278782
14.5,2.09523185051E7,13.4810503701,0.0,0.0,2.58799989447,454.176923257,26672.1797845,3.68650032416E-5,0.0,32.116747916,0.0,0.0,-0.060618941139589474,0.0,0.0,0.0,-27250.615395419998,1009.05926744,0.00100541543335,731.45102375,423.673889112,4.38232429596E-16,0.261736599245,-2.0520271972,0.0,0.0,0.0,0.453684959633,105.355610143,271.23612906
14.6,2.09522729377E7,13.7414525053,0.0,0.0,2.62066539914,457.170780355,26626.6123736,3.75771752915E-5,0.0,32.1168878076,0.0,0.0,-0.06103746073304972,0.0,0.0,0.0,-27430.2468213,1009.25339099,0.00100699772908,732.858313679,423.835945344,4.40744500953E-16,0.2630959468,-2.08213320902,0.0,0.0,0.0,0.456519931877,106.885407572,272.983527483
14.7,2.0952227071E7,14.0051291522,0.0,0.0,2.65350532015,460.161628057,26580.7457271,3.82983054372E-5,0.0,32.1170286191,0.0,0.0,-0.061455989284705095,0.0,0.0,0.0,-27609.69768342,1009.44878933,0.00100859041555,734.274845104,423.999065779,4.43244940377E-16,0.264445335455,-2.11249516723,0.0,0.0,0.0,0.459350771577,108.428219074,274.72945338
14.8,2.09521809055E7,14.2720976821,0.0,0.0,2.68651854007,463.149440823,26534.5801475,3.90284412716E-5,0.0,32.1171703495,0.0,0.0,-0.0618745268421111,0.0,0.0,0.0,-27788.96644938,1009.64546117,0.00101019348226,735.700608692,424.163249342,4.45733557981E-16,0.265784627936,-2.14311383326,0.0,0.0,0.0,0.462177436621,109.984083462,276.473886187
14.9,2.09521344412E7,14.5423753536,0.0,0.0,2.71970392668,466.134193035,26488.1159393,3.97676300806E-5,0.0,32.1173129978,0.0,0.0,-0.06229307345282322,0.0,0.0,0.0,-27968.0515821,1009.8434052,0.00101180691863,737.135595029,424.328494949,4.48210162453E-16,0.267113686176,-2.17398996538,0.0,0.0,0.0,0.464999885148,111.553039391,278.216805439
15.0,2.09520876787E7,14.8159793115,0.0,0.0,2.75306033291,469.115858998,26441.35341,4.05159188393E-5,0.0,32.1174565633,0.0,0.0,-0.06271162916325104,0.0,0.0,0.0,-28146.95153988,1010.04262013,0.00101343071399,738.579794625,424.494801508,4.50674561046E-16,0.268432371313,-2.20512431853,0.0,0.0,0.0,0.467818075542,113.135125351,279.958190767
15.1,2.09520406182E7,15.0929265847,0.0,0.0,2.78658659672,472.094412944,26394.2928696,4.12733542075E-5,0.0,32.1176010448,0.0,0.0,-0.06313019402037712,0.0,0.0,0.0,-28325.66477664,1010.24310462,0.00101506485757,740.033197908,424.662167915,4.53126559569E-16,0.269740543692,-2.23651764416,0.0,0.0,0.0,0.470631966428,114.73037966,281.698021897
15.2,2.09519932599E7,15.3732340849,0.0,0.0,2.82028154107,475.069829029,26346.9346303,4.20399825261E-5,0.0,32.1177464415,0.0,0.0,-0.06354876807003805,0.0,0.0,0.0,-28504.18974174,1010.44485736,0.00101670933853,741.495795226,424.83059306,4.55565962382E-16,0.271038062862,-2.2681706901,0.0,0.0,0.0,0.47344151666,116.338840452,283.436278639
15.3,2.09519456043E7,15.6569186055,0.0,0.0,2.85414397378,478.042081335,26299.2790075,4.28158498126E-5,0.0,32.1178927524,0.0,0.0,-0.06396735135921638,0.0,0.0,0.0,-28682.524880099998,1010.64787699,0.00101836414592,742.96757685,425.000075822,4.5799257239E-16,0.272324787579,-2.30008420034,0.0,0.0,0.0,0.476246685319,117.960545674,285.17294089
15.4,2.09518976516E7,15.9439968195,0.0,0.0,2.88817268751,481.011143868,26251.3263187,4.36010017573E-5,0.0,32.1180399767,0.0,0.0,-0.06438594393260283,0.0,0.0,0.0,-28860.66863208,1010.85216216,0.00102002926872,744.448532968,425.170615072,4.60406191037E-16,0.273600575809,-2.33225891493,0.0,0.0,0.0,0.479047431705,119.595533073,286.907988626
15.5,2.09518494022E7,16.234485325,0.0,0.0,2.92236806846,483.976976623,26203.0768845,4.43954838465E-5,0.0,32.1181881132,0.0,0.0,-0.06480454583603401,0.0,0.0,0.0,-29038.61859738,1011.05508284,0.00102184729259,746.105866244,425.342276179,4.62871197746E-16,0.274903631138,-2.36502546823,0.0,0.0,0.0,0.481844954209,121.260754907,288.641393585
15.6,2.09518008563E7,16.5284008713,0.0,0.0,2.95673145056,486.939530769,26154.5310308,4.51993419812E-5,0.0,32.118337161,0.0,0.0,-0.06522315711591951,0.0,0.0,0.0,-29216.37184614,1011.25897097,0.00102369163137,747.791141796,425.514998948,4.65330511982E-16,0.276199967653,-2.39809988849,0.0,0.0,0.0,0.484638092788,122.941646663,290.373122364
15.7,2.09517520144E7,16.8257601858,0.0,0.0,2.99126166077,489.898778696,26105.6890868,4.60126220033E-5,0.0,32.1184871192,0.0,0.0,-0.06564177781752299,0.0,0.0,0.0,-29393.926721760003,1011.46410264,0.00102554721913,749.486696162,425.688775185,4.677771281E-16,0.277485395806,-2.43144860724,0.0,0.0,0.0,0.487426674587,124.636486742,292.10315433
15.8,2.09517028767E7,17.1265798738,0.0,0.0,3.02595747329,492.854693022,26056.5513844,4.68353694226E-5,0.0,32.1186379868,0.0,0.0,-0.06606040798668109,0.0,0.0,0.0,-29571.28158132,1011.67047647,0.00102741404324,751.192517817,425.86360371,4.7021083365E-16,0.278759763217,-2.46507247318,0.0,0.0,0.0,0.49021065876,126.345318418,293.831469097
15.9,2.09516534436E7,17.4308764173,0.0,0.0,3.06081764598,495.807246282,26007.1182584,4.76676294125E-5,0.0,32.1187897626,0.0,0.0,-0.06647904766865745,0.0,0.0,0.0,-29748.43477692,1011.87809106,0.001029292091,752.908595141,426.039483332,4.72631414469E-16,0.280022916563,-2.49897232979,0.0,0.0,0.0,0.49299000464,128.068184707,295.558046334
16.0,2.09516037153E7,17.738666173,0.0,0.0,3.09584092017,498.756410924,25957.3900462,4.85094468047E-5,0.0,32.1189424458,0.0,0.0,-0.06689769690756983,0.0,0.0,0.0,-29925.38465544,1012.08694498,0.00103118134957,754.634916417,426.21641285,4.75038654681E-16,0.28127470159,-2.53314901519,0.0,0.0,0.0,0.495764671737,129.805128354,297.282865764
16.1,2.09515536924E7,18.0499653706,0.0,0.0,3.13102602064,501.702159315,25907.3670882,4.93608660856E-5,0.0,32.1190960353,0.0,0.0,-0.06731635574810896,0.0,0.0,0.0,-30102.1295589,1012.2970368,0.00103308180604,756.371469835,426.394391053,4.77432336691E-16,0.282514963108,-2.5676033619,0.0,0.0,0.0,0.498534619736,131.556191824,299.005907159
16.2,2.0951503375E7,18.3647901116,0.0,0.0,3.16637165548,504.644463737,25857.0497273,5.02219313909E-5,0.0,32.11925053,0.0,0.0,-0.06773502423496552,0.0,0.0,0.0,-30278.66782422,1012.50836509,0.00103499344737,758.118243488,426.573416721,4.79812241184E-16,0.283743545,-2.60233619668,0.0,0.0,0.0,0.501299808488,133.321417294,300.727150339
16.3,2.09514527636E7,18.6831563669,0.0,0.0,3.20187651603,507.58329639,25806.4383093,5.10926865017E-5,0.0,32.1194059289,0.0,0.0,-0.06815370241225725,0.0,0.0,0.0,-30454.9977834,1012.72092839,0.00103691626042,759.875225369,426.753488624,4.82178147127E-16,0.284960290226,-2.63734834033,0.0,0.0,0.0,0.504060198008,135.100846638,302.446575168
16.4,2.09514018585E7,19.0050799759,0.0,0.0,3.23753927675,510.518629394,25755.5331828,5.19731748396E-5,0.0,32.119562231,0.0,0.0,-0.0685723903218101,0.0,0.0,0.0,-30631.117763640003,1012.93472524,0.00103885023195,761.64240338,426.934605521,4.84529831762E-16,0.286165040829,-2.67264060749,0.0,0.0,0.0,0.506815748474,136.894521424,304.164161554
16.5,2.095135066E7,19.3305766441,0.0,0.0,3.27335859516,513.450434786,25704.3346991,5.28634394619E-5,0.0,32.1197194352,0.0,0.0,-0.06899108800831479,0.0,0.0,0.0,-30807.026087159997,1013.14975417,0.00104079534862,763.419765323,427.116766162,4.86867070608E-16,0.287357637937,-2.70821380648,0.0,0.0,0.0,0.509566420219,138.7024829,305.879889442
16.6,2.09512991685E7,19.659661942,0.0,0.0,3.30933311169,516.378684522,25652.8432124,5.37635230574E-5,0.0,32.1198775404,0.0,0.0,-0.06940979551359719,0.0,0.0,0.0,-30982.721071319997,1013.36601368,0.00104275159697,765.207298902,427.299969288,4.89189637465E-16,0.288537921774,-2.74406873904,0.0,0.0,0.0,0.512312173733,140.524771987,307.593738819
16.7,2.09512473844E7,19.9923513029,0.0,0.0,3.34546144966,519.30335048,25601.0590797,5.46734679413E-5,0.0,32.1200365456,0.0,0.0,-0.0698285128800562,0.0,0.0,0.0,-31158.2010288,1013.58350227,0.00104471896343,767.004991726,427.484213628,4.91497304405E-16,0.289705731661,-2.78020620024,0.0,0.0,0.0,0.515052969654,142.361429263,309.305689704
16.8,2.0951195308E7,20.3286600216,0.0,0.0,3.38174221514,522.224404456,25548.9826607,5.55933160507E-5,0.0,32.1201964496,0.0,0.0,-0.07024724014951775,0.0,0.0,0.0,-31333.46426736,1013.80221844,0.00104669743433,768.812831304,427.669497902,4.93789841782E-16,0.290860906027,-2.81662697817,0.0,0.0,0.0,0.517788768769,144.212494963,311.015722152
16.9,2.09511429396E7,20.6686032524,0.0,0.0,3.41817399686,525.141818171,25496.6143181,5.65231089399E-5,0.0,32.1203572515,0.0,0.0,-0.0706659773643807,0.0,0.0,0.0,-31508.50909026,1014.02216067,0.00104868699591,770.630805048,427.85582082,4.96067018227E-16,0.292003282413,-2.85333185384,0.0,0.0,0.0,0.520519532013,146.078008961,312.723816249
17.0,2.09510902797E7,21.0121960073,0.0,0.0,3.45475536614,528.055563266,25443.9544174,5.74628877755E-5,0.0,32.12051895,0.0,0.0,-0.07108472456475211,0.0,0.0,0.0,-31683.333795960003,1014.24332741,0.00105068763428,772.458900272,428.043181082,4.98328600654E-16,0.293132697479,-2.89032160094,0.0,0.0,0.0,0.523245220459,147.958010762,314.429952109
17.1,2.09510373286E7,21.3594531545,0.0,0.0,3.49148487679,530.965611305,25391.0033267,5.84126933318E-5,0.0,32.120681544,0.0,0.0,-0.07150348179188493,0.0,0.0,0.0,-31857.9366783,1014.46571712,0.00105269933544,774.297104192,428.231577377,5.00574354258E-16,0.294248987014,-2.92759698566,0.0,0.0,0.0,0.525965795323,149.852539496,316.134109877
17.2,2.09509840867E7,21.7103894166,0.0,0.0,3.52836106501,533.871933776,25337.7614173,5.93725659859E-5,0.0,32.1208450326,0.0,0.0,-0.07192224908588622,0.0,0.0,0.0,-32032.316026559998,1014.68932825,0.00105472208529,776.145403922,428.421008386,5.02804042519E-16,0.295351985943,-2.96515876647,0.0,0.0,0.0,0.528681217958,151.761633902,317.836269724
17.3,2.09509305544E7,22.0650193687,0.0,0.0,3.5653824493,536.774502091,25284.229063,6.03425457128E-5,0.0,32.1210094144,0.0,0.0,-0.07234102648743596,0.0,0.0,0.0,-32206.470125460004,1014.91415921,0.00105675586963,778.00378648,428.611472776,5.05017427206E-16,0.296441528333,-3.00300769398,0.0,0.0,0.0,0.531391449852,153.685332324,319.536411844
17.4,2.09508767319E7,22.4233574367,0.0,0.0,3.6025475304,539.673287589,25230.4066409,6.13226720806E-5,0.0,32.1211746885,0.0,0.0,-0.07275981403549531,0.0,0.0,0.0,-32380.397255339998,1015.14020844,0.00105880067415,779.872238784,428.802969208,5.07214268378E-16,0.297517447404,-3.04114451068,0.0,0.0,0.0,0.534096452628,155.623672696,321.234516455
