time,eiPosition_ft_X,eiPosition_ft_Y,eiPosition_ft_Z,eiVelocity_ft_s_X,eiVelocity_ft_s_Y,eiVelocity_ft_s_Z,feVelocity_ft_s_X,feVelocity_ft_s_Y,feVelocity_ft_s_Z,altitudeMsl_ft,longitude_deg,latitude_deg,localGravity_ft_s2,eulerAngle_deg_Yaw,eulerAngle_deg_Pitch,eulerAngle_deg_Roll,bodyAngularRateWrtEi_deg_s_Roll,bodyAngularRateWrtEi_deg_s_Pitch,bodyAngularRateWrtEi_deg_s_Yaw,speedOfSound_ft_s,airDensity_slug_ft3,ambientPressure_lbf_ft2,ambientTemperature_dgR,aero_bodyForce_lbf_X,aero_bodyForce_lbf_Y,aero_bodyForce_lbf_Z,aero_bodyMoment_ftlbf_L,aero_bodyMoment_ftlbf_M,aero_bodyMoment_ftlbf_N,mach,dynamicPressure_lbf_ft2
0.0,2.09556463255E7,0.0,0.0,0.0,1528.10982905,0.0,0.0,0.0,-0.0,30000.0,0.0,0.0,32.1065359519,0.0,0.0,0.0,0.0,0.0,0.0,994.849493459,8.90685451211E-4,629.673709538,411.838873082,-0.0,0.0428469914497,-0.0,0.0,0.0,0.0,0.0703624020118,2.18217935547
0.1,2.09556461649E7,152.811196778,0.0,-3.21055566109,1528.11410326,0.0,0.0,0.00430924682471,3.19941246155,29999.8400277,5.87953029416E-10,0.0,32.10653644285363,0.0,0.0,-4.17808001177E-4,0.0,0.0,0.0,994.850180522,8.90690687028E-4,629.678280757,411.839441931,-0.0,0.0428861260947,-0.00195996939242,0.0,0.0,0.0,0.0704310006253,2.18645225886
0.2,2.09556456834E7,305.622820149,0.0,-6.42091493157,1528.1183624,0.0,0.0,0.00867349203099,6.39862843824,29999.3601241,2.36143395571E-9,0.0,32.10653791571455,0.0,0.0,-8.35617187882E-4,0.0,0.0,0.0,994.852241654,8.90706394194E-4,629.691994202,411.841148432,-0.0,0.0430137267565,-0.00393180331978,0.0,0.0,0.0,0.0706449516974,2.19980408975
0.3,2.09556448808E7,458.434869048,0.0,-9.63107611655,1528.12261527,0.0,0.0,0.0131015387203,9.59764623438,29998.5603087,5.33668559517E-9,0.0,32.10654037058275,0.0,0.0,-0.00125342757636,0.0,0.0,0.0,994.85567676,8.90732572488E-4,629.714849794,411.843992513,-0.0,0.0432289472922,-0.00592759969769,0.0,0.0,0.0,0.0710029022067,2.22223357253
0.4,2.09556437571E7,611.247343285,0.0,-12.8410363226,1528.12687059,0.0,0.0,0.017602079087,12.7964629554,29997.4406015,9.53234373792E-9,0.0,32.10654380715827,0.0,0.0,-0.00167123918524,0.0,0.0,0.0,994.860485742,8.90769221966E-4,629.746847771,411.847974106,-0.0,0.0435304231219,-0.00795921198105,0.0,0.0,0.0,0.0715026480116,2.25374004752
0.5,2.09556423126E7,764.060243531,0.0,-16.0507914878,1528.13113687,0.0,0.0,0.022183644378,15.995074538,29996.0010229,1.49693998967E-8,0.0,32.1065482254411,0.0,0.0,-0.00208905203552,0.0,0.0,0.0,994.866668492,8.90816342955E-4,629.787988685,411.853093138,-0.0,0.0439163105503,-0.0100381412129,0.0,0.0,0.0,0.0721411982854,2.29432345733
0.6,2.0955640547E7,916.873571303,0.0,-19.2603364216,1528.13542246,0.0,0.0,0.0268545594132,19.1934757897,29994.2415936,2.16711509666E-8,0.0,32.106553625531284,0.0,0.0,-0.0025068661505,0.0,0.0,0.0,994.874224897,8.90873936052E-4,629.838273396,411.859349535,-0.0,0.0443843380811,-0.0121754420354,0.0,0.0,0.0,0.0729148596615,2.3439843336
0.7,2.09556384605E7,1069.68732894,0.0,-22.4696648536,1528.13973544,0.0,0.0,0.0316229027008,22.3916604384,29992.162335,2.96631372013E-8,0.0,32.10656000712883,0.0,0.0,-0.00292468155571,0.0,0.0,0.0,994.883154833,8.90942002116E-4,629.897703073,411.866743222,-0.0,0.0449318664874,-0.0143816454465,0.0,0.0,0.0,0.0738193347756,2.4027237843
0.8,2.09556360531E7,1222.50151956,0.0,-25.6787694891,1528.14408361,0.0,0.0,0.036496472861,25.5896211869,29989.763269,3.89730701296E-8,0.0,32.10656737033374,0.0,0.0,-0.00334249827886,0.0,0.0,0.0,994.893458172,8.91020542269E-4,629.966279187,411.875274122,-0.0,0.045555954142,-0.0166666998116,0.0,0.0,0.0,0.0748498294669,2.47054348167
0.9,2.09556333247E7,1375.31614708,0.0,-28.8876420695,1528.14847447,0.0,0.0,0.0414827616999,28.7873497739,29987.0444185,4.96307521998E-8,0.0,32.10657571504607,0.0,0.0,-0.00376031634977,0.0,0.0,0.0,994.905134772,8.91109557891E-4,630.04400351,411.884942155,-0.0,0.0462534241868,-0.0190399304048,0.0,0.0,0.0,0.0760011630217,2.54744565076
1.0,2.09556302755E7,1528.13121612,0.0,-32.0962734356,1528.1529152,0.0,0.0,0.0465889339721,31.9848370377,29984.0058071,6.16679899758E-8,0.0,32.106585041165815,0.0,0.0,-0.00417813580023,0.0,0.0,0.0,994.918184485,8.91209050614E-4,630.130878113,411.895747236,-0.0,0.0470209304755,-0.0215100166666,0.0,0.0,0.0,0.0772678764251,2.63343305878
1.1,2.09556269055E7,1680.94673201,0.0,-35.3046535932,1528.15741262,0.0,0.0,0.0518218135644,35.1820729807,29980.6474594,7.51185026985E-8,0.0,32.10659534859298,0.0,0.0,-0.00459595666397,0.0,0.0,0.0,994.932607152,8.91319022327E-4,630.226905363,411.90768928,-0.0,0.0478550197693,-0.0240849855272,0.0,0.0,0.0,0.0786443344808,2.72850900514
1.2,2.09556232146E7,1833.76270075,0.0,-38.5127717774,1528.16197322,0.0,0.0,0.0571878756397,38.3790468351,29976.9694012,9.00178278784E-8,0.0,32.10660663732763,0.0,0.0,-0.00501377897652,0.0,0.0,0.0,994.948402605,8.91439475162E-4,630.33208792,411.920768197,-0.0,0.0487521883097,-0.0267722185795,0.0,0.0,0.0,0.0801248187146,2.83267731229
1.3,2.0955619203E7,1986.57912897,0.0,-41.720616517,1528.16660313,0.0,0.0,0.0626932441051,41.5757471259,29972.9716592,1.06403225506E-7,0.0,32.10661890716976,0.0,0.0,-0.00543160277514,0.0,0.0,0.0,994.965570665,8.91570411504E-4,630.446428736,411.934983891,-0.0,0.0497089315481,-0.0295784705896,0.0,0.0,0.0,0.0817036090556,2.94594231721
1.4,2.09556148705E7,2139.39602388,0.0,-44.9281756954,1528.17130814,0.0,0.0,0.0683436936836,44.772161733,29968.6542613,1.2431358218E-7,0.0,32.106632158119396,0.0,0.0,-0.00584942809872,0.0,0.0,0.0,994.984111142,8.91711833978E-4,630.569931051,411.950336267,-0.0,0.0507217864179,-0.0325098967776,0.0,0.0,0.0,0.0833750532828,3.06830886372
1.5,2.09556102173E7,2292.21339328,0.0,-48.1354366091,1528.17609368,0.0,0.0,0.0741446558417,47.9682779491,29964.0172368,1.43789316413E-7,0.0,32.10664639007658,0.0,0.0,-0.00626725498768,0.0,0.0,0.0,995.004023837,8.91863745455E-4,630.702598397,411.966825219,-0.0,0.0517873660415,-0.0355720864248,0.0,0.0,0.0,0.0851336240572,3.1997822954
1.6,2.09556052434E7,2445.03124547,0.0,-51.3423860224,1528.18096487,0.0,0.0,0.0801012278165,51.1640825345,29959.0606161,1.64872285913E-7,0.0,32.10666160304132,0.0,0.0,-0.00668508348387,0.0,0.0,0.0,995.025308536,8.92026149043E-4,630.844434587,411.984450643,-0.0,0.0529023871589,-0.0387701006078,0.0,0.0,0.0,0.0869739640088,3.34036844918
1.7,2.09555999489E7,2597.84958927,0.0,-54.5490102181,1528.18592648,0.0,0.0,0.086218184052,54.3595617678,29953.7844311,1.87605697745E-7,0.0,32.10667779671365,0.0,0.0,-0.00710291363051,0.0,0.0,0.0,995.047965018,8.92199048093E-4,630.995443723,412.003212426,-0.0,0.0540636908428,-0.0421085121837,0.0,0.0,0.0,0.0888909198002,3.49007364957
1.8,2.09555943336E7,2750.66843393,0.0,-57.7552950447,1528.190983,0.0,0.0,0.0924999893993,57.5547014933,29948.1887151,2.12034021845E-7,0.0,32.1066949711936,0.0,0.0,-0.00752074547205,0.0,0.0,0.0,995.071993048,8.92382446192E-4,631.155630189,412.023110452,-0.0,0.0552682572317,-0.0455914464923,0.0,0.0,0.0,0.0908795663705,3.64890470335
1.9,2.09555883978E7,2903.48778917,0.0,-60.9612259586,1528.1961386,0.0,0.0,0.0989508135308,60.749487163,29942.2735026,2.38202908339E-7,0.0,32.10671312628119,0.0,0.0,-0.00793857905417,0.0,0.0,0.0,995.09739238,8.92576347163E-4,631.324998653,412.0441446,-0.0,0.056513215098,-0.0492226215775,0.0,0.0,0.0,0.0929352226955,3.81686889484
2.0,2.09555821414E7,3056.30766508,0.0,-64.1667880632,1528.20139719,0.0,0.0,0.105574546084,63.9439038759,29936.0388299,2.66159108876E-7,0.0,32.10673226177647,0.0,0.0,-0.00835641442359,0.0,0.0,0.0,995.124162757,8.92780755065E-4,631.503554062,412.066314742,-0.0,0.0577958470785,-0.0530053870425,0.0,0.0,0.0,0.0950534604256,3.99397398165
2.1,2.09555755645E7,3209.12807216,0.0,-67.3719661439,1528.20676241,0.0,0.0,0.112374812149,67.1379364126,29929.4847347,2.95950402206E-7,0.0,32.10675237777946,0.0,0.0,-0.00877425162811,0.0,0.0,0.0,995.152303907,8.9299567419E-4,631.691301648,412.089620746,-0.0,0.0591135913625,-0.0569427609193,0.0,0.0,0.0,0.0972301067026,4.18022819074
2.2,2.0955568667E7,3361.94902123,0.0,-70.5767446993,1528.21223764,0.0,0.0,0.119354987784,70.3315692672,29922.611256,3.27625523953E-7,0.0,32.106773473990195,0.0,0.0,-0.00919209071645,0.0,0.0,0.0,995.181815551,8.93221109065E-4,631.88824692,412.114062477,-0.0,0.0604640405647,-0.0610374641552,0.0,0.0,0.0,0.099461242352,4.375640215
2.3,2.09555614491E7,3514.77052346,0.0,-73.7811079694,1528.21782604,0.0,0.0,0.126518215294,73.5247866748,29915.4184347,3.61234100641E-7,0.0,32.106795550408705,0.0,0.0,-0.00960993173825,0.0,0.0,0.0,995.212697392,8.93457064446E-4,632.094395667,412.13963979,-0.0,0.0618449384282,-0.0652919524995,0.0,0.0,0.0,0.101743196509,4.58021921002
2.4,2.09555539108E7,3667.59259031,0.0,-76.9850399608,1528.22353055,0.0,0.0,0.133867418106,76.7175726372,29907.906313,3.96826587838E-7,0.0,32.106818606835034,0.0,0.0,-0.010027774744,0.0,0.0,0.0,995.244949125,8.93703545324E-4,632.309753958,412.166352539,-0.0,0.0632541749134,-0.0697084457081,0.0,0.0,0.0,0.104072538591,4.79397479127
2.5,2.09555460521E7,3820.41523353,0.0,-80.1885244685,1528.2293539,0.0,0.0,0.141405315094,79.9099109446,29900.0749351,4.34454212293E-7,0.0,32.106842643169216,0.0,0.0,-0.0104456197848,0.0,0.0,0.0,995.278570431,8.93960556919E-4,632.534328139,412.194200568,-0.0,0.0646897801397,-0.0742889540853,0.0,0.0,0.0,0.106446068382,5.01691703147
2.6,2.09555378731E7,3973.23846514,0.0,-83.3915450963,1528.23529864,0.0,0.0,0.149134434244,83.1017851956,29891.9243463,4.74168917863E-7,0.0,32.106867659311284,0.0,0.0,-0.0108634669127,0.0,0.0,0.0,995.313560979,8.94228104681E-4,632.768124835,412.223183718,-0.0,0.0661499175626,-0.0790353024534,0.0,0.0,0.0,0.108860804863,5.24905645826
2.7,2.09555293739E7,4126.06229739,0.0,-86.5940852736,1528.24136713,0.0,0.0,0.157057125631,86.2931788146,29883.454594,5.16023315165E-7,0.0,32.10689365496128,0.0,0.0,-0.0112813161804,0.0,0.0,0.0,995.349920424,8.94506194289E-4,633.011150947,412.253301825,-0.0,0.0676328766955,-0.0839491516881,0.0,0.0,0.0,0.111313974284,5.49040405198
2.8,2.09555205543E7,4278.88674276,0.0,-89.796128271,1528.24756158,0.0,0.0,0.165175573639,89.4840750675,29874.6657271,5.60070634597E-7,0.0,32.106920630119255,0.0,0.0,-0.0116991676409,0.0,0.0,0.0,995.387648409,8.94794831653E-4,633.263413656,412.284554716,-0.0,0.0691370656192,-0.0890320179848,0.0,0.0,0.0,0.113802997894,5.74097124375
2.9,2.09555114146E7,4431.71181397,0.0,-92.9976572144,1528.25388403,0.0,0.0,0.173491808446,92.6744570745,29865.5577962,6.06364682635E-7,0.0,32.10694858468524,0.0,0.0,-0.0121170213482,0.0,0.0,0.0,995.426744567,8.95094022909E-4,633.524920417,412.316942215,-0.0,0.0706610034653,-0.0942852900385,0.0,0.0,0.0,0.116325479622,6.00076991364
3.0,2.09555019548E7,4584.5375239,0.0,-96.1986550961,1528.26033638,0.0,0.0,0.182007716745,95.8643078231,29856.1308534,6.54959801154E-7,0.0,32.10697751835928,0.0,0.0,-0.0125348773565,0.0,0.0,0.0,995.467208514,8.95403774422E-4,633.795678964,412.35046414,-0.0,0.0722033130149,-0.0997102443196,0.0,0.0,0.0,0.118879193942,6.26981238894
3.1,2.09554921749E7,4737.36388564,0.0,-99.399104786,1528.26692042,0.0,0.0,0.190725051748,99.0536101778,29846.3849529,7.05910829589E-7,0.0,32.10700743104142,0.0,0.0,-0.0129527357208,0.0,0.0,0.0,995.509039856,8.95724092786E-4,634.075697304,412.3851203,-0.0,0.0737627135144,-0.105308058631,0.0,0.0,0.0,0.121462074099,6.54811144268
3.2,2.0955482075E7,4890.19091243,0.0,-102.598989041,1528.27363778,0.0,0.0,0.199645442485,102.24234689,29836.3201502,7.59273069743E-7,0.0,32.10703832253169,0.0,0.0,-0.0133705964962,0.0,0.0,0.0,995.552238185,8.96054984822E-4,634.364983725,412.420910502,-0.0,0.07533801378,-0.111079824116,0.0,0.0,0.0,0.124072200804,6.8356802921
3.3,2.09554716552E7,5043.01861769,0.0,-105.798290511,1528.28049001,0.0,0.0,0.208770402424,105.430500606,29825.9365029,8.15102253028E-7,0.0,32.10707019263017,0.0,0.0,-0.0137884597386,0.0,0.0,0.0,995.596803081,8.96396457575E-4,634.663546787,412.457834544,-0.0,0.0769281056386,-0.117026555891,0.0,0.0,0.0,0.12670779148,7.13253259737
3.4,2.09554609154E7,5195.84701497,0.0,-108.996991751,1528.28747852,0.0,0.0,0.218101337455,108.618053872,29815.2340701,8.73454509959E-7,0.0,32.10710304133689,0.0,0.0,-0.0142063255041,0.0,0.0,0.0,995.642734111,8.96748518321E-4,634.971395328,412.495892219,-0.0,0.0785319577319,-0.123149202433,0.0,0.0,0.0,0.129367190107,7.43868246023
3.5,2.09554498558E7,5348.67611798,0.0,-112.195075221,1528.29460465,0.0,0.0,0.227639553279,111.804989146,29804.2129127,9.34386341802E-7,0.0,32.107136868251885,0.0,0.0,-0.0146241938492,0.0,0.0,0.0,995.690030827,8.97111174559E-4,635.288538462,412.535083315,-0.0,0.0801486096994,-0.129448653896,0.0,0.0,0.0,0.132048857682,7.75414442286
3.6,2.09554384764E7,5501.50594053,0.0,-115.392523295,1528.30186963,0.0,0.0,0.237386262227,114.991288796,29792.8730935,9.97954594106E-7,0.0,32.10717167337524,0.0,0.0,-0.0150420648307,0.0,0.0,0.0,995.738692772,8.97484434017E-4,635.614985579,412.575407611,-0.0,0.0817771667409,-0.135925749434,0.0,0.0,0.0,0.134751363307,8.07893346667
3.7,2.09554267773E7,5654.33649657,0.0,-118.589318269,1528.30927461,0.0,0.0,0.247342589556,118.176935111,29781.2146768,1.06421643206E-6,0.0,32.107207456406975,0.0,0.0,-0.0154599385057,0.0,0.0,0.0,995.788719472,8.97868304646E-4,635.950746342,412.616864883,-0.0,0.0834167945542,-0.142581283696,0.0,0.0,0.0,0.137473375891,8.41306501122
3.8,2.09554147585E7,5807.16780016,0.0,-121.785442356,1528.31682066,0.0,0.0,0.257509579264,121.3619103,29769.2377288,1.13322931752E-6,0.0,32.10724421704716,0.0,0.0,-0.0158778149318,0.0,0.0,0.0,995.840110442,8.98262794625E-4,636.295830694,412.659454898,-0.0,0.0850667146366,-0.149416012543,0.0,0.0,0.0,0.140213656444,8.75655491319
3.9,2.09554024202E7,5959.99986544,0.0,-124.980877698,1528.32450876,0.0,0.0,0.267888199442,124.5461965,29756.9423177,1.2050509875E-6,0.0,32.10728195539585,0.0,0.0,-0.0162956941667,0.0,0.0,0.0,995.892865185,8.98667912358E-4,636.650248851,412.703177419,-0.0,0.0867261999355,-0.156430658114,0.0,0.0,0.0,0.142971050954,9.10941946533
4.0,2.09553897624E7,6112.83270668,0.0,-128.175606367,1528.33233985,0.0,0.0,0.278479347217,127.729775777,29744.3285131,1.27973943411E-6,0.0,32.10732067095309,0.0,0.0,-0.0167135762684,0.0,0.0,0.0,995.946983189,8.99083666472E-4,637.014011305,412.748032201,-0.0,0.0883945708292,-0.163625913306,0.0,0.0,0.0,0.145744483795,9.47167539548
4.1,2.09553767851E7,6265.6663382,0.0,-131.369610366,1528.34031477,0.0,0.0,0.2892838533,130.912630127,29731.3963867,1.35735288584E-6,0.0,32.10736036361894,0.0,0.0,-0.0171314612951,0.0,0.0,0.0,996.002463929,8.99510065823E-4,637.387128825,412.794018995,-0.0,0.0900711914202,-0.171002445731,0.0,0.0,0.0,0.148532951656,9.84333986563
4.2,2.09553634885E7,6418.50077445,0.0,-134.562871632,1528.34843432,0.0,0.0,0.300302486188,134.094741484,29718.1460118,1.43794978993E-6,0.0,32.10740103309347,0.0,0.0,-0.0175493493052,0.0,0.0,0.0,996.059306868,8.99947119488E-4,637.769612454,412.841137542,-0.0,0.0917554661205,-0.178560901226,0.0,0.0,0.0,0.151335517941,10.2244304709
4.3,2.09553498726E7,6571.33602991,0.0,-137.755372039,1528.35669924,0.0,0.0,0.311535956032,137.276091715,29704.5774638,1.52158879594E-6,0.0,32.10744267927673,0.0,0.0,-0.0179672403574,0.0,0.0,0.0,996.117511455,9.00394836772E-4,638.161473512,412.889387581,-0.0,0.0934468365091,-0.186301906958,0.0,0.0,0.0,0.154151307628,10.6149652388
4.4,2.09553359374E7,6724.17211917,0.0,-140.947093398,1528.3651102,0.0,0.0,0.322984918204,140.456662626,29690.6908195,1.60832874026E-6,0.0,32.107485301868785,0.0,0.0,-0.0183851345106,0.0,0.0,0.0,996.177077127,9.00853227202E-4,638.562723595,412.938768842,-0.0,0.0951447784423,-0.194226074184,0.0,0.0,0.0,0.156979502527,11.0149626281
4.5,2.09553216832E7,6877.00905684,0.0,-144.138017461,1528.37366786,0.0,0.0,0.334649976588,143.636435963,29676.4861578,1.69822863164E-6,0.0,32.10752890066969,0.0,0.0,-0.0188030318237,0.0,0.0,0.0,996.238003307,9.0132230053E-4,638.973374574,412.989281048,-0.0,0.0968487993971,-0.202334000694,0.0,0.0,0.0,0.159819336937,11.4244415281
4.6,2.09553071099E7,7029.84685765,0.0,-147.32812592,1528.38237278,0.0,0.0,0.346531686616,146.815393414,29661.9635595,1.7913476375E-6,0.0,32.10757347547952,0.0,0.0,-0.0192209323559,0.0,0.0,0.0,996.300289404,9.01802066733E-4,639.393438596,413.040923918,-0.0,0.0985584360314,-0.210626272989,0.0,0.0,0.0,0.162670093647,11.8434212574
4.7,2.09552922176E7,7182.68553633,0.0,-150.517400409,1528.3912255,0.0,0.0,0.35863055807,149.993516605,29647.1231069,1.88774507111E-6,0.0,32.10761902589833,0.0,0.0,-0.0196388361666,0.0,0.0,0.0,996.363934816,9.02292536011E-4,639.822928085,413.093697162,-0.0,0.100273251942,-0.219103468206,0.0,0.0,0.0,0.165531100264,12.2719215637
4.8,2.09552770064E7,7335.52510769,0.0,-153.705822504,1528.40022653,0.0,0.0,0.370947057673,153.170787109,29631.9648846,1.98748037944E-6,0.0,32.107665551826194,0.0,0.0,-0.0200567433151,0.0,0.0,0.0,996.428938926,9.02793718788E-4,640.26185574,413.147600487,-0.0,0.101992835605,-0.227766155846,0.0,0.0,0.0,0.168401725847,12.709962622
4.9,2.09552614765E7,7488.36558659,0.0,-156.893373725,1528.40937632,0.0,0.0,0.383481611472,156.34718644,29616.4889786,2.09061313173E-6,0.0,32.107713052863176,0.0,0.0,-0.0204746538611,0.0,0.0,0.0,996.495301105,9.03305625713E-4,640.710234536,413.202633589,-0.0,0.103716798485,-0.236614899301,0.0,0.0,0.0,0.171281377812,13.1575650345
5.0,2.09552456278E7,7641.20698792,0.0,-160.080035536,1528.41867528,0.0,0.0,0.396234607052,159.522696056,29600.695477,2.19720300871E-6,0.0,32.10776152890934,0.0,0.0,-0.0208925678642,0.0,0.0,0.0,996.56302071,9.03828267657E-4,641.168077726,413.258796162,-0.0,0.105444773296,-0.245650257222,0.0,0.0,0.0,0.174169499084,13.6147498292
5.1,2.09552294605E7,7794.04932663,0.0,-163.265789346,1528.42812381,0.0,0.0,0.409206395574,162.69729736,29584.5844696,2.30730979232E-6,0.0,32.10781097946477,0.0,0.0,-0.0213104853842,0.0,0.0,0.0,996.632097085,9.04361655715E-4,641.635398837,413.31608789,-0.0,0.107176412406,-0.254872784742,0.0,0.0,0.0,0.177065565492,14.0815384594
5.2,2.09552129746E7,7946.89261768,0.0,-166.450616506,1528.43772225,0.0,0.0,0.422397293665,165.870971698,29568.1560484,2.42099335608E-6,0.0,32.10786140452953,0.0,0.0,-0.021728406481,0.0,0.0,0.0,996.70252956,9.04905801206E-4,642.112211675,413.374508452,-0.0,0.108911386365,-0.26428303456,0.0,0.0,0.0,0.179969083364,14.5579528022
5.3,2.09551961704E7,8099.73687609,0.0,-169.634498315,1528.44747092,0.0,0.0,0.435807585168,169.043700364,29551.4103068,2.53831365585E-6,0.0,32.10791280370369,0.0,0.0,-0.0221463312145,0.0,0.0,0.0,996.774317454,9.05460715669E-4,642.598530319,413.434057521,-0.0,0.11064938256,-0.273881557921,0.0,0.0,0.0,0.182879587325,15.0440151582
5.4,2.09551790478E7,8252.58211689,0.0,-172.817416014,1528.45737011,0.0,0.0,0.449437522755,172.215464592,29534.3473404,2.65933072109E-6,0.0,32.10796517658732,0.0,0.0,-0.0225642596448,0.0,0.0,0.0,996.84746007,9.0602641087E-4,643.094369129,413.494734763,-0.0,0.112390103968,-0.283668905482,0.0,0.0,0.0,0.185796638265,15.5397482502
5.5,2.09551616069E7,8405.42835514,0.0,-175.999350791,1528.46742007,0.0,0.0,0.463287329429,175.386245567,29516.9672467,2.78410464661E-6,0.0,32.10801852308051,0.0,0.0,-0.022982191832,0.0,0.0,0.0,996.9219567,9.06602898796E-4,643.599742738,413.556539837,-0.0,0.114133268014,-0.293645628103,0.0,0.0,0.0,0.188719821472,16.0451752224
5.6,2.09551438479E7,8558.27560593,0.0,-179.180283778,1528.47762103,0.0,0.0,0.477357199914,178.556024413,29499.2701247,2.91269558457E-6,0.0,32.10807284278333,0.0,0.0,-0.0234001278361,0.0,0.0,0.0,996.997806622,9.07190191655E-4,644.114666058,413.619472395,-0.0,0.115878605517,-0.303812277536,0.0,0.0,0.0,0.191648744917,16.5603196395
5.7,2.09551257709E7,8711.12388438,0.0,-182.360196051,1528.48797321,0.0,0.0,0.491647301939,181.724782202,29481.2560758,3.04516373702E-6,0.0,32.10812813539585,0.0,0.0,-0.0238180677175,0.0,0.0,0.0,997.0750091,9.07788301881E-4,644.639154277,413.683532083,-0.0,0.117625859721,-0.314169407064,0.0,0.0,0.0,0.194583037666,17.0852054855
5.8,2.09551073759E7,8863.97320562,0.0,-185.539068633,1528.49847677,0.0,0.0,0.506157777437,184.892499951,29462.925203,3.1815693486E-6,0.0,32.10818440061816,0.0,0.0,-0.0242360115363,0.0,0.0,0.0,997.153563385,9.08397242128E-4,645.173222861,413.748718542,-0.0,0.119374785397,-0.324717572058,0.0,0.0,0.0,0.197522348425,17.6198571629
5.9,2.09550886631E7,9016.82358479,0.0,-188.716882488,1528.50913187,0.0,0.0,0.520888743647,188.059158618,29444.2776111,3.32197269972E-6,0.0,32.10824163805033,0.0,0.0,-0.0246539593529,0.0,0.0,0.0,997.233468715,9.09017025272E-4,645.716887552,413.815031402,-0.0,0.12112514802,-0.335457330488,0.0,0.0,0.0,0.200466344195,18.1642994917
6.0,2.09550696326E7,9169.67503705,0.0,-191.893618527,1528.51993865,0.0,0.0,0.535840294152,191.22473911,29425.3134072,3.46643409994E-6,0.0,32.10829984759246,0.0,0.0,-0.0250719112275,0.0,0.0,0.0,997.314724316,9.09647664412E-4,646.27016437,413.882470292,-0.0,0.122876723003,-0.346389243377,0.0,0.0,0.0,0.203414709029,18.7185577084
6.1,2.09550502844E7,9322.52757758,0.0,-195.069257603,1528.53089721,0.0,0.0,0.551012499826,194.389222272,29406.0326999,3.61501388161E-6,0.0,32.108359028744616,0.0,0.0,-0.0254898672205,0.0,0.0,0.0,997.397329398,9.10289172868E-4,646.833069614,413.951034829,-0.0,0.124629294997,-0.357513875212,0.0,0.0,0.0,0.206367142885,19.2826574646
6.2,2.09550306188E7,9475.38122156,0.0,-198.243780512,1528.54200765,0.0,0.0,0.566405409727,197.552588897,29386.4355999,3.7677723938E-6,0.0,32.10841918120689,0.0,0.0,-0.0259078273923,0.0,0.0,0.0,997.481283159,9.10941564183E-4,647.405619857,414.020724626,-0.0,0.126382657234,-0.368831794311,0.0,0.0,0.0,0.209323360573,19.8566248267
6.3,2.09550106357E7,9628.23598417,0.0,-201.417167994,1528.55327002,0.0,0.0,0.582019051921,200.714819719,29366.52222,3.9247699965E-6,0.0,32.108480304579366,0.0,0.0,-0.0263257918031,0.0,0.0,0.0,997.566584784,9.1160485212E-4,647.987831954,414.09153929,-0.0,0.128136610927,-0.380343573159,0.0,0.0,0.0,0.212283090771,20.4404862742
6.4,2.09549903354E7,9781.09188063,0.0,-204.589400731,1528.56468439,0.0,0.0,0.597853434248,203.875895414,29346.2926745,4.08606705492E-6,0.0,32.10854239866214,0.0,0.0,-0.0267437605134,0.0,0.0,0.0,997.653233445,9.12279050665E-4,648.579723035,414.163478419,-0.0,0.129890964715,-0.392049788702,0.0,0.0,0.0,0.215246075123,21.0342686986
6.5,2.09549697179E7,9933.94892612,0.0,-207.760459348,1528.57625079,0.0,0.0,0.613908545036,207.035796602,29325.74708,4.25172393409E-6,0.0,32.10860546305527,0.0,0.0,-0.0271617335835,0.0,0.0,0.0,997.7412283,9.12964174023E-4,649.181310508,414.236541606,-0.0,0.131645534138,-0.403951022619,0.0,0.0,0.0,0.218212067399,21.6379994027
6.6,2.09549487833E7,10086.8071359,0.0,-210.93032441,1528.58796921,0.0,0.0,0.630184353766,210.194503842,29304.885555,4.42180099364E-6,0.0,32.10866949735889,0.0,0.0,-0.0275797110738,0.0,0.0,0.0,997.830568493,9.13660236623E-4,649.792612061,414.310728436,-0.0,0.133400141166,-0.416047861565,0.0,0.0,0.0,0.221180832722,22.2517060992
6.7,2.09549275319E7,10239.666525,0.0,-214.098976424,1528.59983966,0.0,0.0,0.646680811686,213.351997635,29283.7082197,4.59635858277E-6,0.0,32.10873450117306,0.0,0.0,-0.0279976930446,0.0,0.0,0.0,997.921253156,9.14367253113E-4,650.41364566,414.386038488,-0.0,0.135154613749,-0.428340897385,0.0,0.0,0.0,0.224152146845,22.8754169095
6.8,2.09549059636E7,10392.5271089,0.0,-217.266395837,1528.61186212,0.0,0.0,0.663397852387,216.508258425,29262.2151965,4.77545703522E-6,0.0,32.10880047429788,0.0,0.0,-0.0284156795563,0.0,0.0,0.0,998.013281406,9.1508523836E-4,651.044429548,414.462471334,-0.0,0.136908785403,-0.440830727314,0.0,0.0,0.0,0.227125795486,23.5091603627
6.9,2.09548840786E7,10545.3889025,0.0,-220.432563036,1528.62403655,0.0,0.0,0.680335392338,219.663266591,29240.4066098,4.95915666469E-6,0.0,32.10886741623345,0.0,0.0,-0.0288336706691,0.0,0.0,0.0,998.106652349,9.15814207455E-4,651.684982247,414.540026538,-0.0,0.13866249483,-0.453517954154,0.0,0.0,0.0,0.23010157371,24.1529653942
7.0,2.09548618771E7,10698.2519212,0.0,-223.597458348,1528.63636289,0.0,0.0,0.697493331386,222.817002456,29218.2825856,5.14751776011E-6,0.0,32.10893532657986,0.0,0.0,-0.0292516664434,0.0,0.0,0.0,998.201365075,9.16554175709E-4,652.335322559,414.618703659,-0.0,0.140415585559,-0.466403186429,0.0,0.0,0.0,0.233079285351,24.8068613447
7.1,2.09548393592E7,10851.1161802,0.0,-226.761062038,1528.64884108,0.0,0.0,0.714871553209,225.96944628,29195.8432523,5.3406005812E-6,0.0,32.1090042050372,0.0,0.0,-0.0296696669395,0.0,0.0,0.0,998.297418663,9.17305158649E-4,652.995469564,414.698502248,-0.0,0.142167905611,-0.479487038529,0.0,0.0,0.0,0.236058742481,25.4708779585
7.2,2.09548165249E7,11003.9816945,0.0,-229.923354311,1528.66147102,0.0,0.0,0.73246992576,229.120578261,29173.0887401,5.53846535415E-6,0.0,32.10907405110558,0.0,0.0,-0.0300876722175,0.0,0.0,0.0,998.394812177,9.18067172027E-4,653.665442622,414.779421849,-0.0,0.143919307195,-0.492770130837,0.0,0.0,0.0,0.239039764909,26.1450453828
7.3,2.09547933746E7,11156.8484794,0.0,-233.084315307,1528.67425262,0.0,0.0,0.750288301657,232.270378535,29150.0191811,5.74117226732E-6,0.0,32.109144864485096,0.0,0.0,-0.0305056823376,0.0,0.0,0.0,998.493544667,9.18840231812E-4,654.34526137,414.861461999,-0.0,0.145669646413,-0.506253089846,0.0,0.0,0.0,0.242022179721,26.8293941661
7.4,2.09547699081E7,11309.7165501,0.0,-236.243925105,1528.68718577,0.0,0.0,0.768326518563,235.418827175,29126.6347095,5.94878146715E-6,0.0,32.109216644775834,0.0,0.0,-0.03092369736,0.0,0.0,0.0,998.593615173,9.19624354193E-4,655.034945726,414.94462223,-0.0,0.147418782996,-0.519936548256,0.0,0.0,0.0,0.245005820851,27.5239552567
7.5,2.09547461258E7,11462.5859216,0.0,-239.402163718,1528.70027034,0.0,0.0,0.786584399529,238.565904189,29102.9354614,6.1613530541E-6,0.0,32.10928939157792,0.0,0.0,-0.0313417173449,0.0,0.0,0.0,998.695022717,9.2041955558E-4,655.734515889,415.028902063,-0.0,0.149166580049,-0.53382114507,0.0,0.0,0.0,0.247990528676,28.2287600015
7.6,2.09547220277E7,11615.4566092,0.0,-242.559011099,1528.71350618,0.0,0.0,0.805061753314,241.711589524,29078.921575,6.3789470787E-6,0.0,32.10936310439143,0.0,0.0,-0.0317597423521,0.0,0.0,0.0,998.797766311,9.21225852599E-4,656.443992334,415.114301015,-0.0,0.150912903818,-0.547907525667,0.0,0.0,0.0,0.250976149644,28.9438401449
7.7,2.09546976141E7,11768.3286279,0.0,-245.714447132,1528.72689314,0.0,0.0,0.823758374694,244.85586306,29054.5931905,6.60162353772E-6,0.0,32.109437782816485,0.0,0.0,-0.0321777724418,0.0,0.0,0.0,998.901844952,9.22043262097E-4,657.163395818,415.200818596,-0.0,0.152657623471,-0.562196341884,0.0,0.0,0.0,0.253962535924,29.6692278268
7.8,2.09546728849E7,11921.2019928,0.0,-248.868451637,1528.74043106,0.0,0.0,0.842674044731,247.99870461,29029.9504501,6.82944237038E-6,0.0,32.109513426553185,0.0,0.0,-0.0325958076738,0.0,0.0,0.0,999.007257624,9.22871801141E-4,657.892747379,415.288454308,-0.0,0.15440061089,-0.576688252067,0.0,0.0,0.0,0.256949545081,30.4049555815
7.9,2.09546478404E7,12074.0767191,0.0,-252.021004368,1528.75411975,0.0,0.0,0.861808531035,251.140093924,29004.993498,7.0624634546E-6,0.0,32.10959003500163,0.0,0.0,-0.0330138481082,0.0,0.0,0.0,999.114003298,9.23711487014E-4,658.632068333,415.377207646,-0.0,0.15614174048,-0.591383921136,0.0,0.0,0.0,0.25993703977,31.1510563362
8.0,2.09546224807E7,12226.9528218,0.0,-255.172085011,1528.76795903,0.0,0.0,0.881161588004,254.280010683,28979.7224804,7.30074660341E-6,0.0,32.10966760776194,0.0,0.0,-0.0334318938045,0.0,0.0,0.0,999.22208093,9.24562337218E-4,659.381380278,415.467078097,-0.0,0.157880888992,-0.606284020625,0.0,0.0,0.0,0.262924887455,31.9075634095
8.1,2.0954596806E7,12379.8303159,0.0,-258.321673187,1528.78194869,0.0,0.0,0.900732957048,257.418434501,28954.1375456,7.54435156137E-6,0.0,32.109746144434226,0.0,0.0,-0.0338499448227,0.0,0.0,0.0,999.331489464,9.25424369474E-4,660.140705091,415.558065143,-0.0,0.159617935347,-0.621389228726,0.0,0.0,0.0,0.265912960137,32.6745105096
8.2,2.09545708165E7,12532.7092166,0.0,-261.469748446,1528.7960885,0.0,0.0,0.920522366791,260.555344924,28928.238844,7.79333800099E-6,0.0,32.109825644618574,0.0,0.0,-0.0342680012224,0.0,0.0,0.0,999.44222783,9.26297601719E-4,660.91006493,415.650168257,-0.0,0.161352760483,-0.636700230326,0.0,0.0,0.0,0.268901134109,33.4519317332
8.3,2.09545445121E7,12685.5895386,0.0,-264.61629027,1528.81037825,0.0,0.0,0.940529533268,263.69072143,28902.0265278,8.04776551937E-6,0.0,32.109906107715126,0.0,0.0,-0.0346860630631,0.0,0.0,0.0,999.554294946,9.27182052112E-4,661.689482235,415.743386905,-0.0,0.163085247204,-0.652217717032,0.0,0.0,0.0,0.271889289724,34.2398615633
8.4,2.09545178933E7,12838.4712972,0.0,-267.761278073,1528.82481769,0.0,0.0,0.96075416009,266.824543425,28875.5007515,8.3076936347E-6,0.0,32.109987533423975,0.0,0.0,-0.0351041304045,0.0,0.0,0.0,999.667689713,9.28077739023E-4,662.478979725,415.837720547,-0.0,0.164815280039,-0.667942387197,0.0,0.0,0.0,0.27487731117,35.0383348682
8.5,2.09544909599E7,12991.3545072,0.0,-270.904691197,1528.83940657,0.0,0.0,0.98119593862,269.956790247,28848.6616716,8.5731817829E-6,0.0,32.11006992114525,0.0,0.0,-0.0355222033058,0.0,0.0,0.0,999.782411022,9.28984681044E-4,663.278580402,415.933168636,-0.0,0.166542745111,-0.683874945939,0.0,0.0,0.0,0.277865086272,35.8473868993
8.6,2.09544637124E7,13144.2391835,0.0,-274.046508913,1528.85414464,0.0,0.0,1.00185454811,273.087441163,28821.5094466,8.8442893143E-6,0.0,32.11015327037904,0.0,0.0,-0.0359402818266,0.0,0.0,0.0,999.898457748,9.29902896982E-4,664.088307547,416.029730614,-0.0,0.168267530016,-0.700016105154,0.0,0.0,0.0,0.280852506297,36.6670532895
8.7,2.09544361507E7,13297.1253411,0.0,-277.186710421,1528.8690316,0.0,0.0,1.02272965585,276.216475367,28794.0442373,9.12107549047E-6,0.0,32.11023758082548,0.0,0.0,-0.036358366026,0.0,0.0,0.0,1000.01582875,9.30832405862E-4,664.908184724,416.127405921,-0.0,0.169989523699,-0.716366583528,0.0,0.0,0.0,0.283839465771,37.4973700518
8.8,2.09544082751E7,13450.0129948,0.0,-280.32527485,1528.88406718,0.0,0.0,1.04382091728,279.343871981,28766.2662062,9.40359948076E-6,0.0,32.110322851784694,0.0,0.0,-0.0367764559632,0.0,0.0,0.0,1000.13452289,9.31773226923E-4,665.738235777,416.226193986,-0.0,0.171708616352,-0.732927106543,0.0,0.0,0.0,0.286825862314,38.3383735771
8.9,2.09543800857E7,13602.9021594,0.0,-283.462181253,1528.89925109,0.0,0.0,1.06512797612,282.469610057,28738.1755182,9.69192035927E-6,0.0,32.11040908295679,0.0,0.0,-0.0371945516973,0.0,0.0,0.0,1000.25453899,9.32725379622E-4,666.578484835,416.326094231,-0.0,0.173424699304,-0.749698406479,0.0,0.0,0.0,0.289811596475,39.1901006325
9.0,2.09543515827E7,13755.7928499,0.0,-286.597408613,1528.91458301,0.0,0.0,1.08665046448,285.59366857,28709.7723401,9.98609710153E-6,0.0,32.11049627364189,0.0,0.0,-0.0376126532873,0.0,0.0,0.0,1000.37587588,9.33688883632E-4,667.428956305,416.427106073,-0.0,0.175137664925,-0.766681222411,0.0,0.0,0.0,0.29279657159,40.0525883596
9.1,2.09543227663E7,13908.685081,0.0,-289.730935836,1528.93006264,0.0,0.0,1.10838800292,288.716026421,28681.0568411,1.02861885814E-5,0.0,32.11058442354011,0.0,0.0,-0.038030760792,0.0,0.0,0.0,1000.49853236,9.3466375884E-4,668.289674878,416.529228919,-0.0,0.176847406535,-0.78387630021,0.0,0.0,0.0,0.295780693634,40.9258742725
9.2,2.09542936366E7,14061.5788674,0.0,-292.862741754,1528.94568963,0.0,0.0,1.13034020057,291.836662437,28652.0291923,1.05922535679E-5,0.0,32.11067353195158,0.0,0.0,-0.0384488742702,0.0,0.0,0.0,1000.62250724,9.3565002535E-4,669.160665526,416.63246217,-0.0,0.178553818314,-0.80128439253,0.0,0.0,0.0,0.298763871092,41.8099962558
9.3,2.09542641938E7,14214.4742238,0.0,-295.992805124,1528.96146365,0.0,0.0,1.15250665522,294.955555371,28622.6895668,1.09043507223E-5,0.0,32.11076359847643,0.0,0.0,-0.0388669937806,0.0,0.0,0.0,1000.74779928,9.36647703481E-4,670.041953505,416.736805219,-0.0,0.18025679522,-0.818906258802,0.0,0.0,0.0,0.301746014831,42.7049925627
9.4,2.09542344381E7,14367.371165,0.0,-299.121104625,1528.97738436,0.0,0.0,1.17488695335,298.072683896,28593.03814,1.12225385947E-5,0.0,32.110854622614774,0.0,0.0,-0.0392851193817,0.0,0.0,0.0,1000.87440727,9.37656813764E-4,670.933564351,416.842257452,-0.0,0.18195623291,-0.836742665218,0.0,0.0,0.0,0.304727037986,43.6109018132
9.5,2.09542043696E7,14520.2697055,0.0,-302.247618861,1528.99345138,0.0,0.0,1.1974806702,301.188026611,28563.0750895,1.1546875621E-5,0.0,32.11094660366673,0.0,0.0,-0.0397032511319,0.0,0.0,0.0,1001.00232995,9.38677376948E-4,671.835523884,416.948818246,-0.0,0.183652027667,-0.854794384719,0.0,0.0,0.0,0.307706855849,44.5277629916
9.6,2.09541739886E7,14673.1698601,0.0,-305.372326356,1529.00966437,0.0,0.0,1.22028736987,304.301562036,28532.8005949,1.18774201201E-5,0.0,32.11103954123245,0.0,0.0,-0.0401213890896,0.0,0.0,0.0,1001.13156606,9.39709413994E-4,672.747858206,417.056486973,-0.0,0.185344076327,-0.873062196973,0.0,0.0,0.0,0.31068538576,45.4556154447
9.7,2.09541432952E7,14826.0716433,0.0,-308.495205558,1529.02602292,0.0,0.0,1.24330660531,307.413268613,28502.2148381,1.22142302909E-5,0.0,32.11113343471204,0.0,0.0,-0.040539533313,0.0,0.0,0.0,1001.26211434,9.40752946076E-4,673.670593704,417.165262995,-0.0,0.187032276216,-0.891546888357,0.0,0.0,0.0,0.313662547011,46.3944988799
9.8,2.09541122896E7,14978.9750695,0.0,-311.616234834,1529.04252665,0.0,0.0,1.26653791838,310.523124705,28471.3180029,1.25573642086E-5,0.0,32.11122828360564,0.0,0.0,-0.0409576838602,0.0,0.0,0.0,1001.39397349,9.41807994586E-4,674.603757044,417.275145668,-0.0,0.188716525082,-0.910249251935,0.0,0.0,0.0,0.316638260755,47.3444533625
9.9,2.0954080972E7,15131.8801534,0.0,-314.735392472,1529.05917517,0.0,0.0,1.28998083993,313.631108596,28440.1102755,1.29068798226E-5,0.0,32.111324087313385,0.0,0.0,-0.041375840789,0.0,0.0,0.0,1001.52714221,9.42874581123E-4,675.547375179,417.38613434,-0.0,0.190396721038,-0.929170087431,0.0,0.0,0.0,0.319612449914,48.3055193138
10.0,2.09540493426E7,15284.7869094,0.0,-317.852656682,1529.07596805,0.0,0.0,1.31363488975,316.737198487,28408.5918443,1.32628349529E-5,0.0,32.1114208453354,0.0,0.0,-0.0417940041574,0.0,0.0,0.0,1001.66161919,9.43952727504E-4,676.501475342,417.498228351,-0.0,0.192072762504,-0.948310201203,0.0,0.0,0.0,0.322585039097,49.2777375091
10.1,2.09540174016E7,15437.6953518,0.0,-320.968005588,1529.09290489,0.0,0.0,1.33749957665,319.841372501,28376.7628997,1.36252872871E-5,0.0,32.11151855697182,0.0,0.0,-0.0422121740229,0.0,0.0,0.0,1001.79740311,9.45042455755E-4,677.466085053,417.611427034,-0.0,0.193744548151,-0.967670406214,0.0,0.0,0.0,0.325555954523,50.2611490747
10.2,2.09539851491E7,15590.6054951,0.0,-324.081417237,1529.10998524,0.0,0.0,1.36157439847,322.943608679,28344.6236344,1.39942943777E-5,0.0,32.11161722172277,0.0,0.0,-0.0426303504432,0.0,0.0,0.0,1001.93449262,9.46143788117E-4,678.441232111,417.725729712,-0.0,0.195411976849,-0.987251522004,0.0,0.0,0.0,0.328525123944,51.2557954864
10.3,2.09539525853E7,15743.5173536,0.0,-327.192869591,1529.12720867,0.0,0.0,1.38585884208,326.043884979,28312.1742433,1.43699136388E-5,0.0,32.1117168389884,0.0,0.0,-0.0430485334757,0.0,0.0,0.0,1002.07288637,9.4725674704E-4,679.426944602,417.841135704,-0.0,0.19707494762,-1.00705437465,0.0,0.0,0.0,0.331492476576,52.2617185663
10.4,2.09539197106E7,15896.4309416,0.0,-330.30234053,1529.14457473,0.0,0.0,1.41035238341,329.142179274,28279.4149235,1.47522023435E-5,0.0,32.11181740816885,0.0,0.0,-0.0434667231776,0.0,0.0,0.0,1002.21258299,9.48381355188E-4,680.423250894,417.957644319,-0.0,0.198733359589,-1.02707979674,0.0,0.0,0.0,0.334457943033,53.2789604811
10.5,2.09538865249E7,16049.3462733,0.0,-333.40980785,1529.16208294,0.0,0.0,1.4350544874,332.238469358,28246.3458742,1.51412176204E-5,0.0,32.11191892866424,0.0,0.0,-0.0438849196061,0.0,0.0,0.0,1002.35358109,9.49517635434E-4,681.430179641,418.075254858,-0.0,0.200387111939,-1.04732862734,0.0,0.0,0.0,0.337421455261,54.307563739
10.6,2.09538530287E7,16202.2633629,0.0,-336.515249263,1529.17973285,0.0,0.0,1.45996460808,335.332732936,28212.9672971,1.5537016451E-5,0.0,32.11202139997472,0.0,0.0,-0.0443031228182,0.0,0.0,0.0,1002.49587929,9.50665610863E-4,682.447759778,418.193966615,-0.0,0.202036103868,-1.06780171193,0.0,0.0,0.0,0.340382946481,55.3475711879
10.7,2.0953819222E7,16355.1822246,0.0,-339.618642395,1529.19752397,0.0,0.0,1.48508218851,338.424947631,28179.2793959,1.59396556664E-5,0.0,32.11212482130044,0.0,0.0,-0.0447213328706,0.0,0.0,0.0,1002.63947617,9.51825304771E-4,683.476020525,418.313778876,-0.0,0.203680234549,-1.08849990241,0.0,0.0,0.0,0.343342351132,56.3990260119
10.8,2.0953785105E7,16508.1028724,0.0,-342.719964789,1529.21545581,0.0,0.0,1.51040666078,341.515090981,28145.2823767,1.63491919448E-5,0.0,32.11222919224152,0.0,0.0,-0.0451395498201,0.0,0.0,0.0,1002.78437031,9.52996740662E-4,684.514991388,418.434690918,-0.0,0.205319403088,-1.109424057,0.0,0.0,0.0,0.346299604815,57.4619717295
10.9,2.0953750678E7,16661.0253204,0.0,-345.8191939,1529.23352786,0.0,0.0,1.535937446,344.603140434,28110.9764475,1.6765681808E-5,0.0,32.11233451189812,0.0,0.0,-0.0455577737232,0.0,0.0,0.0,1002.93056026,9.54179942252E-4,685.564702156,418.556702013,-0.0,0.206953508492,-1.13057504026,0.0,0.0,0.0,0.349254644243,58.5364521907
11.0,2.09537159412E7,16813.9495827,0.0,-348.916307095,1529.25173962,0.0,0.0,1.5616739543,347.689073356,28076.3618191,1.71891816185E-5,0.0,32.112440779870376,0.0,0.0,-0.0459760046363,0.0,0.0,0.0,1003.07804459,9.55374933464E-4,686.625182901,418.679811421,-0.0,0.208582449626,-1.15195372299,0.0,0.0,0.0,0.352207407193,59.6225115739
11.1,2.09536808948E7,16966.875673,0.0,-352.011281656,1529.27009056,0.0,0.0,1.58761558478,350.772867021,28041.4387042,1.76197475768E-5,0.0,32.112547995458435,0.0,0.0,-0.0463942426154,0.0,0.0,0.0,1003.22682183,9.5658173843E-4,687.696463982,418.804018397,-0.0,0.210206125185,-1.17356098224,0.0,0.0,0.0,0.355157832461,60.7201943838
11.2,2.09536455391E7,17119.8036054,0.0,-355.104094775,1529.28858016,0.0,0.0,1.61376172551,353.85449862,28006.2073178,1.80574357179E-5,0.0,32.11265615796245,0.0,0.0,-0.0468124877168,0.0,0.0,0.0,1003.3768905,9.57800381492E-4,688.77857604,418.929322187,-0.0,0.211824433656,-1.1953977012,0.0,0.0,0.0,0.358105859815,61.8295454479
11.3,2.09536098741E7,17272.7333936,0.0,-358.194723557,1529.30720786,0.0,0.0,1.6401117535,356.93394525,27970.6678773,1.85023019087E-5,0.0,32.11276526678254,0.0,0.0,-0.0472307399962,0.0,0.0,0.0,1003.52824911,9.59030887199E-4,689.871550003,419.05572203,-0.0,0.21343727329,-1.2174647692,0.0,0.0,0.0,0.361051429957,62.9506099143
11.4,2.09535739002E7,17425.6650515,0.0,-361.283145016,1529.32597311,0.0,0.0,1.66666503466,360.011183923,27934.8206023,1.8954401845E-5,0.0,32.11287532131889,0.0,0.0,-0.0476489995094,0.0,0.0,0.0,1003.68089614,9.60273280308E-4,690.975417084,419.183217155,-0.0,0.215044542071,-1.23976308164,0.0,0.0,0.0,0.363994484481,64.0834332483
11.5,2.09535376175E7,17578.5985928,0.0,-364.369336077,1529.34487536,0.0,0.0,1.69342092376,363.086191559,27898.6657149,1.94137910481E-5,0.0,32.11298632067163,0.0,0.0,-0.0480672663118,0.0,0.0,0.0,1003.83483009,9.61527585782E-4,692.090208777,419.311806783,-0.0,0.216646137685,-1.26229353994,0.0,0.0,0.0,0.366934965836,65.2280612295
11.6,2.09535010264E7,17731.5340312,0.0,-367.453273575,1529.36391402,0.0,0.0,1.72037876443,366.158944987,27862.2034392,1.98805248618E-5,0.0,32.11309826444091,0.0,0.0,-0.0484855404588,0.0,0.0,0.0,1003.99004942,9.62793828792E-4,693.215956865,419.44149013,-0.0,0.218241957495,-1.28505705148,0.0,0.0,0.0,0.36987281729,66.3845399491
11.7,2.0953464127E7,17884.4713802,0.0,-370.534934252,1529.38308852,0.0,0.0,1.7475378891,369.229420947,27825.4340018,2.03546584498E-5,0.0,32.113211151826896,0.0,0.0,-0.0489038220057,0.0,0.0,0.0,1004.14655259,9.64072034714E-4,694.352693414,419.5722664,-0.0,0.219831898512,-1.30805452958,0.0,0.0,0.0,0.372807982898,67.5529158064
11.8,2.09534269195E7,18037.4106534,0.0,-373.614294762,1529.40239827,0.0,0.0,1.77489761894,372.297596086,27788.3576317,2.08362467922E-5,0.0,32.11332498202972,0.0,0.0,-0.0493221110072,0.0,0.0,0.0,1004.30433803,9.65362229131E-4,695.500450777,419.70413479,-0.0,0.221415857369,-1.33128689338,0.0,0.0,0.0,0.375740407466,68.7332355061
11.9,2.09533894042E7,18190.3518643,0.0,-376.691331661,1529.42184265,0.0,0.0,1.80245726384,375.363446958,27750.97456,2.13253446825E-5,0.0,32.11343975454955,0.0,0.0,-0.0497404075183,0.0,0.0,0.0,1004.46340416,9.6666443783E-4,696.659261588,419.837094491,-0.0,0.2229937303,-1.35475506784,0.0,0.0,0.0,0.378670036524,69.9255460547
12.0,2.09533515813E7,18343.2950264,0.0,-379.766021419,1529.44142106,0.0,0.0,1.83021612237,378.426950027,27713.2850205,2.18220067245E-5,0.0,32.11355546858653,0.0,0.0,-0.0501587115936,0.0,0.0,0.0,1004.62374941,9.67978686804E-4,697.829158771,419.971144682,-0.0,0.224565413109,-1.37845998366,0.0,0.0,0.0,0.381596816293,71.1298947575
12.1,2.09533134511E7,18496.240153,0.0,-382.838340406,1529.46113286,0.0,0.0,1.8581734817,381.48808166,27675.2892491,2.23262873296E-5,0.0,32.11367212354083,0.0,0.0,-0.0505770232874,0.0,0.0,0.0,1004.78537217,9.69305002249E-4,699.010175533,420.106284537,-0.0,0.226130801157,-1.40240257722,0.0,0.0,0.0,0.384520693661,72.3463292154
12.2,2.09532750137E7,18649.1872574,0.0,-385.908264903,1529.48097743,0.0,0.0,1.8863286176,384.546818132,27636.987484,2.28382407129E-5,0.0,32.1137897185126,0.0,0.0,-0.050995342654,0.0,0.0,0.0,1004.94827081,9.70643410567E-4,700.202345366,420.242513219,-0.0,0.227689789329,-1.42658379052,0.0,0.0,0.0,0.387441616151,73.5748973212
12.3,2.09532362695E7,18802.1363529,0.0,-388.975771093,1529.50095411,0.0,0.0,1.91468079432,387.603135625,27598.3799661,2.33579208909E-5,0.0,32.113908252802005,0.0,0.0,-0.0514136697474,0.0,0.0,0.0,1005.11244373,9.71993938361E-4,701.405702047,420.379829885,-0.0,0.229242272021,-1.4510045711,0.0,0.0,0.0,0.3903595319,74.8156472565
12.4,2.09531972186E7,18955.0874526,0.0,-392.040835067,1529.52106226,0.0,0.0,1.94322926459,390.657010222,27559.4669383,2.38853816776E-5,0.0,32.11402772580919,0.0,0.0,-0.0518320046215,0.0,0.0,0.0,1005.27788926,9.73356612437E-4,702.62027964,420.518233681,-0.0,0.230788143116,-1.47566587201,0.0,0.0,0.0,0.393274389633,76.0686274881
12.5,2.09531578614E7,19108.0405697,0.0,-395.103432818,1529.5413012,0.0,0.0,1.97197326956,393.708417914,27520.2486463,2.44206766821E-5,0.0,32.11414813673432,0.0,0.0,-0.0522503473297,0.0,0.0,0.0,1005.44460576,9.74731459806E-4,703.846112493,420.657723747,-0.0,0.232327295965,-1.50056865172,0.0,0.0,0.0,0.39618613864,77.3338867648
12.6,2.0953118198E7,19260.9957172,0.0,-398.163540243,1529.56167025,0.0,0.0,2.00091203871,396.757334594,27480.7253378,2.49638593047E-5,0.0,32.11426948487756,0.0,0.0,-0.0526686979255,0.0,0.0,0.0,1005.61259154,9.76118507677E-4,705.08323524,420.798299214,-0.0,0.233859623366,-1.52571387405,0.0,0.0,0.0,0.399094728753,78.6114741131
12.7,2.09530782288E7,19413.952908,0.0,-401.221133144,1529.58216873,0.0,0.0,2.03004478979,399.803736059,27440.8972632,2.55149827342E-5,0.0,32.11439176933908,0.0,0.0,-0.0530870564622,0.0,0.0,0.0,1005.78184494,9.77517783464E-4,706.3316828,420.939959203,-0.0,0.23538501755,-1.55110250813,0.0,0.0,0.0,0.402000110327,79.9014388342
12.8,2.09530379539E7,19566.9121552,0.0,-404.276187223,1529.60279594,0.0,0.0,2.05937072879,402.847598008,27400.7646752,2.60740999447E-5,0.0,32.11451498951902,0.0,0.0,-0.0535054229926,0.0,0.0,0.0,1005.95236424,9.78929314778E-4,707.591490378,421.082702828,-0.0,0.236903370158,-1.57673552829,0.0,0.0,0.0,0.404902234217,81.2038305002
12.9,2.09529973736E7,19719.8734715,0.0,-407.328678088,1529.62355117,0.0,0.0,2.08888904986,405.888896043,27360.3278291,2.66412636918E-5,0.0,32.11463914461758,0.0,0.0,-0.0539237975696,0.0,0.0,0.0,1006.12414774,9.80353129432E-4,708.862693465,421.226529193,-0.0,0.238414572227,-1.60261391401,0.0,0.0,0.0,0.40780105176,82.51869895
13.0,2.09529564882E7,19872.8368697,0.0,-410.378581244,1529.64443369,0.0,0.0,2.11859893523,408.927605668,27319.5869823,2.721652651E-5,0.0,32.11476423383489,0.0,0.0,-0.0543421802456,0.0,0.0,0.0,1006.29719371,9.8178925544E-4,710.145327836,421.371437396,-0.0,0.239918514173,-1.62873864986,0.0,0.0,0.0,0.410696514757,83.8460942858
13.1,2.0952915298E7,20025.8023624,0.0,-413.425872102,1529.66544277,0.0,0.0,2.14849955517,411.963702288,27278.542395,2.77999407093E-5,0.0,32.11489025627113,0.0,0.0,-0.0547605710731,0.0,0.0,0.0,1006.47150041,9.83237721012E-4,711.439429552,421.517426523,-0.0,0.241415085775,-1.6551107254,0.0,0.0,0.0,0.413588575455,85.1860668692
13.2,2.09528738032E7,20178.7699624,0.0,-416.47052597,1529.68657768,0.0,0.0,2.17859006788,414.997161207,27237.1943298,2.83915583716E-5,0.0,32.11501721132648,0.0,0.0,-0.0551789701039,0.0,0.0,0.0,1006.64706608,9.84698554559E-4,712.745034959,421.664495654,-0.0,0.242904176158,-1.68173113512,0.0,0.0,0.0,0.416477186531,86.5386673169
13.3,2.0952832004E7,20331.7396821,0.0,-419.512518059,1529.70783765,0.0,0.0,2.20886961946,418.027957633,27195.5430515,2.89914313478E-5,0.0,32.11514509820109,0.0,0.0,-0.0555973773901,0.0,0.0,0.0,1006.82388895,9.86171784688E-4,714.06218069,421.812643859,-0.0,0.24438567378,-1.70860087836,0.0,0.0,0.0,0.419362301072,87.9039464971
13.4,2.09527899007E7,20484.7115341,0.0,-422.551823477,1529.72922193,0.0,0.0,2.23933734382,421.056066671,27153.5888278,2.95996112541E-5,0.0,32.115273915895145,0.0,0.0,-0.0560157929833,0.0,0.0,0.0,1007.00196725,9.87657440203E-4,715.390903662,421.961870199,-0.0,0.245859466417,-1.73572095923,0.0,0.0,0.0,0.422243872566,89.2819555252
13.5,2.09527474937E7,20637.6855306,0.0,-425.588417233,1529.75072972,0.0,0.0,2.2699923626,424.081463325,27111.3319286,3.0216149469E-5,0.0,32.11540366380879,0.0,0.0,-0.0564342169347,0.0,0.0,0.0,1007.18129918,9.89155550107E-4,716.731241078,422.112173726,-0.0,0.247325441148,-1.76309238653,0.0,0.0,0.0,0.425121854882,90.6727457598
13.6,2.09527047832E7,20790.6616841,0.0,-428.622274235,1529.77236026,0.0,0.0,2.30083378511,427.104122499,27068.7726264,3.08410971297E-5,0.0,32.11553434094223,0.0,0.0,-0.0568526492956,0.0,0.0,0.0,1007.36188293,9.90666143597E-4,718.083230426,422.263553486,-0.0,0.248783484343,-1.79071617367,0.0,0.0,0.0,0.427996202256,92.0763687982
13.7,2.09526617693E7,20943.6400068,0.0,-431.653369289,1529.79411272,0.0,0.0,2.33186070823,430.124018996,27025.9111962,3.14745051289E-5,0.0,32.11566594659562,0.0,0.0,-0.0572710901168,0.0,0.0,0.0,1007.54371667,9.92189250066E-4,719.446909479,422.416008513,-0.0,0.250233481648,-1.8185933386,0.0,0.0,0.0,0.430866869282,93.4928764725
13.8,2.09526184526E7,21096.6205107,0.0,-434.681677099,1529.81598632,0.0,0.0,2.36307221637,433.141127516,26982.7479155,3.21164241113E-5,0.0,32.11579847996913,0.0,0.0,-0.057689539449,0.0,0.0,0.0,1007.72679857,9.937248991E-4,720.822316296,422.569537832,-0.0,0.251675317975,-1.84672490371,0.0,0.0,0.0,0.433733810893,94.9223208448
13.9,2.09525748331E7,21249.603208,0.0,-437.707172265,1529.83798021,0.0,0.0,2.39446738134,436.155422656,26939.2830645,3.276690447E-5,0.0,32.115931940062936,0.0,0.0,-0.0581079973426,0.0,0.0,0.0,1007.91112677,9.95273120482E-4,722.20948922,422.724140462,-0.0,0.253108877487,-1.87511189572,0.0,0.0,0.0,0.436596982355,96.3647542033
14.0,2.09525309112E7,21402.5881107,0.0,-440.729829287,1529.86009357,0.0,0.0,2.42604526231,439.166878912,26895.5169256,3.34259963435E-5,0.0,32.116066326077224,0.0,0.0,-0.0585264638477,0.0,0.0,0.0,1008.09669941,9.96833944186E-4,723.608466881,422.879815409,-0.0,0.254534043587,-1.90375534567,0.0,0.0,0.0,0.439456339249,97.8202290575
14.1,2.09524866872E7,21555.5752307,0.0,-443.749622558,1529.88232555,0.0,0.0,2.45780490573,442.175470673,26851.4497842,3.40937496117E-5,0.0,32.11620163731216,0.0,0.0,-0.0589449390142,0.0,0.0,0.0,1008.28351461,9.9840740038E-4,725.019288192,423.036561674,-0.0,0.255950698908,-1.93265628875,0.0,0.0,0.0,0.442311837462,99.2887981336
14.2,2.09524421614E7,21708.5645798,0.0,-446.76652637,1529.9046753,0.0,0.0,2.4897453452,445.181172229,26807.0819278,3.47702138929E-5,0.0,32.11633787266792,0.0,0.0,-0.0593634228917,0.0,0.0,0.0,1008.47157047,9.99993519422E-4,726.441992351,423.194378246,-0.0,0.257358725301,-1.96181576426,0.0,0.0,0.0,0.445163433179,100.77051437
14.3,2.0952397334E7,21861.5561697,0.0,-449.78051491,1529.92714194,0.0,0.0,2.52186560146,448.183957763,26762.4136469,3.54554385398E-5,0.0,32.11647503144469,0.0,0.0,-0.0597819155296,0.0,0.0,0.0,1008.66086509,0.00100159233187,727.876618843,423.353264107,-0.0,0.258758003823,-1.99123481549,0.0,0.0,0.0,0.448011082867,102.265430912
14.4,2.09523522054E7,22014.550012,0.0,-452.79156226,1529.9497246,0.0,0.0,2.55416468222,451.183801353,26717.4452344,3.61494726366E-5,0.0,32.116613112642646,0.0,0.0,-0.0602004169769,0.0,0.0,0.0,1008.85139654,0.00100320386845,729.323207435,423.513218227,-0.0,0.260148414728,-2.02091448964,0.0,0.0,0.0,0.450854743269,103.77360111
14.5,2.09523067758E7,22167.5461184,0.0,-455.799642398,1529.97242237,0.0,0.0,2.58664158215,454.180676973,26672.1769856,3.68523649946E-5,0.0,32.11675211546196,0.0,0.0,-0.0606189272825,0.0,0.0,0.0,1009.04316289,0.0010048281601,730.78179818,423.674239571,-0.0,0.261529837457,-2.05085583776,0.0,0.0,0.0,0.453694371393,105.295078509
14.6,2.09522610456E7,22320.5445003,0.0,-458.804729194,1529.99523436,0.0,0.0,2.61929528274,457.174558492,26626.6091988,3.75641641495E-5,0.0,32.116892039002835,0.0,0.0,-0.0610374464949,0.0,0.0,0.0,1009.23616219,0.00100646523795,732.252431415,423.836327091,-0.0,0.262902150627,-2.08105991457,0.0,0.0,0.0,0.456529924504,106.829916848
14.7,2.0952215015E7,22473.5451691,0.0,-461.806796415,1530.01815964,0.0,0.0,2.65212475225,460.165419672,26580.7421746,3.82849183569E-5,0.0,32.11703288226543,0.0,0.0,-0.0614559746623,0.0,0.0,0.0,1009.43039248,0.0010081151333,733.735147762,423.999479732,-0.0,0.264265232023,-2.11152777844,0.0,0.0,0.0,0.459361360112,108.378170056
14.8,2.09521686843E7,22626.548136,0.0,-464.805817722,1530.04119729,0.0,0.0,2.6851289456,463.153234172,26534.5762164,3.90146755896E-5,0.0,32.11717464434993,0.0,0.0,-0.0618745118327,0.0,0.0,0.0,1009.62585177,0.00100977787765,735.229988127,424.163696429,-0.0,0.26561895859,-2.14226049127,0.0,0.0,0.0,0.462188635966,109.939892242
14.9,2.09521220539E7,22779.5534122,0.0,-467.801766667,1530.06434636,0.0,0.0,2.71830680428,466.13797554,26488.1116302,3.97534835331E-5,0.0,32.11731732445652,0.0,0.0,-0.0622930580539,0.0,0.0,0.0,1009.82253808,0.00101145350268,736.736993698,424.328976106,-0.0,0.266963206421,-2.17325911838,0.0,0.0,0.0,0.465011710047,111.515137695
15.0,2.09520751241E7,22932.5610089,0.0,-470.794616698,1530.0876059,0.0,0.0,2.75165725625,469.119617221,26441.3487246,4.05013895824E-5,0.0,32.117460921585405,0.0,0.0,-0.0627116133732,0.0,0.0,0.0,1010.0204494,0.00101314204025,738.25620595,424.495317682,-0.0,0.268297850751,-2.2045247284,0.0,0.0,0.0,0.467830540557,113.103960875
15.1,2.09520278951E7,23085.5709371,0.0,-473.784341153,1530.11097494,0.0,0.0,2.7851792159,472.098132551,26394.2878109,4.12584408384E-5,0.0,32.11760543483675,0.0,0.0,-0.0631301778377,0.0,0.0,0.0,1010.2195837,0.00101484352243,739.787666639,424.662720062,-0.0,0.269622765947,-2.23605839319,0.0,0.0,0.0,0.470645085913,114.706416411
15.2,2.09519803673E7,23238.5832075,0.0,-476.770913266,1530.1344525,0.0,0.0,2.81887158388,475.073494759,26346.9292032,4.20246841036E-5,0.0,32.117750863110736,0.0,0.0,-0.0635487514942,0.0,0.0,0.0,1010.41993896,0.00101655798145,741.331417807,424.831182144,-0.0,0.270937825502,-2.26786118773,0.0,0.0,0.0,0.47345530474,116.322559092
15.3,2.0951932541E7,23391.5978312,0.0,-479.754306161,1530.15803759,0.0,0.0,2.85273324706,478.045676968,26299.273218,4.28001658789E-5,0.0,32.11789720560756,0.0,0.0,-0.0639673343892,0.0,0.0,0.0,1010.62151313,0.00101828544974,742.887501778,425.000702817,-0.0,0.272242902029,-2.29993419,0.0,0.0,0.0,0.476261155864,117.952443866
15.4,2.09518844165E7,23544.6148186,0.0,-482.734492854,1530.1817292,0.0,0.0,2.88676307844,481.01465219,26251.3201747,4.35849323596E-5,0.0,32.118044461327415,0.0,0.0,-0.0643859265689,0.0,0.0,0.0,1010.82430414,0.00102002595989,744.455961157,425.171280958,-0.0,0.273537867247,-2.33227848089,0.0,0.0,0.0,0.479062598305,119.596125828
15.5,2.09518359942E7,23697.6341805,0.0,-485.711446252,1530.20552632,0.0,0.0,2.92095993702,483.980393331,26203.0703954,4.43790294313E-5,0.0,32.11819262937048,0.0,0.0,-0.0648045280792,0.0,0.0,0.0,1011.02830992,0.00102177954471,746.036838835,425.342915436,-0.0,0.274822591983,-2.36489514407,0.0,0.0,0.0,0.48185959127,121.253660223
15.6,2.09517872744E7,23850.6559274,0.0,-488.685139157,1530.2294279,0.0,0.0,2.95532266773,486.942873187,26154.5242047,4.51825026669E-5,0.0,32.11834170863695,0.0,0.0,-0.0652231389656,0.0,0.0,0.0,1011.23352838,0.00102354623714,747.630177985,425.515605112,-0.0,0.276096946156,-2.39778526589,0.0,0.0,0.0,0.484652094149,122.925102433
15.7,2.09517382573E7,24003.6800695,0.0,-491.655544258,1530.25343292,0.0,0.0,2.98985010132,489.902064447,26105.6819303,4.59953973217E-5,0.0,32.118491698127,0.0,0.0,-0.0656417592735,0.0,0.0,0.0,1011.43995741,0.00102532607036,749.236022061,425.689348834,-0.0,0.277360798778,-2.43094993529,0.0,0.0,0.0,0.487440066508,124.610507975
15.8,2.09516889434E7,24156.7066174,0.0,-494.622634136,1530.27754031,0.0,0.0,3.02454105429,492.85793969,26056.5439024,4.68177583302E-5,0.0,32.11864259694086,0.0,0.0,-0.0660603890477,0.0,0.0,0.0,1011.64759489,0.00102711907767,750.854414801,425.864145443,-0.0,0.278614017944,-2.46439024362,0.0,0.0,0.0,0.49022346808,126.309932493
15.9,2.09516393329E7,24309.735581,0.0,-497.586381264,1530.30174899,0.0,0.0,3.05939432874,495.810471384,26007.1104538,4.76496303021E-5,0.0,32.11879440407867,0.0,0.0,-0.0664790283329,0.0,0.0,0.0,1011.85643869,0.00102892529259,752.485400223,426.039993768,-0.0,0.279856470828,-2.49810728462,0.0,0.0,0.0,0.493002258767,128.023431754
16.0,2.09515894262E7,24462.7669705,0.0,-500.546758005,1530.32605789,0.0,0.0,3.09440871233,498.75963189,25957.3819205,4.84910575179E-5,0.0,32.118947118440666,0.0,0.0,-0.0668976771734,0.0,0.0,0.0,1012.06648667,0.0010307447488,754.129022628,426.216892632,-0.0,0.281088023675,-2.53210215421,0.0,0.0,0.0,0.495776398627,129.751061641
16.1,2.09515392236E7,24615.8007959,0.0,-503.503736611,1530.35046591,0.0,0.0,3.12958297817,501.705393458,25907.3586408,4.93420839257E-5,0.0,32.11910073912701,0.0,0.0,-0.067316335613,0.0,0.0,0.0,1012.27773666,0.00103257748016,755.785326597,426.394840844,-0.0,0.282308541796,-2.56637595043,0.0,0.0,0.0,0.498545847874,131.492878148
16.2,2.09514887256E7,24768.8370669,0.0,-506.457289225,1530.37497194,0.0,0.0,3.16491588468,504.647728229,25857.040956,5.02027531365E-5,0.0,32.11925526493792,0.0,0.0,-0.0677350036954,0.0,0.0,0.0,1012.49018648,0.00103442352071,757.454356993,426.573837206,-0.0,0.283517889566,-2.60092977329,0.0,0.0,0.0,0.501310566871,133.248937372
16.3,2.09514379323E7,24921.8757935,0.0,-509.40738788,1530.39957484,0.0,0.0,3.20040617553,507.586608233,25806.4292103,5.10731084206E-5,0.0,32.119410694973574,0.0,0.0,-0.0681536814639,0.0,0.0,0.0,1012.70383396,0.00103628290465,759.13615896,426.753880508,-0.0,0.284715930412,-2.63576472466,0.0,0.0,0.0,0.504070516126,135.019295509
16.4,2.09513868442E7,25074.9169851,0.0,-512.354004497,1530.4242735,0.0,0.0,3.23605257954,510.52200539,25755.5237505,5.19531927033E-5,0.0,32.11956702823417,0.0,0.0,-0.0685723689614,0.0,0.0,0.0,1012.91867688,0.00103815566638,760.830777921,426.934969533,-0.0,0.285902526819,-2.67088190815,0.0,0.0,0.0,0.506825656288,136.804008845
16.5,2.09513354616E7,25227.9606513,0.0,-515.297110889,1530.44906674,0.0,0.0,3.27185381056,513.453891508,25704.3249262,5.28430485611E-5,0.0,32.11972426351992,0.0,0.0,-0.0689910662305,0.0,0.0,0.0,1013.13471302,0.00104004184045,762.538259581,427.11710305,-0.0,0.287077540313,-2.70628242897,0.0,0.0,0.0,0.509575948142,138.603133752
16.6,2.09512837849E7,25381.0068016,0.0,-518.236678755,1530.47395341,0.0,0.0,3.30780856737,516.382238288,25652.8330901,5.37427182172E-5,0.0,32.119882399831006,0.0,0.0,-0.0694097733134,0.0,0.0,0.0,1013.35194016,0.00104194146158,764.258649922,427.300279822,-0.0,0.288240831466,-2.74196739382,0.0,0.0,0.0,0.512321352605,140.41672668
16.7,2.09512318144E7,25534.0554451,0.0,-521.172679687,1530.49893232,0.0,0.0,3.34391553361,519.307017316,25601.0485975,5.46522435378E-5,0.0,32.12004143606762,0.0,0.0,-0.069828490252,0.0,0.0,0.0,1013.57035605,0.00104385456469,765.991995207,427.4844986,-0.0,0.28939225989,-2.77793791074,0.0,0.0,0.0,0.515061830722,142.244844152
16.8,2.09511795505E7,25687.1065911,0.0,-524.105085164,1530.52400228,0.0,0.0,3.38017337764,522.22820007,25548.9718065,5.55716660276E-5,0.0,32.12020137122998,0.0,0.0,-0.0702472170877,0.0,0.0,0.0,1013.78995843,0.00104578118483,767.738341979,427.669758125,-0.0,0.290531684231,-2.814195089,0.0,0.0,0.0,0.517797343664,144.087542754
16.9,2.09511269935E7,25840.1602485,0.0,-527.033866553,1530.54916209,0.0,0.0,3.41658075246,525.145757916,25496.6030783,5.65010268258E-5,0.0,32.12036220411827,0.0,0.0,-0.0706659538617,0.0,0.0,0.0,1014.01074501,0.00104772135724,769.497737056,427.856057128,-0.0,0.291658962165,-2.85074003894,0.0,0.0,0.0,0.52052785272,145.944879134
17.0,2.09510741438E7,25993.2164264,0.0,-529.958995111,1530.57441051,0.0,0.0,3.45313629559,528.059662109,25443.9427768,5.74403667018E-5,0.0,32.12052393373269,0.0,0.0,-0.0710847006148,0.0,0.0,0.0,1014.23271353,0.00104967511734,771.270227538,428.043394331,-0.0,0.292773950399,-2.88757387189,0.0,0.0,0.0,0.5232533193,147.81690999
17.1,2.09510210018E7,26146.2751336,0.0,-532.880441985,1530.59974632,0.0,0.0,3.489838629,530.969883793,25390.9912687,5.8389726051E-5,0.0,32.12068655887345,0.0,0.0,-0.0715034573874,0.0,0.0,0.0,1014.45586167,0.00105164250069,773.055860801,428.231768443,-0.0,0.293876504663,-2.92469769995,0.0,0.0,0.0,0.525973704924,149.703692063
17.2,2.09509675679E7,26299.3363786,0.0,-535.798178207,1530.62516826,0.0,0.0,3.52668635898,533.876393999,25337.7489237,5.93491448904E-5,0.0,32.12085007854075,0.0,0.0,-0.0719222242194,0.0,0.0,0.0,1014.68018711,0.00105362354303,774.854684498,428.421178166,-0.0,0.294966479712,-2.96211263594,0.0,0.0,0.0,0.528688971226,151.605282135
17.3,2.09509138423E7,26452.40017,0.0,-538.712174701,1530.65067507,0.0,0.0,3.56367807603,536.77916365,25284.2161145,6.03186628546E-5,0.0,32.12101449153478,0.0,0.0,-0.0723410011506,0.0,0.0,0.0,1014.90568752,0.00105561828027,776.666746558,428.611622189,-0.0,0.296043729318,-2.99981979321,0.0,0.0,0.0,0.531399079948,153.521737018
17.4,2.09508598256E7,26605.4665164,0.0,-541.622402278,1530.67626546,0.0,0.0,3.60081235479,539.678163554,25230.3932166,6.12983191912E-5,0.0,32.121179796755754,0.0,0.0,-0.0727597882202,0.0,0.0,0.0,1015.13236057,0.00105762674847,778.492095189,428.803099194,-0.0,0.297108106272,-3.03782028549,0.0,0.0,0.0,0.534103992933,155.453113546
17.5,2.0950805518E7,26758.5354259,0.0,-544.528831638,1530.70193813,0.0,0.0,3.63808775391,542.57336441,25176.2806085,6.22881527564E-5,0.0,32.121345993103866,0.0,0.0,-0.073178585467,0.0,0.0,0.0,1015.36020388,0.00105964898385,780.330778871,428.995607848,-0.0,0.298159462381,-3.07611522678,0.0,0.0,0.0,0.536803672131,157.39946857
17.6,2.09507509199E7,26911.6069067,0.0,-547.431433369,1530.72769179,0.0,0.0,3.67550281593,545.464736805,25121.8786714,6.32882020108E-5,0.0,32.121513079279325,0.0,0.0,-0.0735973929294,0.0,0.0,0.0,1015.58921509,0.00106168502282,782.182846364,429.189146813,-0.0,0.299197648463,-3.11470573121,0.0,0.0,0.0,0.539498079588,159.360858952
17.7,2.09506960318E7,27064.6809669,0.0,-550.330177948,1530.7535251,0.0,0.0,3.71305606725,548.352251213,25067.1877897,6.4298505015E-5,0.0,32.12168105428234,0.0,0.0,-0.0740162106457,0.0,0.0,0.0,1015.8193918,0.0010637349019,784.0483467,429.383714736,-0.0,0.30022251435,-3.15359291285,0.0,0.0,0.0,0.542187177447,161.337341552
17.8,2.0950640854E7,27217.7576143,0.0,-553.22503574,1530.77943671,0.0,0.0,3.75074601793,551.235878,25012.2083507,6.53190994249E-5,0.0,32.121849916813105,0.0,0.0,-0.0744350386533,0.0,0.0,0.0,1016.05073162,0.00106579865782,785.927329185,429.579310256,-0.0,0.301233908883,-3.19277788559,0.0,0.0,0.0,0.544870927947,163.328973227
17.9,2.09505853869E7,27370.8368568,0.0,-556.115976999,1530.80542529,0.0,0.0,3.78857116165,554.115587417,24956.9407447,6.63500224877E-5,0.0,32.12201966577182,0.0,0.0,-0.0748538769896,0.0,0.0,0.0,1016.28323212,0.00106787632744,787.819843399,429.775932001,-0.0,0.302231679913,-3.23226176301,0.0,0.0,0.0,0.547549293418,165.335810818
