time,eiPosition_ft_X,eiPosition_ft_Y,eiPosition_ft_Z,gePosition_ft_X,gePosition_ft_Y,gePosition_ft_Z,eiVelocity_ft_s_X,eiVelocity_ft_s_Y,eiVelocity_ft_s_Z,feVelocity_ft_s_X,feVelocity_ft_s_Y,feVelocity_ft_s_Z,altitudeMsl_ft,longitude_deg,latitude_deg,localGravity_ft_s2,eulerAngle_deg_Yaw,eulerAngle_deg_Pitch,eulerAngle_deg_Roll,bodyAngularRateWrtEi_deg_s_Roll,bodyAngularRateWrtEi_deg_s_Pitch,bodyAngularRateWrtEi_deg_s_Yaw,altitudeRateWrtMsl_ft_min,speedOfSound_ft_s,airDensity_slug_ft3,ambientPressure_lbf_ft2,ambientTemperature_dgR,aero_bodyForce_lbf_X,aero_bodyForce_lbf_Y,aero_bodyForce_lbf_Z,aero_bodyMoment_ftlbf_L,aero_bodyMoment_ftlbf_M,aero_bodyMoment_ftlbf_N,mach,dynamicPressure_lbf_ft2,trueAirspeed_nmi_h
0.0,2.0955646325460006E7,0.0,0.0,2.0955646325460006E7,0.0,0.0,0.0,1528.1098290458178,0.0,0.0,0.0,0.0,30000.000000003725,0.0,0.0,32.10653595184196,0.0,1.2722218725854067E-14,0.0,0.0,0.0,9.277188200394804E-19,-0.0,994.8490287717559,8.907042526446323E-4,629.6799295020096,411.8388729485991,0.0,0.0,-0.0,0.0,0.0,0.0,0.0,0.0,0.0
0.10000000000000007,2.0955646164933268E7,152.8111946434118,-1.99995776219415E-22,2.0955646165490426E7,2.1290670120775734E-4,-1.99995776219415E-22,-3.2105556606321874,1528.1140819252137,-6.0012324961303575E-21,-6.001232526690094E-21,0.004287915706405649,3.1994124614029626,29999.840030424297,5.821178365449786E-10,4.0900085707267885E-26,32.106536442819184,0.0,1.2722218726191772E-14,-4.1780799534187594E-4,0.0,0.0,9.277188200394804E-19,-191.96474768417775,994.8497158234111,8.90709488385866E-4,629.6845006196604,411.8394417880287,3.151938436621313E-19,0.042887060257615225,-0.0019600112200739844,0.0,0.0,0.0,0.07043106454089203,2.1865003379217622,41.51384464463796
0.20000000000000015,2.095564568335809E7,305.6228158863574,-1.6014528318856682E-21,2.0955645685586732E7,8.594200866012536E-4,-1.6014528318856682E-21,-6.420914924798785,1528.118341158757,-2.4041243636399847E-20,-2.4041244125455602E-20,0.008652255081150608,6.398628432091778,29999.360126730055,2.349779363987221E-9,3.2750470694146684E-25,32.10653791573543,0.0,1.2722218727202694E-14,-8.356171762274461E-4,0.0,0.0,9.277188200394804E-19,-383.91770592550665,994.8517769539293,8.907251955862263E-4,629.6982139901168,411.8411482884335,6.322957734073307E-19,0.04301467520258673,-0.003931887742110178,0.0,0.0,0.0,0.07064502512866797,2.1998530422217057,41.64004467761961
0.3000000000000002,2.0955644880756885E7,458.43486266659494,-5.4131138328184564E-21,2.0955644885771345E7,0.0019454845433443113,-5.4131138328184564E-21,-9.6310760991554,1528.1225941315474,-5.422978514241254E-20,-5.422978762148857E-20,0.013080397456523842,9.597646217913772,29998.56031134352,5.319237563395192E-9,1.1070074773108116E-24,32.1065403705221,0.0,1.2722218728883533E-14,-0.0012534275589096797,0.0,0.0,9.277188200394804E-19,-575.8587730748263,994.8552120586578,8.907513739370538E-4,629.7210694575411,411.84399237023763,9.532513208435499E-19,0.043229911839805416,-0.005927727720489671,0.0,0.0,0.0,0.07100298505743034,2.222283589226254,41.851180225731184
0.4000000000000003,2.0955643757149573E7,611.2473347940887,-1.2858390673967872E-20,2.0955643766064197E7,0.003477916075895704,-1.2858390673967872E-20,-12.841036290179831,1528.12684954163,-9.675014008582224E-20,-9.675014793790019E-20,0.01758103521066399,12.796462924221244,29997.440604195,9.509128656415924E-9,2.6296019374221483E-24,32.10654380711833,0.0,1.2722218731230937E-14,-0.001671239162024806,0.0,0.0,9.277188200394804E-19,-767.7877754532747,994.8600210380826,8.907880234946815E-4,629.75306726051,411.8479739628319,1.2799667033640434E-18,0.04353140556315964,-0.007959384836855703,0.0,0.0,0.0,0.07150274013144144,2.2537913191602628,42.14595381617458
0.5000000000000003,2.0955642312556442E7,764.0602329409686,-2.51826213933425E-20,2.0955642326485578E7,0.005464392257172823,-2.51826213933425E-20,-16.050791435750163,1528.1311159262436,-1.518571881409392E-19,-1.5185720736245442E-19,0.022162699766932692,15.99507448745615,29996.001025576144,1.4940444633580237E-8,5.1499656282311E-24,32.10654822546234,0.0,1.2722218734241506E-14,-0.0020890520065648317,0.0,0.0,9.277188200394804E-19,-959.704469247369,994.8662037855732,8.90835144587003E-4,629.7942079504429,411.85309299442645,1.6142914641856023E-18,0.043917312643104785,-0.0100383603483864,0.0,0.0,0.0,0.0721412994753905,2.2943761745300395,42.52260495027867
0.6000000000000004,2.0955640546998274E7,916.8735586231298,-4.3660111876557795E-20,2.095564056705629E7,0.007913433821706561,-4.3660111876557795E-20,-19.260336345216434,1528.1354016163934,-2.198749504459987E-19,-2.198749904347381E-19,0.02683371611670109,19.193475715230978,29994.24159628898,2.163648293112326E-8,8.92870015305237E-24,32.10655362549089,0.0,1.2722218737911752E-14,-0.002506866115827182,0.0,0.0,9.277188200394804E-19,-1151.6085429138586,994.8737601867455,8.908927378085659E-4,629.8444923873258,411.85934939152145,1.9580033576277383E-18,0.04438536154251794,-0.012175709097943844,0.0,0.0,0.0,0.07291496968031169,2.3440386868769196,42.978959666745006
0.7000000000000005,2.0955638460496373E7,1069.6873141775748,-6.96009049082939E-20,2.0955638487797637E7,0.010834381975374119,-6.96009049082939E-20,-22.469664748051994,1528.1397146970128,-3.011936088012519E-19,-3.0119368317196615E-19,0.03160216294065415,22.3916603349913,29992.162337634712,2.9622784396811236E-8,1.4233715480718613E-23,32.10656000713934,0.0,1.2722218742238094E-14,-0.0029246815153527008,0.0,0.0,9.277188200394804E-19,-1343.499620099478,994.8826901195106,8.909608040209092E-4,629.9039217400197,411.8667430789462,2.3127959272565014E-18,0.044932912988812176,-0.014381962269616447,0.0,0.0,0.0,0.07381945334656727,2.4027799640723893,43.51248858425833
0.8000000000000006,2.095563605307277E7,1222.5015027360685,-1.0435722932120785E-19,2.0955636088731673E7,0.014237372021923766,-1.0435722932120785E-19,-25.678769349323645,1528.1440629734252,-3.96266107083903E-19,-3.9626623451781845E-19,0.03647583902084237,25.589621049498785,29989.76327167079,3.89270611858217E-8,2.1341548827150002E-23,32.106567370340876,0.0,1.2722218747216843E-14,-0.003342498232853542,0.0,0.0,9.277188200394804E-19,-1535.3772629699272,994.8929934529732,8.910393443441316E-4,629.9724974789181,411.87527397894536,2.680269019931968E-18,0.04555702530547311,-0.016667068400976256,0.0,0.0,0.0,0.07484995628524642,2.4706016782341225,44.12037004278601
0.9000000000000007,2.0955633324750256E7,1375.3161281957794,-1.4932959311478172E-19,2.0955633369881187E7,0.018133303983999927,-1.4932959311478172E-19,-28.887641890131516,1528.148453944462,-5.056044481704502E-19,-5.05604653308219E-19,0.04146223632250906,28.78734959728514,29987.044421184808,4.9579116439602404E-8,3.053861072708547E-23,32.106575715026565,0.0,1.2722218752844159E-14,-0.003760316298132825,0.0,0.0,9.277188200394804E-19,-1727.2409758371084,994.9046700475458,8.91128360157733E-4,630.0502213767064,411.88494201127173,3.061922279455997E-18,0.046254521582608614,-0.01904035292377539,0.0,0.0,0.0,0.076001297761751,2.547506054313439,44.79955503524319
1.0000000000000007,2.095563027555245E7,1528.1311951875655,-2.0597249571311045E-19,2.0955630331269816E7,0.022533810835851376,-2.0597249571311045E-19,-32.0962732111984,1528.152894782261,-6.297757978997675E-19,-6.297761122783982E-19,0.046568519757862865,31.98483681625646,29984.005809813738,6.161075743514565E-8,4.2122353217919005E-23,32.10658504112502,0.0,1.272221875911607E-14,-0.004178135742997834,0.0,0.0,9.277188200394804E-19,-1919.0902089753877,994.917719754439,8.912278530966989E-4,630.1370955049753,411.8957470927621,3.4591514894487564E-18,0.04702205562057211,-0.021510495422375445,0.0,0.0,0.0,0.07726801874716302,2.6334958593993893,45.546830963835
1.0999999999999897,2.0955626905503996E7,1680.946709042566,-2.757997453429288E-19,2.0955626972922206E7,0.02745122506160369,-2.757997453429288E-19,-35.30465331791326,1528.1573923184817,-7.693984999296448E-19,-7.693989629652481E-19,0.051801513361471575,35.182072708752166,29980.6474622041,7.505570415650113E-8,5.640235726875013E-23,32.10659534856186,0.0,1.2722218766028437E-14,-0.004595956601168569,0.0,0.0,9.277188200394804E-19,-2110.92436252513,994.9321424149759,8.913378250462522E-4,630.2331222296731,411.9076891367678,3.873247499799329E-18,0.04785617412713753,-0.024085522957954526,0.0,0.0,0.0,0.07864448403760876,2.7285743927966193,46.35888178256358
1.1999999999999786,2.0955623214630537E7,1833.762675757711,-3.603893773275124E-19,2.0955623294864025E7,0.032898544132739516,-3.603893773275124E-19,-38.512771445329825,1528.16195303648,-9.251380933443218E-19,-9.251387533771218E-19,0.05716769243952517,38.37904650655923,29976.96940402314,8.99494949116035E-8,7.370133859483603E-23,32.106606637259745,0.0,1.2722218773576943E-14,-0.005013778908183338,0.0,0.0,9.277188200394804E-19,-2302.7427903935536,994.9479378605477,8.914582781414863E-4,630.3383042108283,411.92076805311467,4.305397380179252E-18,0.04875337329041908,-0.026772817241551734,0.0,0.0,0.0,0.08012497515649734,2.8327454768096008,47.23234270875819
1.2999999999999676,2.0955619202958826E7,1986.5791019607273,-4.613881775621926E-19,2.095561929712203E7,0.038889395465558585,-4.613881775621926E-19,-41.72061612185947,1528.1665830688037,-1.0977034102584837E-18,-1.0977043256464474E-18,0.06267318103778298,41.57574673462055,29972.971662029624,1.0632939052761476E-7,9.435607272980942E-23,32.10661890713809,0.0,1.2722218781757085E-14,-0.005431602701302969,0.0,0.0,9.277188200394804E-19,-2494.544804077233,994.9651059123116,8.91589214765045E-4,630.4526444005705,411.93498374785185,4.756687396979787E-18,0.049710148509640194,-0.02957913314594672,0.0,0.0,0.0,0.08170377203561312,2.946013448301634,48.16384832332085
1.3999999999999566,2.0955614870516814E7,2139.3959948751235,-5.805158223814049E-19,2.0955614979724184E7,0.04543800135581755,-5.805158223814049E-19,-44.92817523065308,1528.1712881992878,-1.2878428149972022E-18,-1.2878440552806192E-18,0.06832375401135402,44.77216127243196,29968.654264181852,1.2423427848416803E-7,1.187182416481436E-22,32.10663215811279,0.0,1.2722218790564168E-14,-0.005849428019414937,0.0,0.0,9.277188200394804E-19,-2686.3296763459175,994.983646380731,8.917306375435912E-4,630.5761460400992,411.9503361228669,5.2281074005811005E-18,0.05072303666740699,-0.032510625987591024,0.0,0.0,0.0,0.08337522246052181,3.0683831509584785,49.15007346233977
1.4999999999999456,2.0955610217333708E7,2292.2133622855945,-7.195686514069526E-19,2.095561034269971E7,0.052559144330529994,-7.195686514069526E-19,-48.135436067919116,1528.176073869006,-1.4963406309949859E-18,-1.4963422781163054E-18,0.07412484295373631,47.968277412374874,29964.017239708453,1.4370457818745433E-7,1.4715520533053392E-22,32.106646390095925,0.0,1.2722218799993272E-14,-0.006267254902938657,0.0,0.0,9.277188200394804E-19,-2878.0966447424926,995.0035590652747,8.918825493454954E-4,630.7088126577218,411.9668250756345,5.7205562297954576E-18,0.05178865083680556,-0.0355728851337661,0.0,0.0,0.0,0.08513379910194434,3.1998599282229168,50.18776679533277
1.5999999999999346,2.095560524343998E7,2445.0312125041673,-8.8042309385537E-19,2.0955605386079084E7,0.06026813325182134,-8.8042309385537E-19,-51.34238539765746,1528.1809451853153,-1.7240137872889876E-18,-1.7240159368807593E-18,0.08008154522797234,51.16408191446406,29959.060619082302,1.6478214830077585E-7,1.8005070246001978E-22,32.106661602995956,0.0,1.2722218810039272E-14,-0.006685083393732783,0.0,0.0,9.277188200394804E-19,-3069.8449148678437,995.0248437545326,8.920449532816957E-4,630.8506480696686,411.98445049930933,6.234847780253177E-18,0.05290370771088678,-0.03877097173842361,0.0,0.0,0.0,0.08697414460176252,3.3404496168961733,51.273777366516775
1.6999999999999236,2.0955599948867466E7,2597.84955433739,-1.0650387713281148E-18,2.095560010989417E7,0.06858077044277033,-1.0650387713281148E-18,-54.549009502492986,1528.1859069333063,-1.9717087039743442E-18,-1.9717114667230204E-18,0.08619863539529636,54.3595610571944,29953.78443416953,1.8751019686957208E-7,2.178054849573092E-22,32.10667779671716,0.0,1.2722218820696808E-14,-0.007102913535005364,0.0,0.0,9.277188200394804E-19,-3261.573663431664,995.0475002255799,8.922178527008305E-4,631.0016563759086,412.0032122821954,6.771717434615026E-18,0.05406504831713176,-0.042109458728018606,0.0,0.0,0.0,0.08889110563627314,3.4901585413164455,52.40507464281822
1.7999999999999126,2.0955594333649386E7,2750.6683970547456,-1.2754613015046922E-18,2.0955594514178187E7,0.07751332005145173,-1.2754613015046922E-18,-57.755294230463,1528.190963589023,-2.2402984255331837E-18,-2.2403019285987043E-18,0.09248057842350985,57.55470068434056,29948.18871818483,2.119331948320594E-7,2.6083789134933334E-22,32.10669497115981,0.0,1.2722218831960284E-14,-0.00752074537122734,0.0,0.0,9.277188200394804E-19,-3453.2820410604336,995.0715282441732,8.924012511907115E-4,631.1618419615093,412.02311030790594,7.331828608044384E-18,0.055269652751323256,-0.045592471504077615,0.0,0.0,0.0,0.09087975715928091,3.6489935081187017,53.578762777370386
1.8999999999999015,2.0955588397820402E7,2903.4877503584776,-1.5138248276150635E-18,2.0955588598965816E7,0.08708247781793621,-1.5138248276150635E-18,-60.961225037750324,1528.1961193338834,-2.5306800025963393E-18,-2.5306843911176675E-18,0.098931544092121,60.749486247701675,29942.273505814373,2.3809679336592774E-7,3.0958436405836227E-22,32.10671312621983,0.0,1.2722218843823872E-14,-0.007938578948049889,0.0,0.0,9.277188200394804E-19,-3644.9691748621003,995.0969275642273,8.925951525743154E-4,631.3312094932116,412.04414445492523,7.915779216488303E-18,0.056514649745134336,-0.049223728165759116,0.0,0.0,0.0,0.09293541816218974,3.8169618014733433,54.79208987631724
1.9999999999998905,2.0955582141416688E7,3056.307624354857,-1.7823542982896167E-18,2.0955582364293247E7,0.0973053422783774,-1.7823542982896167E-18,-64.1667870274558,1528.201378069841,-2.843772116332344E-18,-2.8437775550110046E-18,0.10555542214294657,63.9439028458844,29936.038833245635,2.660477451643921E-7,3.644999156421478E-22,32.10673226178864,0.0,1.2722218856281481E-14,-0.008356414312225705,0.0,0.0,9.277188200394804E-19,-3836.634170753064,995.1236979276914,8.92799560908816E-4,631.5097639186688,412.0663145965034,8.524107925161904E-18,0.05779732189710681,-0.05300657836562369,0.0,0.0,0.0,0.09505366031106532,3.9940711788070162,56.04245307027579
2.0999999999998797,2.095557556447581E7,3209.1280295270267,-2.0833675215611606E-18,2.095557581019807E7,0.10819938757047498,-2.0833675215611606E-18,-67.3719649845805,1528.206743434881,-3.180512935067402E-18,-3.1805196098047894E-18,0.11235583777514263,67.13793525929499,29929.484738066792,2.958338300907743E-7,4.260585488470822E-22,32.106752377753516,0.0,1.272221886932678E-14,-0.008774251511534643,0.0,0.0,9.277188200394804E-19,-4028.2761155576995,995.1518390649871,8.930144804889053E-4,631.6975104694325,412.0896206010135,9.157300077662533E-18,0.05911510736009555,-0.05694404017942223,0.0,0.0,0.0,0.09723031076306785,4.1803298669208075,57.32740015780652
2.1999999999998687,2.095556866703699E7,3361.9489767093805,-2.419277015588067E-18,2.0955568936719503E7,0.1197824377221337,-2.419277015588067E-18,-70.57674340743775,1528.2122188185383,-3.541858189652309E-18,-3.541866309287628E-18,0.11933616713844462,70.33156798156026,29922.611259501427,3.2750378488846996E-7,4.947536350898672E-22,32.10677347399682,0.0,1.272221888295317E-14,-0.009192090594713454,0.0,0.0,9.277188200394804E-19,-4219.894078893615,995.1813506940047,8.932399158391122E-4,631.8944546543368,412.1140623311172,9.8157932419789E-18,0.06046559871475392,-0.06103883459357203,0.0,0.0,0.0,0.0994614503590097,4.375746558514989,58.64462852584641
2.2999999999998577,2.0955561449140973E7,3514.7704770634773,-2.792591677217122E-18,2.095556174389832E7,0.13207264252819617,-2.792591677217122E-18,-73.78110653574491,1528.2178073771947,-3.928779452232702E-18,-3.928789250332853E-18,0.1264995526362127,73.52478524762772,29915.418438319117,3.611072372330476E-7,5.710982556865388E-22,32.10679555039632,0.0,1.272221889715379E-14,-0.009609931611389812,0.0,0.0,9.277188200394804E-19,-4411.487114857663,995.2122325204936,8.934758717167561E-4,632.1006022621733,412.1396396440826,1.0499982338300935E-17,0.0618465396719306,-0.06529341739208938,0.0,0.0,0.0,0.10174340824874765,4.580330408997946,59.991981969795546
2.3999999999998467,2.095555391083007E7,3667.592542055482,-3.2059182879185145E-18,2.0955554231776845E7,0.14508845492479128,-3.2059182879185145E-18,-76.98503837566047,1528.2235120489534,-4.342262602180513E-18,-4.34227433893878E-18,0.13384891778895935,76.71757105881015,29907.906316842884,3.966946438791354E-7,6.556255098233209E-22,32.10681860682518,0.0,1.2722218911921512E-14,-0.01002777461202047,0.0,0.0,9.277188200394804E-19,-4603.054263528609,995.2444842380352,8.937223531117235E-4,632.3159593615982,412.16635239175724,1.1210224335563974E-17,0.06325582016193204,-0.06971000836172626,0.0,0.0,0.0,0.10407275386366158,4.794091033644309,61.36744595174737
2.4999999999998357,2.0955546052148234E7,3820.415183435056,-3.661962874987146E-18,2.0955546400399048E7,0.15884860980938598,-3.661962874987146E-18,-80.18852272203432,1528.2293355679708,-4.783306462769121E-18,-4.7833204269518236E-18,0.14138698155798157,79.90990920504285,29900.074939046055,4.3431723276014945E-7,7.488887929287563E-22,32.106842643151545,0.0,1.2722218927248939E-14,-0.010445619647833368,0.0,0.0,9.277188200394804E-19,-4794.594552302571,995.2781055276341,8.939793652433121E-4,632.5405322984811,412.19420042022443,1.1946842519739534E-17,0.06469147027566653,-0.07429061783404282,0.0,0.0,0.0,0.10644628700170929,5.017038504981632,62.76914174779144
2.5999999999998247,2.0955537873141002E7,3973.2384132156462,-4.16353194427678E-18,2.0955538249810487E7,0.17337210428687988,-4.16353194427678E-18,-83.39154317813357,1528.2352804781283,-5.252921592527389E-18,-5.252938103528852E-18,0.14911627201759395,83.10178328461559,29891.924350485206,4.7402694898710214E-7,8.514620487736924E-22,32.10686765923896,0.0,1.2722218943128396E-14,-0.010863466770773607,0.0,0.0,9.277188200394804E-19,-4986.106997076936,995.3130960580119,8.942469135624552E-4,632.7743276979594,412.22318357004093,1.2710130348527113E-17,0.06615165344182247,-0.07903707065554287,0.0,0.0,0.0,0.1088610266548822,5.249183350423865,64.19531985545134
2.6999999999998137,2.09555293738556E7,4126.062243656123,-4.713533599159975E-18,2.09555297800584E7,0.18867817922156815,-4.713533599159975E-18,-86.59408317309385,1528.2413491460145,-5.752129215914838E-18,-5.752148625864718E-18,0.15703913932608837,86.2931767216299,29883.454598397017,5.158764044179021E-7,9.63939998303899E-22,32.10689365494585,0.0,1.2722218959551936E-14,-0.011281316033453054,0.0,0.0,9.277188200394804E-19,-5177.590603297795,995.3494554851973,8.945250037485633E-4,633.0173524617943,412.25330167589277,1.3500354914516126E-17,0.06763465914893685,-0.08395102772310803,0.0,0.0,0.0,0.11131419908649037,5.490536550121037,65.6443529600541
2.7999999999998026,2.0955520554340933E7,4278.886687243663,-5.314978558916522E-18,2.0955520991191715E7,0.2047863020617151,-5.314978558916522E-18,-89.79612597733242,1528.2475437731528,-6.281960278900482E-18,-6.28198297487246E-18,0.1651577679501071,89.48407278141713,29874.665731713176,5.5991883070621E-7,1.0869383479053393E-21,32.106920630125614,0.0,1.2722218976511322E-14,-0.011699167489103353,0.0,0.0,9.277188200394804E-19,-5369.044366885028,995.3871834524698,8.948136417090638E-4,633.2696137680884,412.2845545665421,1.4317760043553E-17,0.0691388954542351,-0.08903400525098029,0.0,0.0,0.0,0.11380322555648667,5.741109534966613,67.11472869462797
2.8999999999997916,2.0955511414647546E7,4431.711756677823,-5.9709810883642066E-18,2.095551188326099E7,0.2217161508656007,-5.9709810883642066E-18,-92.9976547161403,1528.253866407479,-6.843454616097913E-18,-6.8434810223934676E-18,0.1734741881437362,92.67445458413552,29865.557800989598,6.062080356353441E-7,1.2210939795180743E-21,32.106948584626764,0.0,1.2722218993998035E-14,-0.012117021191532297,0.0,0.0,9.277188200394804E-19,-5560.467275048131,995.4262795906708,8.951128335817463E-4,633.5311190734606,412.3169420650789,1.5162569057440643E-17,0.07066288146723336,-0.09428739195041842,0.0,0.0,0.0,0.11632571000272393,6.000914184787528,68.60504237465835
2.9999999999997806,2.09555019548277E7,4584.5374648557145,-6.684759849266723E-18,2.0955502456318513E7,0.23948759939451536,-6.684759849266723E-18,-96.19865238165333,1528.2603189540803,-7.437660217231232E-18,-7.437690797736124E-18,0.18199028667795028,95.86430511674558,29856.130858510733,6.547983623694113E-7,1.3670651247532224E-21,32.10697751829268,0.0,1.2722219012003287E-14,-0.012534877195083047,0.0,0.0,9.277188200394804E-19,-5751.858307004735,995.4667435177627,8.954225857313659E-4,633.8018761102069,412.35046398854985,1.6034987230607576E-17,0.07220523994827176,-0.09971246430632583,0.0,0.0,0.0,0.11887942690932085,6.269962826658161,70.1139898437549
3.0999999999997696,2.0955492174935345E7,4737.363824858256,-7.459638682887843E-18,2.095549271041825E7,0.2581207033106727,-7.459638682887843E-18,-99.39910184338241,1528.2669031851967,-8.065632581836903E-18,-8.065667842477979E-18,0.19070781684287846,99.05360724354425,29846.384958248585,7.057446517254839E-7,1.5255315249290024E-21,32.10700743096169,0.0,1.2722219030517982E-14,-0.012952735554596414,0.0,0.0,9.277188200394804E-19,-5943.216434612655,995.5085748390122,8.95742904751016E-4,634.0818928876347,412.3851201481041,1.6935203970144607E-17,0.07376469012421888,-0.10531040013365872,0.0,0.0,0.0,0.12146230952980402,6.548268233346389,71.64036052903556
3.1999999999997586,2.0955482075026177E7,4890.190849937322,-8.299047332006321E-18,2.0955482645615917E7,0.2776356872504673,-8.299047332006321E-18,-102.59898585746781,1528.2736207495213,-8.728434152198296E-18,-8.728474643467235E-18,0.19962840774081844,102.24234371542282,29836.320155918598,7.591022068391167E-7,1.69719457872621E-21,32.107038322466884,0.0,1.2722219049532737E-14,-0.01337059632537554,0.0,0.0,9.277188200394804E-19,-6134.5406229253695,995.5517731467595,8.960737974603186E-4,634.3711776906198,412.42091034879434,1.7863394747175353E-17,0.07534004079304661,-0.11108229058752048,0.0,0.0,0.0,0.12407243858319203,6.835843621859906,73.1830307757134
3.2999999999997476,2.095547165515761E7,5043.01855350384,-9.206522109758259E-18,2.095547226196895E7,0.2980529328649486,-9.206522109758259E-18,-105.79828707480202,1528.2804731808224,-9.427133815548899E-18,-9.427180135106655E-18,0.20875357290794214,105.4304971779932,29825.93650895357,8.149267604744056E-7,1.8827774789696553E-21,32.10707019263622,0.0,1.2722219069037892E-14,-0.013788459563153194,0.0,0.0,9.277188200394804E-19,-6325.829830679592,995.596338020537,8.964152709063093E-4,634.6697390805235,412.45783438966953,1.8819722805957447E-17,0.07693018376433683,-0.1170291507910901,0.0,0.0,0.0,0.12670803150034116,7.132702652092479,74.74095750643394
3.3999999999997366,2.095546091538879E7,5195.84694911672,-1.0185706521826064E-17,2.0955461559536517E7,0.31939296765470937,-1.0185706521826064E-17,-108.99698804815317,1528.2874619059369,-1.0162806467544121E-17,-1.0162859262924816E-17,0.2180847183062752,108.61805017871426,29815.234076518565,8.732744445061038E-7,2.08302533986876E-21,32.1071030412925,0.0,1.272221908902348E-14,-0.014206325324061315,0.0,0.0,9.277188200394804E-19,-6517.083010722856,995.6422690270151,8.967673323629773E-4,634.977585894939,412.49589206372184,1.9804340674992193E-17,0.07853408766363679,-0.12315192923235349,0.0,0.0,0.0,0.12936743226709693,7.438859425534223,76.31317223269436
3.4999999999997256,2.0955449855780635E7,5348.676050472502,-1.1240351847738215E-17,2.0955450538379554E7,0.34167645460213203,-1.1240351847738215E-17,-112.19507123840393,1528.2945882521562,-1.0936532629890475E-17,-1.0936592601271971E-17,0.2276231497025312,111.80498517313346,29804.212919555604,9.342017615818468E-7,2.298705315896119E-21,32.107136868253164,0.0,1.2722219109479246E-14,-0.014624193664602563,0.0,0.0,9.277188200394804E-19,-6708.299110388008,995.6895657198182,8.971299893298254E-4,635.2947272465847,412.53508315772757,2.081739150243797E-17,0.08015079211523464,-0.1294515160682797,0.0,0.0,0.0,0.13204910188709054,7.754328484075778,77.89877543175312
3.5999999999997145,2.0955438476395737E7,5501.505871395768,-1.2374317686374056E-17,2.0955439198560685E7,0.36492418254364134,-1.2374317686374056E-17,-115.39251902001013,1528.3018534540527,-1.174939811582911E-17,-1.174946601890125E-17,0.23737007950176425,114.99128453034824,29792.87310068682,9.977655588076806E-7,2.530606713345819E-21,32.10717167333065,0.0,1.2722219130394635E-14,-0.015042064641623954,0.0,0.0,9.277188200394804E-19,-6899.477071820895,995.7382276399497,8.975032495350833E-4,635.621172526272,412.57540745259143,2.185901023597104E-17,0.08177940230430882,-0.13592875046170438,0.0,0.0,0.0,0.1347516094677388,8.07912480885155,79.49693129113884
3.6999999999997035,2.095542677729857E7,5654.336425830193,-1.3591572470174381E-17,2.09554275401444E7,0.389157057042957,-1.3591572470174381E-17,-118.58931368576853,1528.30925865977,-1.2602493737894302E-17,-1.2602570386789107E-17,0.24732663301945623,118.17693053777587,29781.214684400707,1.064023002803388E-6,2.779541095491946E-21,32.10720745633181,0.0,1.2722219151758798E-14,-0.015459938312292119,0.0,0.0,9.277188200394804E-19,-7090.615832266552,995.7882543150017,8.978871209296133E-4,635.9569313977374,412.616864722684,2.29293246650695E-17,0.08341908391526708,-0.14258442706270047,0.0,0.0,0.0,0.13747362392219595,8.413263819141232,81.10686281630441
3.7999999999996925,2.0955414758555338E7,5807.167727830181,-1.4896193952033937E-17,2.095541556319692E7,0.41439609203544725,-1.4896193952033937E-17,-121.78543745097531,1528.316804936851,-1.3496915053025238E-17,-1.349700132334847E-17,0.2574938543195821,121.36190540531427,29769.237736921757,1.1330315568661402E-6,3.0463423821604126E-21,32.10724421705826,0.0,1.2722219173560583E-14,-0.01587781473407035,0.0,0.0,9.277188200394804E-19,-7281.714324318857,995.8396452597244,8.982816116912281E-4,636.3020138015856,412.6594547363056,2.4028456342113578E-17,0.08506905843278838,-0.1494193017363772,0.0,0.0,0.0,0.14021390626721492,8.756761371318087,82.72784728978104
3.8999999999996815,2.095540242023402E7,5959.999791553098,-1.6292369668389666E-17,2.095540326778626E7,0.44066240198117335,-1.6292369668389666E-17,-124.98087245704595,1528.3244932775854,-1.4433762140688885E-17,-1.4433858972640604E-17,0.26787271155588843,124.54619126896392,29756.942326262593,1.204848959524976E-6,3.3318669444327034E-21,32.10728195530633,0.0,1.2722219195788541E-14,-0.01629569396469718,0.0,0.0,9.277188200394804E-19,-7472.771476137836,995.8923999758118,8.986867302230058E-4,636.6564299539867,412.7031772555004,2.5156521396481975E-17,0.08672859879197314,-0.15643409662528215,0.0,0.0,0.0,0.14297130249357465,9.109633757823577,84.35921206788109
3.9999999999996705,2.095538976240438E7,6112.832631251964,-1.7784397381610417E-17,2.0955390653982203E7,0.46797719449042985,-1.7784397381610417E-17,-128.1756007746584,1528.332324603953,-1.541413941018876E-17,-1.5414247811747747E-17,0.2784641019152815,127.72977019397271,29744.328522205353,1.279533204387156E-6,3.636993695116669E-21,32.10732067086698,0.0,1.2722219218430922E-14,-0.016713576062166217,0.0,0.0,9.277188200394804E-19,-7663.786211638363,995.946517951992,8.99102485153937E-4,637.0201903474181,412.7480320361227,2.6313631254526406E-17,0.08839702535968974,-0.16362950462651332,0.0,0.0,0.0,0.14574473697964638,9.4718977061911,86.00033069766754
4.099999999999704,2.095537678513799E7,6265.666261268687,-1.9376685504434557E-17,2.0955377721856352E7,0.49636176348705074,-1.9376685504434557E-17,-131.3696044064746,1528.3402997721844,-1.64391554337876E-17,-1.6439276483991533E-17,0.28926885617082354,130.91262417755922,29731.396396357566,1.3571425214548428E-6,3.962624175546035E-21,32.10736036352573,0.0,1.2722219241475665E-14,-0.017131461084707447,0.0,0.0,9.277188200394804E-19,-7854.757450653553,996.001998663797,8.995288853371122E-4,637.393305749259,412.794018827638,2.7499893276571966E-17,0.09007370222773355,-0.171006193352862,0.0,0.0,0.0,0.1485332064169048,9.843570378075336,87.650619335735
4.199999999999737,2.0955363488508243E7,6418.500696027686,-2.107375350888552E-17,2.0955364471482124E7,0.525837482756577,-2.107375350888552E-17,-134.5628652894903,1528.3484195769533,-1.7509922802681743E-17,-1.7510057654994172E-17,0.3002877428761613,134.09473515126433,29718.146022129804,1.4377353594940437E-6,4.309682639205569E-21,32.107401033062715,0.0,1.2722219264910424E-14,-0.01754934909076966,0.0,0.0,9.277188200394804E-19,-8045.68410907586,996.0588415736704,8.999659398504932E-4,637.7757872026505,412.8411373732025,2.87154113209807E-17,0.09175803379792685,-0.17856480864040336,0.0,0.0,0.0,0.15133577421466246,10.22466936831123,89.30953344955431
4.299999999999771,2.0955349872590296E7,6571.335950029927,-2.288023232181727E-17,2.0955350902934697E7,0.5564257999405893,-2.288023232181727E-17,-137.7553652970526,1528.3566847552545,-1.8627558003214435E-17,-1.8627707888971782E-17,0.31152147224253574,137.27608498296996,29704.57747470215,1.5213703696234306E-6,4.679116132622015E-21,32.10744267925275,0.0,1.2722219288722528E-14,-0.017967240139003963,0.0,0.0,9.277188200394804E-19,-8236.565098978197,996.117046131121,9.004136579980528E-4,638.1676460276817,412.8893874097822,2.9960286243992635E-17,0.0934494616395765,-0.18630597765672344,0.0,0.0,0.0,0.15415156535161656,10.6152127039999,90.97656478224317
4.399999999999804,2.0955335937461153E7,6724.172037847342,-2.4800864708995984E-17,2.0955337016291104E7,0.5881482308607078,-2.4800864708995984E-17,-140.9470862405869,1528.3650959899715,-1.97931813110309E-17,-1.9793347542973933E-17,0.3229706996997345,140.45665547862745,29690.69083110988,1.6081063898045025E-6,5.071894573910607E-21,32.107485301865076,0.0,1.2722219312899011E-14,-0.018385134288248308,0.0,0.0,9.277188200394804E-19,-8427.399328717647,996.1766117723671,9.008720493069746E-4,638.5688938191347,412.93876866784797,3.123461634289889E-17,0.0951474615996594,-0.1942303116567607,0.0,0.0,0.0,0.15697976164233302,11.015218843580147,92.65123856191333
4.4999999999998375,2.0955321683199614E7,6877.008974117587,-2.684050564940901E-17,2.0955322811630175E7,0.6210263542248002,-2.684050564940901E-17,-144.1380098710617,1528.373653913166,-2.1007916701150455E-17,-2.1008100677051944E-17,0.33463602918759316,143.63642838372385,29676.486170183867,1.6980024303767556E-6,5.4890108293230405E-21,32.107528900663596,0.0,1.2722219337426593E-14,-0.018803031597513047,0.0,0.0,9.277188200394804E-19,-8618.185703023431,996.237537920603,9.013411235296604E-4,638.9795424484381,412.9892808715874,3.253849774950424E-17,0.09685154114659927,-0.20233840842952572,0.0,0.0,0.0,0.15981959738716742,11.424706675937447,94.33311093711959
4.599999999999871,2.0955307109886337E7,7029.846773539119,-2.900412270130169E-17,2.095530828903259E7,0.6550818066208928,-2.900412270130169E-17,-147.3281178802251,1528.382359109122,-2.2272891772172674E-17,-2.2273094978512637E-17,0.3465180161935025,146.81538538451943,29661.963572598994,1.791117660379457E-6,5.931480788103732E-21,32.10757347540664,0.0,1.2722219362291699E-14,-0.019220932125967222,0.0,0.0,9.277188200394804E-19,-8808.923123071167,996.2998239858031,9.01820890642161E-4,639.3996040624976,413.0409237387326,3.387202477959831E-17,0.09856123692999931,-0.210630854471264,0.0,0.0,0.0,0.16267035537652388,11.843695519501503,96.02176662115505
4.699999999999904,2.0955292217603814E7,7182.685450866529,-3.129679636127506E-17,2.0955293448580883E7,0.6903362777925155,-3.129679636127506E-17,-150.5173919016335,1528.3912121171481,-2.3589237683044896E-17,-2.358946169882001E-17,0.35861717055479464,149.99350810907754,29647.123120892793,1.8875113946428893E-6,6.4003434359270065E-21,32.10761902584697,0.0,1.2722219387480432E-14,-0.019638835932925654,0.0,0.0,9.277188200394804E-19,-8999.610486544652,996.3634693646545,9.023113608435917E-4,639.8290910833913,413.09369698049375,3.523529024370862E-17,0.10027611253864546,-0.21910822691785217,0.0,0.0,0.0,0.16553136322102643,12.272205121339738,97.71681672848516
4.799999999999938,2.0955277006436363E7,7335.525020906225,-3.372372041763021E-17,2.0955278290359385E7,0.7268115062476634,-3.372372041763021E-17,-153.70581351150074,1528.4002134341642,-2.4958089101007825E-17,-2.495833560159517E-17,0.37093395904441856,153.1707781281149,29631.96489939466,1.9872430817917417E-6,6.896660927157704E-21,32.10766555173202,0.0,1.2722219412978592E-14,-0.02005674307783697,0.0,0.0,9.277188200394804E-19,-9190.246687686895,996.4284734408718,9.028125445585045E-4,640.2680162106591,413.14760030181054,3.662838572380422E-17,0.10199575644143269,-0.22777109526546063,0.0,0.0,0.0,0.1684019899813588,12.710255656293745,99.41789678787254
4.899999999999971,2.095526147647013E7,7488.365498512275,-3.629020229901397E-17,2.0955262814454284E7,0.7645292750451245,-3.629020229901397E-17,-156.8933642293827,1528.4093635171012,-2.6380584159490284E-17,-2.6380854920628387E-17,0.3834688077681002,156.3471769556871,29616.48899429664,2.0903722927334164E-6,7.421518656150862E-21,32.10771305280354,0.0,1.2722219438771664E-14,-0.020474653620272083,0.0,0.0,9.277188200394804E-19,-9380.830617341226,996.4948355849068,9.033244524345854E-4,640.7163924195022,413.2026334011006,3.805140181965478E-17,0.10371978009548986,-0.2366200229025206,0.0,0.0,0.0,0.17128164307336044,13.157867726058036,101.12466491770543
5.000000000000004,2.0955245627793163E7,7641.206898582525,-3.900166341930643E-17,2.0955247020953648E7,0.8035114078169006,-3.900166341930643E-17,-160.08002551871851,1528.4186627851032,-2.7857864424875885E-17,-2.785816132664994E-17,0.3962221043595691,159.52268604973085,29600.695493660867,2.196958709791833E-6,7.976025327782862E-21,32.10776152879776,0.0,1.2722219464844828E-14,-0.020892567619913312,0.0,0.0,9.277188200394804E-19,-9571.36116298385,996.5625551539288,9.038470953424387E-4,641.1742329608155,413.2587959702326,3.9504428368598336E-17,0.10544781620839713,-0.2456555684763344,0.0,0.0,0.0,0.1741697654254068,13.615062358288164,102.83680015006817
5.100000000000038,2.0955229460495304E7,7794.049236054946,-4.1863639519588024E-17,2.0955230909947354E7,0.8437797650788985,-4.1863639519588024E-17,-163.265778787241,1528.4281116215725,-2.9391074871181596E-17,-2.939139990222878E-17,0.4091942000318311,162.69728681247517,29584.584487371147,2.307062116629399E-6,8.561313027385319E-21,32.10781097944542,0.0,1.2722219491182938E-14,-0.021310485136544318,0.0,0.0,9.277188200394804E-19,-9761.83720874851,996.6316314920455,9.043804843772176E-4,641.6415513628417,413.3160876946985,4.098755464175873E-17,0.1071795171407862,-0.2548782871132408,0.0,0.0,0.0,0.17706583286674155,14.081861005710184,104.55400089097795
5.200000000000071,2.0955212974668294E7,7946.892525904141,-4.4881781007934705E-17,2.0955214481527183E7,0.8853562406434103,-4.4881781007934705E-17,-166.45060538727367,1528.4377103760685,-3.0981363861805516E-17,-3.0981719123457364E-17,0.4223854114656131,165.8709605907395,29568.156067200005,2.420742388447238E-6,9.178537290234812E-21,32.1078614044716,0.0,1.2722219517770559E-14,-0.0217284062300403,0.0,0.0,9.277188200394804E-19,-9952.25763544437,996.7020639300284,9.04924630856446E-4,642.1183614294922,413.3745082533749,4.2500869519227166E-17,0.10891455343793287,-0.2642887315079686,0.0,0.0,0.0,0.17996935172765838,14.55828554518659,106.27598350545031
5.300000000000105,2.0955196170405757E7,8099.736783138044,-4.8061853297709365E-17,2.0955197735786777E7,0.9282627582462863,-4.8061853297709365E-17,-169.6344866159231,1528.4474593660482,-3.262988313758837E-17,-3.263027084822189E-17,0.43579602254998556,169.04368867612664,29551.410326797515,2.5380594827724226E-6,9.828877170735073E-21,32.10791280359572,0.0,1.272221954459191E-14,-0.022146330960358798,0.0,0.0,9.277188200394804E-19,-10142.621320567598,996.7738517853749,9.054795463204132E-4,642.6046772409275,413.43405731856257,4.4044461646814644E-17,0.1106526124795868,-0.27388745289839156,0.0,0.0,0.0,0.18287985663330802,15.044358276808843,108.00248101673421
5.400000000000138,2.095517904780314E7,8252.5820227948,-5.14097371449472E-17,2.0955180672821622E7,0.9725212683830184,-5.14097371449472E-17,-172.8174037151799,1528.457358878493,-3.433778781052823E-17,-3.433821030992104E-17,0.4494262860108608,172.2154523051246,29534.347361642867,2.659073430816363E-6,1.0513535311413911E-20,32.107965176531756,0.0,1.2722219571630919E-14,-0.022564259387531014,0.0,0.0,9.277188200394804E-19,-10332.927138307476,996.8469943625287,9.060452425338133E-4,643.1005131552324,413.49473455615856,4.561841957639336E-17,0.11239339723726088,-0.2836750019382313,0.0,0.0,0.0,0.18579690847456945,15.540101922981652,109.73324190993755
5.500000000000171,2.0955161606957767E7,8405.428259939783,-5.4931428985370476E-17,2.0955163292729076E7,1.0181537452464093,-5.4931428985370476E-17,-175.99933787193675,1528.4674091714066,-3.610623636255729E-17,-3.610669611637754E-17,0.46327642490371757,175.38623265912543,29516.96726910025,2.783844329110923E-6,1.1233738011844315E-20,32.108018522988004,0.0,1.2722219598871184E-14,-0.022982191571653477,0.0,0.0,9.277188200394804E-19,-10523.173959547526,996.9214909526553,9.066217314839304E-4,643.6058838070693,413.55653962545745,4.722283189149695E-17,0.11413662513055316,-0.2936519294780941,0.0,0.0,0.0,0.18872009254128494,16.045539627464876,111.46802903131227
5.600000000000205,2.0955143847968936E7,8558.27550966279,-5.863304127151156E-17,2.0955145595608465E7,1.065182183804331,-5.863304127151156E-17,-179.18027021793276,1528.4776104752061,-3.793639064884761E-17,-3.793689025320372E-17,0.47734663399419863,178.5560108643701,29499.270148489624,2.9124323315275113E-6,1.1990735297587738E-20,32.1080728426669,0.0,1.2722219626295998E-14,-0.023400127572880063,0.0,0.0,9.277188200394804E-19,-10713.360651862207,996.9973408333524,9.072090253783118E-4,644.1208041058857,413.6194721788993,4.8857787319885594E-17,0.11588202697394097,-0.3038187872654488,0.0,0.0,0.0,0.1916490168038637,16.560694954394965,113.2066185749864
5.700000000000238,2.0955125770937737E7,8711.123787075334,-6.252080281037352E-17,2.095512758156092E7,1.1136285970940278,-6.252080281037352E-17,-182.3601818296301,1528.4879629940158,-3.9829415905187085E-17,-3.982995809126149E-17,0.4916370810647811,181.724767991826,29481.2561009489,3.0448976418882628E-6,1.2785800989247269E-20,32.10812813526539,0.0,1.2722219653888319E-14,-0.02381806745141459,0.0,0.0,9.277188200394804E-19,-10903.486079509561,997.0745432692551,9.078071366493806E-4,644.6452892402086,413.6835318625597,5.052337483481974E-17,0.11762934600551957,-0.3141761285743911,0.0,0.0,0.0,0.19458331033010856,17.085591887364785,114.94879914950282
5.800000000000272,2.0955107375967216E7,8863.97310730807,-6.660105910201432E-17,2.0955109250689518E7,1.1635150135262569,-6.660105910201432E-17,-185.53905372803382,1528.4984669068601,-4.1786480759007527E-17,-4.178706839781254E-17,0.5061479080924929,184.89248505700738,29462.925229549408,3.1813005066040292E-6,1.362023277170972E-20,32.108184400474684,0.0,1.27222196816308E-14,-0.024236011267503476,0.0,0.0,9.277188200394804E-19,-11093.549103420442,997.153097511556,9.084160779506296E-4,645.1793546745652,413.7487183157389,5.221968374567745E-17,0.11937833699236726,-0.32472450876914055,0.0,0.0,0.0,0.19752262182680586,17.620254828409344,116.69437091777975
5.900000000000305,2.0955088663162284E7,9016.823485508361,-7.088027267940053E-17,2.095509060309921E7,1.2148634744090039,-7.088027267940053E-17,-188.7168668784548,1528.5091223687768,-4.38087572436892E-17,-4.380939335084977E-17,0.5208792323665694,188.05914301973883,29444.277639240026,3.32170120791273E-6,1.449535226364732E-20,32.10824163798031,0.0,1.2722219709505772E-14,-0.02465395908142895,0.0,0.0,9.277188200394804E-19,-11283.54858118433,997.2330027982601,9.090358621585043E-4,645.7230161513942,413.81503117116074,5.3946803779567045E-17,0.12112876540406321,-0.33546448581154387,0.0,0.0,0.0,0.20046661829447357,18.164708597019352,118.44314480385337
6.000000000000338,2.0955069632629786E7,9169.674936837895,-7.536502344984155E-17,2.095507163889687E7,1.2676960314631485,-7.536502344984155E-17,-191.89360219022734,1528.5199295118473,-4.589742081581142E-17,-4.589810855651151E-17,0.5358311475123997,191.22472278387355,29425.313436906785,3.4661600570956366E-6,1.5412505087342636E-20,32.10829984746199,0.0,1.2722219737495238E-14,-0.025071910953502304,0.0,0.0,9.277188200394804E-19,-11473.483367032413,997.3142583539442,9.096665023704589E-4,646.2762896896049,413.8824700547598,5.570482515454594E-17,0.1228804066502214,-0.34639662071638094,0.0,0.0,0.0,0.203414983786453,18.718978429103966,120.19494176106818
6.100000000000372,2.0955050284478415E7,9322.527476470465,-8.00620090382834E-17,2.095505235819123E7,1.3220347445774463,-8.00620090382834E-17,-195.06924051638168,1528.5308884461588,-4.8053650375053183E-17,-4.8054393068991224E-17,0.5510037244565487,194.3892051969665,29406.032731268555,3.6147373883479814E-6,1.6373060938893786E-20,32.10835902859394,0.0,1.272221976558088E-14,-0.025489866944057724,0.0,0.0,9.277188200394804E-19,-11663.35231181799,997.3968633902196,9.103080119084474E-4,646.8391915879104,413.9510345860527,5.749383864574871E-17,0.12463304537591514,-0.3575214779625773,0.0,0.0,0.0,0.20636741826297883,19.28308997601758,121.94959209633468
6.200000000000405,2.0955030618818868E7,9475.38111958983,-8.497804513271433E-17,2.095503276109302E7,1.37790167953706,-8.497804513271433E-17,-198.2437626532788,1528.5419992606887,-5.0278628286477265E-17,-5.0279429412948565E-17,0.566397012299206,197.5525710499097,29386.435633063316,3.7674935525771588E-6,1.7378413658851526E-20,32.10841918104431,0.0,1.2722219793744067E-14,-0.025907827113446125,0.0,0.0,9.277188200394804E-19,-11853.154262994582,997.4808171049499,9.109604043127588E-4,647.4117384196916,414.02072437747535,5.931393564437374E-17,0.12638647481007625,-0.36883962586000923,0.0,0.0,0.0,0.20932363653297614,19.85706930340549,123.70693484594752
6.300000000000439,2.0955010635763712E7,9628.235881387605,-9.01200658319074E-17,2.095501284771485E7,1.4353189058841336,-9.01200658319074E-17,-201.41714934020968,1528.5532620241383,-5.257354040495587E-17,-5.257440360801085E-17,0.5820110391529486,200.71480107653204,29366.52225489542,3.92448891156198E-6,1.842998130333424E-20,32.10848030447569,0.0,1.2722219821965836E-14,-0.02632579152202928,0.0,0.0,9.277188200394804E-19,-12042.888064591922,997.5661186829223,9.116236933471256E-4,647.9939470377576,414.0915390349262,6.116520821135814E-17,0.12814049616259807,-0.380351636883277,0.0,0.0,0.0,0.21228336727531139,20.44094289021393,125.46681719841051
6.400000000000472,2.095499033542748E7,9781.091777061292,-9.549512399570414E-17,2.095499261817129E7,1.494308494851345,-9.549512399570414E-17,-204.5893812589627,1528.5646767856986,-5.493957610153063E-17,-5.494050519525362E-17,0.5978458129016613,203.87587595316728,29346.29271133989,4.085783832311373E-6,1.9529206215662637E-20,32.10854239854469,0.0,1.2722219850226901E-14,-0.026743760230174198,0.0,0.0,9.277188200394804E-19,-12232.552557190036,997.6527672954152,9.122978929952746E-4,648.5858345716006,414.1634781573945,6.30477491252647E-17,0.12989491806644318,-0.39205808796948677,0.0,0.0,0.0,0.21524635213387613,21.034737627547212,127.2290939606483
6.500000000000505,2.0954969717926603E7,9933.948821812382,-1.0111039159802272E-16,2.0954972072578806E7,1.5548925174229566,-1.0111039159802272E-16,-207.760439033364,1528.5762435757665,-5.737792829150773E-17,-5.737892726532394E-17,0.613901321918043,207.03577629819492,29325.747118860483,4.251438681771693E-6,2.0677555098551594E-20,32.10860546290229,0.0,1.2722219878507645E-14,-0.027161733298247826,0.0,0.0,9.277188200394804E-19,-12422.146577891695,997.7407621005684,9.129830174636885E-4,649.187418430106,414.2365413372522,6.496165192572177E-17,0.13164955606025538,-0.4039595607883786,0.0,0.0,0.0,0.21821234487960192,21.63848081759879,128.9936270637677
6.600000000000539,2.0954948783379458E7,10086.807030844491,-1.0697316008275494E-16,2.095495121105582E7,1.6170930423649583,-1.0697316008275494E-16,-210.93030322879048,1528.5879624066156,-5.988979346412193E-17,-5.989086648823697E-17,0.6301775357280989,210.19448267155357,29304.88559588045,4.421513821449438E-6,2.1876519086892753E-20,32.108669497193546,0.0,1.2722219906788132E-14,-0.027579710786611672,0.0,0.0,9.277188200394804E-19,-12611.668960293215,997.8301022430952,9.136790811792666E-4,649.7987162997904,414.3107281600018,6.690701095225391E-17,0.13340423210890062,-0.41605664198379183,0.0,0.0,0.0,0.2211811106345597,22.25220017247749,130.76028510533206
6.700000000000572,2.09549275319064E7,10239.66641936157,-1.1309084072270136E-16,2.0954930033722717E7,1.680932134373382,-1.1309084072270136E-16,-214.0989543516604,1528.5998332730114,-6.247637171360096E-17,-6.247752314451803E-17,0.6466744056230754,213.3519755742324,29283.708262782544,4.5960696023570595E-6,2.312761382115851E-20,32.108734501057675,0.0,1.2722219935048092E-14,-0.027997692755616737,0.0,0.0,9.277188200394804E-19,-12801.118534453944,997.9207868542998,9.143860987893509E-4,650.4197461451182,414.386038204276,6.88839213793629E-17,0.13515877415868363,-0.4283499233918145,0.0,0.0,0.0,0.22415242515270936,22.87592381305567,132.528942925064
6.800000000000606,2.0954905963629685E7,10392.527002566212,-1.1947096498167744E-16,2.0954908540701803E7,1.7464318524239273,-1.1947096498167744E-16,-217.26637284890512,1528.6118561527917,-6.513886677150744E-17,-6.514010115760572E-17,0.6633918652413496,216.50823544774295,29262.2152418755,4.775166360509144E-6,2.4432379521454377E-20,32.10880047412808,0.0,1.2722219963266934E-14,-0.028415679265598747,0.0,0.0,9.277188200394804E-19,-12990.494126864576,998.0128150522389,9.151040851628646E-4,651.0505262098011,414.46247104195703,7.089247924814773E-17,0.13691301572367856,-0.44084000223740943,0.0,0.0,0.0,0.22712607415265834,23.509680267800636,134.29948121122314
6.900000000000639,2.095488407867359E7,10545.38879565797,-1.2612118487991254E-16,2.0954886732117392E7,1.8136142476625032,-1.2612118487991254E-16,-220.43253910741893,1528.6240310074002,-6.78784860402108E-17,-6.787980812744976E-17,0.68032983109253,219.66324267356978,29240.406657468528,4.958864411163312E-6,2.5792381062244867E-20,32.10886741603216,0.0,1.2722219991423731E-14,-0.02883367037687326,0.0,0.0,9.277188200394804E-19,-13179.794560414188,998.10618594142,9.158330553878476E-4,651.6910750149361,414.54002623791126,7.293278149453753E-17,0.1386667955022243,-0.4535274813099794,0.0,0.0,0.0,0.23010185269868755,24.153498471534345,136.07178613537315
7.000000000000672,2.0954861877164282E7,10698.251813831734,-1.3304927336284614E-16,2.095486460809569E7,1.8825013620874147,-1.3304927336284614E-16,-223.59743345349497,1528.6363577823884,-7.069644062739268E-17,-7.069785536509221E-17,0.697488203064697,222.81697757260662,29218.282635774463,5.147224045225615E-6,2.720920804777403E-20,32.10893532639158,0.0,1.2722220019497225E-14,-0.029251666149731178,0.0,0.0,9.277188200394804E-19,-13369.018654356398,998.2008986132341,9.16573024774714E-4,652.341411362175,414.61870335033365,7.500492597500924E-17,0.14041995701935478,-0.46641296912329,0.0,0.0,0.0,0.2330795646254929,24.80740776426431,137.84574901301298
7.100000000000706,2.0954839359229963E7,10851.116072276156,-1.4026312467342425E-16,2.095484216876494E7,1.953115226719369,-1.4026312467342425E-16,-226.76103615224486,1528.6488364078853,-7.359394538146655E-17,-7.359545792814141E-17,0.7148668648815897,225.9694204045767,29195.843305028975,5.340305524255449E-6,2.8684474888201876E-20,32.109004204821936,0.0,1.2722220047465831E-14,-0.029669666644434066,0.0,0.0,9.277188200394804E-19,-13558.165224274602,998.2969521454636,9.173240088522818E-4,653.0015543305472,414.6985019303233,7.71090114892047E-17,0.14217234829464606,-0.47949708005611313,0.0,0.0,0.0,0.23605902200399798,25.471437889851636,139.62126598829323
7.200000000000739,2.0954816525000785E7,11003.98158617218,-1.4777075472797783E-16,2.0954819414255343E7,2.0254778601165135,-1.4777075472797783E-16,-229.92332740700462,1528.6614667990266,-7.65722189278218E-17,-7.657383465717825E-17,0.7324656845363365,229.12055136743888,29173.08879543841,5.538169076413834E-6,3.0219820876473267E-20,32.10907405093292,0.0,1.2722220075307623E-14,-0.03008767192121009,0.0,0.0,9.277188200394804E-19,-13747.233082046332,998.3943456025239,9.180860233695376E-4,653.6715232783257,414.7794215220691,7.924513780056178E-17,0.14392382153229585,-0.49278043448051984,0.0,0.0,0.0,0.23904004464423614,26.145618994761662,141.3982377406797
7.3000000000007725,2.0954793374608867E7,11156.848370691514,-1.5558030149576385E-16,2.0954796344699055E7,2.0996112667507507,-1.5558030149576385E-16,-233.08428735872937,1528.6742488563611,-7.9632483705814E-17,-7.963420821272334E-17,0.7502845146921853,232.27035059678298,29150.01923915744,5.740874892032351E-6,3.181691026593588E-20,32.10914486432832,0.0,1.2722220103000351E-14,-0.03050568204024957,0.0,0.0,9.277188200394804E-19,-13936.221035806979,998.4930780355783,9.188590842963983E-4,654.3513378440173,414.86146166292866,8.141340565475534E-17,0.14567423283279934,-0.5062636588765543,0.0,0.0,0.0,0.24202245963285332,26.829981626787124,143.17656921200776
7.400000000000806,2.0954769908188365E7,11309.716440995217,-1.6370002538223895E-16,2.0954772960230276E7,2.1755374354924344,-1.6370002538223895E-16,-236.2438960853765,1528.687182466225,-8.277596600640819E-17,-8.277780511310244E-17,0.7683231930506821,235.4187981652134,29126.634770389646,5.948483119478325E-6,3.347743234872146E-20,32.109216644605816,0.0,1.272222013052142E-14,-0.03092369706170087,0.0,0.0,9.277188200394804E-19,-14125.127889912803,998.5931484821259,9.196432078203591E-4,655.0410179437382,414.9446218830707,8.36139167958209E-17,0.14742344192358559,-0.5199473859324977,0.0,0.0,0.0,0.24500610090258151,27.524556733630938,144.95616935230683
7.500000000000839,2.095474612587536E7,11462.585812232273,-1.7213830961612757E-16,2.095474926098513E7,2.253278338173523,-1.7213830961612757E-16,-239.4021336012802,1528.700267501091,-8.600389601041345E-17,-8.600585577265393E-17,0.7865815427054963,238.56587408172408,29102.93552524969,6.161053861234548E-6,3.5203101534903137E-20,32.10928939135732,0.0,1.2722220157847913E-14,-0.03134171704566648,0.0,0.0,9.277188200394804E-19,-14313.952444903445,998.6945559666112,9.204384103511234E-4,655.7405837756146,415.02890170596464,8.584677398113236E-17,0.14917131190743144,-0.5338322546380062,0.0,0.0,0.0,0.24799080883067565,28.2293756616568,146.7369508828404
7.600000000000873,2.0954722027807992E7,11615.456499538246,-1.8090366064034058E-16,2.0954725247101802E7,2.332855928090259,-1.8090366064034058E-16,-242.55897985651558,1528.7135038198983,-8.931750782724445E-17,-8.931959454063666E-17,0.8050593724595991,241.71155829106283,29078.921641930938,6.378647169813527E-6,3.699565743244013E-20,32.109363104168494,0.0,1.2722220184956561E-14,-0.031759742052198926,0.0,0.0,9.277188200394804E-19,-14502.69349746377,998.7972994997261,9.212447085149964E-4,656.4500558151825,415.1143006477846,8.811208099391407E-17,0.15091770902792556,-0.5479189103619164,0.0,0.0,0.0,0.2509764298650431,28.944470154367004,148.51883007528312
7.700000000000906,2.0954697614126414E7,11768.32851803392,-1.9000470850679272E-16,2.0954700918720495E7,2.414292138603554,-1.9000470850679272E-16,-245.71441473625765,1528.7268912683505,-9.271803953414031E-17,-9.272025974052953E-17,0.8237564771244519,244.85583067309125,29054.593260630965,6.60132304393887E-6,3.8856864927919745E-20,32.109437782618954,0.0,1.2722220211823759E-14,-0.0321777721412969,0.0,0.0,9.277188200394804E-19,-14691.349840385476,998.9013780787482,9.220621191573878E-4,657.1694548179254,415.2008182176739,9.040994265490585E-17,0.15266250244977458,-0.5622080049247836,0.0,0.0,0.0,0.25396281617498917,29.66987235104388,150.3017265455539
7.8000000000009395,2.095467288497275E7,11921.20188282401,-1.9945020727516365E-16,2.095467627598337E7,2.4976088817844975,-1.9945020727516365E-16,-248.86841806013143,1528.7404296792004,-9.620673321579767E-17,-9.620909370973536E-17,0.8426726378046042,247.99867104213456,29029.950523518026,6.8291414248500195E-6,4.0788514268105977E-20,32.10951342628244,0.0,1.2722220238425573E-14,-0.032595807372901665,0.0,0.0,9.277188200394804E-19,-14879.920262528074,999.0067906877051,9.228906593439484E-4,657.8988018206145,415.28845391786416,9.274046483256184E-17,0.15440556405322217,-0.5767001966623019,0.0,0.0,0.0,0.25694982532520894,30.405614785334116,152.0855630613287
7.900000000000973,2.0954647840491198E7,12074.076608995865,-2.0924903541564058E-16,2.0954651319034677E7,2.582828047010522,-2.0924903541564058E-16,-252.02096958155755,1528.7541188725138,-9.978483500436125E-17,-9.978734283970012E-17,0.8618076221515681,251.1400591463284,29004.99357483536,7.062162192471947E-6,4.2792421142302196E-20,32.109590034726374,0.0,1.2722220264737721E-14,-0.03301384780689315,0.0,0.0,9.277188200394804E-19,-15068.403548779705,999.1135362969476,9.2373034635707E-4,658.638118138572,415.3772072433039,9.510375445157057E-17,0.15614676824180768,-0.591396150478287,0.0,0.0,0.0,0.259937319971492,31.151730383679187,153.87026536226261
8.000000000001005,2.095462248082792E7,12226.952711618202,-2.194101962156756E-16,2.0954626048020624E7,2.6699714996686215,-2.194101962156756E-16,-255.1720489870919,1528.7679586559057,-1.0345359511972743E-16,-1.0345625761625383E-16,0.8811611846046953,254.2799746669585,28979.72256079316,7.300445161877589E-6,4.487042676553504E-20,32.10966760751233,0.0,1.272222029073558E-14,-0.03343189350308642,0.0,0.0,9.277188200394804E-19,-15256.79848001751,999.2216138636327,9.245811976995236E-4,659.3874253692223,415.467077682043,9.749991950086009E-17,0.15788599176188256,-0.6062965378944541,0.0,0.0,0.0,0.26292516757589346,31.908252463908045,155.6557619918223
8.10000000000095,2.095459680613114E7,12379.830205739901,-2.2994281819078787E-16,2.0954600463089474E7,2.759061079826683,-2.2994281819078787E-16,-258.32163589576203,1528.7819488247721,-1.0721426791012217E-16,-1.0721709266032405E-16,0.90073306661315,257.41839721779746,28954.13762965426,7.544050079662954E-6,4.702439796256539E-20,32.10974614419567,0.0,1.272222031639419E-14,-0.03384994452122807,0.0,0.0,9.277188200394804E-19,-15445.103833067848,999.3310223313781,9.254432310915792E-4,660.1467453899078,415.5580647149271,9.992906903994578E-17,0.15962311353377964,-0.6214020370898926,0.0,0.0,0.0,0.2659132401406789,32.67521473362454,157.44198414005962
8.200000000000895,2.0954570816551175E7,12532.709106388807,-2.408561554994348E-16,2.0954574564391606E7,2.850118600940484,-2.408561554994348E-16,-261.4697098583982,1528.7960891624991,-1.1106811189289922E-16,-1.110711067687561E-16,0.9205229968396614,260.55530634443613,28928.238931797445,7.793036620419731E-6,4.925622725273142E-20,32.10982564432541,0.0,1.2722220341688233E-14,-0.034268000920992685,0.0,0.0,9.277188200394804E-19,-15633.318380666167,999.4417606300123,9.263164644688673E-4,660.9161003563604,415.65016781537275,1.023913132043084E-16,0.16135801449286366,-0.6367133329345084,0.0,0.0,0.0,0.26890141395924005,33.45265128856128,159.22886549639983
8.30000000000084,2.0954544512240313E7,12685.589428570442,-2.521595883619729E-16,2.0954548352079343E7,2.9431658485695547,-2.521595883619729E-16,-264.6162503569619,1528.8103794406525,-1.150163897955429E-16,-1.1501956295549359E-16,0.9405306913565096,263.69068152361336,28902.026619546115,8.047464383232124E-6,5.1567832935628225E-20,32.10990610744469,0.0,1.2722220366592062E-14,-0.03468606276197934,0.0,0.0,9.277188200394804E-19,-15821.440891416802,999.5538276763284,9.272009159881532E-4,661.6955127081478,415.7433864499761,1.0488676321069054E-16,0.16309057744062067,-0.6522311170219591,0.0,0.0,0.0,0.2718895693824772,34.24059661116118,161.01634211170483
8.400000000000784,2.0954517893352922E7,12838.471187266969,-2.638626234837287E-16,2.0954521826307107E7,3.038224579188892,-2.638626234837287E-16,-267.7612368038732,1528.824819419162,-1.1906036859683037E-16,-1.190637284927911E-16,0.9607558538182911,266.8245021625423,28875.50084732473,8.30739288843563E-6,5.3961159177627695E-20,32.10998753309034,0.0,1.2722220391079677E-14,-0.03510413010370841,0.0,0.0,9.277188200394804E-19,-16009.470129752537,999.6672223734373,9.280966040220567E-4,662.485005164386,415.83772007795636,1.0741553136042709E-16,0.16482068690462728,-0.6679560876903659,0.0,0.0,0.0,0.27487759060042105,35.03908556878154,162.80435226909924
8.500000000000728,2.0954490960045453E7,12991.354397435924,-2.7597489448219045E-16,2.09544949872314E7,3.135316518865105,-2.7597489448219045E-16,-270.9046485413326,1528.8394088464854,-1.2320131956812508E-16,-1.232048749525311E-16,0.9811981756232777,269.9567475982342,28848.66177163273,8.572881574005111E-6,5.64381760992413E-20,32.11006992079294,0.0,1.2722220415124729E-14,-0.035522203005617835,0.0,0.0,9.277188200394804E-19,-16197.404855894052,999.7819436109006,9.29003547159926E-4,663.2846007248752,415.9331681512486,1.099777310425897E-16,0.16654822900648214,-0.6838889500418651,0.0,0.0,0.0,0.2778653654371576,35.84815341204361,164.59283636275995
8.600000000000673,2.0954463712476388E7,13144.239074009136,-2.8850616231833675E-16,2.0954467835010752E7,3.234463362105286,-2.8850616231833675E-16,-274.04646484064455,1528.854147459763,-1.2744051831476738E-16,-1.274442782478486E-16,1.0018573360679286,273.08739709682146,28821.50955099985,8.843989792415116E-6,5.900087986332888E-20,32.110153270076985,0.0,1.2722220438700525E-14,-0.035940281527060094,0.0,0.0,9.277188200394804E-19,-16385.243825809288,999.8979902649439,9.299217642093322E-4,664.0943226717897,416.0297301146621,1.1257347673651546E-16,0.16827309133818294,-0.7000304159583343,0.0,0.0,0.0,0.28085278515846746,36.66783577319217,166.38173678421344
8.700000000000617,2.0954436150806334E7,13297.125231891612,-3.01466315732107E-16,2.0954440369805817E7,3.3356867706300157,-3.01466315732107E-16,-277.1866649015391,1528.8690349849544,-1.317792448175446E-16,-1.3178321867453156E-16,1.0227330024745358,276.21642985287986,28794.04434607923,9.120776807292633E-6,6.16512927641544E-20,32.11023758046051,0.0,1.2722220461780018E-14,-0.03635836572729884,0.0,0.0,9.277188200394804E-19,-16572.985791172792,1000.0153611980809,9.308512741929164E-4,664.9141945672712,416.1274054055488,1.1520288401311366E-16,0.16999516284503377,-0.7163812041095174,0.0,0.0,0.0,0.2838397442914356,37.49816866424567,168.17099781559372
8.800000000000562,2.0954408275197957E7,13450.012885960366,-3.1486537168202103E-16,2.0954412591779314E7,3.43900837216293,-3.1486537168202103E-16,-280.32522785148956,1528.884071136973,-1.3621878347420626E-16,-1.3622298095275154E-16,1.0438248303265705,279.34382498874686,28766.266319595277,9.403301790115138E-6,6.439146331729008E-20,32.11032285145539,0.0,1.2722220484335814E-14,-0.036776455665505525,0.0,0.0,9.277188200394804E-19,-16760.629499324812,1000.1340552593593,9.317920963501295E-4,665.7442402553436,416.2261934539891,1.178660695360849E-16,0.17171433371547057,-0.732942039960606,0.0,0.0,0.0,0.2868261404548055,38.33918847528225,169.96056552933382
8.900000000000507,2.0954380085816033E7,13602.902051063373,-3.2871347578895284E-16,2.095438450109607E7,3.544449759269866,-3.2871347578895284E-16,-283.46213274503424,1528.8992556198064,-1.4076042314100716E-16,-1.407648542686038E-16,1.0651324633830785,282.4695615538436,28738.17563636601,9.69162381704408E-6,6.722346635037062E-20,32.11040908256716,0.0,1.2722220506340169E-14,-0.03719455140075631,0.0,0.0,9.277188200394804E-19,-16948.173693230616,1000.2540712842875,9.327442501364631E-4,666.5844838616149,416.32609368271125,1.2056315106227803E-16,0.17343049527730378,-0.7497136557744586,0.0,0.0,0.0,0.2898118741996974,39.1909319726098,171.75038769391506
9.000000000000451,2.0954351582827393E7,13755.792742018468,-3.43020902784058E-16,2.095435609792297E7,3.6520324882164497,-3.43020902784058E-16,-286.5973585630962,1528.9145881266177,-1.4540545717425713E-16,-1.4541013231580594E-16,1.0866555337803145,285.59361852399473,28709.772463284433,9.98580186580879E-6,7.014940309469609E-20,32.11049627329506,0.0,1.272222052776497E-14,-0.037612652992028935,0.0,0.0,9.277188200394804E-19,-17135.617111439686,1000.3754080949382,9.337077552240591E-4,667.4349497942029,416.4271055071581,1.2329424744163854E-16,0.17514353989932738,-0.7666967906112802,0.0,0.0,0.0,0.2927968488597376,40.05343629694037,173.540413685193
