time,feVelocity_ft_s_X,feVelocity_ft_s_Y,feVelocity_ft_s_Z,altitudeMsl_ft,longitude_deg,latitude_deg,localGravity_ft_s2,eulerAngle_deg_Yaw,eulerAngle_deg_Pitch,eulerAngle_deg_Roll,bodyAngularRateWrtEi_deg_s_Roll,bodyAngularRateWrtEi_deg_s_Pitch,bodyAngularRateWrtEi_deg_s_Yaw,altitudeRateWrtMsl_ft_min,speedOfSound_ft_s,airDensity_slug_ft3,ambientPressure_lbf_ft2,ambientTemperature_dgR,aero_bodyForce_lbf_X,aero_bodyForce_lbf_Y,aero_bodyForce_lbf_Z,aero_bodyMoment_ftlbf_L,aero_bodyMoment_ftlbf_M,aero_bodyMoment_ftlbf_N,mach,trueAirspeed_nmi_h
0.0,1.29E-14,-3.29E-8,0.0,30000.0,0.0,0.0,32.10653699,0.0,0.0,0.0,0.0,0.0,0.0,0.0,994.8492583,8.90951E-4,629.8546116,411.8392612,-6.12E-9,0.04285977,0.0,0.0,0.0,0.0,0.070362419,41.473866
0.1,6.13E-11,0.004308137,3.199413517,29999.84003,5.88E-10,-8.33E-19,32.10653738,-6.1E-25,-8.34E-19,-4.17808E-4,0.0,0.0,0.0,-191.964811,994.8499466,8.90956E-4,629.8591389,411.8398311,6.13E-9,0.0428912,-0.00176417,0.0,0.0,0.0,0.070431192,41.51443182
0.2,6.15E-11,0.008671325,6.398629514,29999.36012,2.36E-9,-8.3E-19,32.10653876,-6.1E-25,-8.3E-19,-8.35617E-4,0.0,0.0,0.0,-383.9177708,994.8520117,8.90972E-4,629.872771,411.8415408,6.15E-9,0.043010248,-0.003734872,0.0,0.0,0.0,0.070645335,41.64074143
0.3,6.18E-11,0.013098344,9.597647275,29998.56031,5.34E-9,-8.26E-19,32.10654111,-6.1E-25,-8.27E-19,-0.001253427,0.0,0.0,0.0,-575.8588365,994.8554451,8.90998E-4,629.8954474,411.8443835,6.18E-9,0.043217044,-0.005728351,0.0,0.0,0.0,0.071003476,41.85198626
0.4,6.22E-11,0.017597887,12.7964639,29997.4406,9.53E-9,-8.23E-19,32.10654445,-6.1E-25,-8.23E-19,-0.001671239,0.0,0.0,0.0,-767.7878342,994.8602553,8.91034E-4,629.9271791,411.8483661,6.22E-9,0.043510277,-0.007756493,0.0,0.0,0.0,0.071503409,42.14686822
0.5,6.28E-11,0.022178488,15.99507533,29996.00102,1.5E-8,-8.19E-19,32.10654877,-6.1E-25,-8.2E-19,-0.002089051,0.0,0.0,0.0,-959.7045199,994.866442,8.91081E-4,629.9680164,411.8534885,6.27E-9,0.043888144,-0.009830842,0.0,0.0,0.0,0.072142141,42.52362621
0.6,6.34E-11,0.026848473,19.19347637,29994.24159,2.17E-8,-8.16E-19,32.10655408,-6.1E-25,-8.17E-19,-0.002506865,0.0,0.0,0.0,-1151.608582,994.8739972,8.91138E-4,630.0178994,411.8597438,6.34E-9,0.044348414,-0.011962502,0.0,0.0,0.0,0.07291598,42.98008575
0.7,6.42E-11,0.031615923,22.39166073,29992.16233,2.97E-8,-8.12E-19,32.10656036,-6.1E-25,-8.13E-19,-0.002924681,0.0,0.0,0.0,-1343.499644,994.8829289,8.91205E-4,630.0768892,411.867139,6.42E-9,0.044888483,-0.014162061,0.0,0.0,0.0,0.073820626,43.513717
0.8,6.51E-11,0.036488639,25.58962113,29989.76327,3.9E-8,-8.08E-19,32.10656762,-6.11E-25,-8.1E-19,-0.003342497,0.0,0.0,0.0,-1535.377268,994.8932289,8.91283E-4,630.1448761,411.8756671,6.51E-9,0.045505434,-0.016439529,0.0,0.0,0.0,0.074851285,44.12169793
0.9,6.61E-11,0.041474114,28.7873493,29987.04442,4.96E-8,-8.05E-19,32.10657587,-6.11E-25,-8.06E-19,-0.003760315,0.0,0.0,0.0,-1727.240958,994.9049054,8.91371E-4,630.2219716,411.8853351,6.61E-9,0.046196107,-0.018804296,0.0,0.0,0.0,0.076002776,44.80097925
1.0,6.72E-11,0.046579515,31.98483607,29984.00581,6.17E-8,-8.01E-19,32.1065851,-6.11E-25,-8.03E-19,-0.004178135,0.0,0.0,0.0,-1919.090164,994.9179584,8.9147E-4,630.3081767,411.8961429,6.72E-9,0.046957173,-0.021265107,0.0,0.0,0.0,0.077269639,45.54834813
1.1,6.84E-11,0.051811666,35.18207144,29980.64746,7.51E-8,-7.98E-19,32.10659531,-6.11E-25,-7.99E-19,-0.004595955,0.0,0.0,0.0,-2110.924287,994.9323877,8.91578E-4,630.4033924,411.9080905,6.84E-9,0.047785183,-0.023830056,0.0,0.0,0.0,0.078646238,46.36048839
1.2,6.97E-11,0.057177044,38.37904465,29976.9694,9.0E-8,-7.94E-19,32.1066065,-6.11E-25,-7.96E-19,-0.005013777,0.0,0.0,0.0,-2302.742679,994.9481769,8.91698E-4,630.5076992,411.9211642,6.97E-9,0.048676638,-0.026506587,0.0,0.0,0.0,0.080126857,47.23403517
1.3,7.11E-11,0.062681774,41.57574421,29972.97166,1.06E-7,-7.91E-19,32.10661867,-6.11E-25,-7.93E-19,-0.005431601,0.0,0.0,0.0,-2494.544652,994.9653507,8.91827E-4,630.62113,411.9353847,7.1E-9,0.049628022,-0.029301514,0.0,0.0,0.0,0.081705773,48.16562302
1.4,7.25E-11,0.068331631,44.772158,29968.65426,1.24E-7,-7.87E-19,32.10663182,-6.11E-25,-7.89E-19,-0.005849426,0.0,0.0,0.0,-2686.32948,994.9838924,8.91967E-4,630.743565,411.9507381,7.25E-9,0.050635872,-0.032221054,0.0,0.0,0.0,0.083377336,49.15192682
1.5,7.41E-11,0.074132049,47.96827331,29964.01724,1.44E-7,-7.84E-19,32.10664596,-6.11E-25,-7.86E-19,-0.006267253,0.0,0.0,0.0,-2878.096398,995.0038102,8.92117E-4,630.8751167,411.9672313,7.4E-9,0.051696789,-0.035270848,0.0,0.0,0.0,0.085136018,50.18969529
1.6,7.57E-11,0.080088124,51.16407689,29959.06062,1.65E-7,-7.8E-19,32.10666107,-6.11E-25,-7.82E-19,-0.006685081,0.0,0.0,0.0,-3069.844614,995.0250958,8.92278E-4,631.0157261,411.9848575,7.56E-9,0.052807478,-0.03845601,0.0,0.0,0.0,0.086976463,51.27577758
1.7,7.74E-11,0.086204632,54.35955503,29953.78443,1.88E-7,-7.76E-19,32.10667717,-6.11E-25,-7.79E-19,-0.007102911,0.0,0.0,0.0,-3261.573302,995.0477491,8.92449E-4,631.1653952,412.0036166,7.73E-9,0.05396476,-0.041781151,0.0,0.0,0.0,0.088893516,52.40714328
1.8,7.91E-11,0.092486037,57.55469357,29948.18872,2.12E-7,-7.73E-19,32.10669424,-6.11E-25,-7.75E-19,-0.007520743,0.0,0.0,0.0,-3453.281614,995.0717865,8.9263E-4,631.3241971,412.0235225,7.91E-9,0.055165605,-0.045250444,0.0,0.0,0.0,0.090882253,53.58089668
1.9,8.09E-11,0.098936511,60.74947796,29942.27351,2.38E-7,-7.69E-19,32.1067123,-6.11E-25,-7.72E-19,-0.007938576,0.0,0.0,0.0,-3644.968677,995.0971832,8.92822E-4,631.4920021,412.0445544,8.09E-9,0.056407123,-0.048867642,0.0,0.0,0.0,0.092937994,54.79428604
2.0,8.28E-11,0.105559941,63.94389328,29936.03883,2.66E-7,-7.66E-19,32.10673134,-6.11E-25,-7.68E-19,-0.008356411,0.0,0.0,0.0,-3836.633597,995.1239555,8.93024E-4,631.6689338,412.0667262,8.27E-9,0.057686579,-0.052636125,0.0,0.0,0.0,0.095056311,56.04470865
2.1,8.47E-11,0.112359954,67.13792433,29929.48474,2.96E-7,-7.62E-19,32.10675136,-6.11E-25,-7.65E-19,-0.008774249,0.0,0.0,0.0,-4028.27546,995.1521034,8.93237E-4,631.8549444,412.0900378,8.47E-9,0.059001398,-0.056558945,0.0,0.0,0.0,0.09723303,57.32971246
2.2,8.67E-11,0.119339924,70.3315556,29922.61126,3.28E-7,-7.59E-19,32.10677235,-6.11E-25,-7.61E-19,-0.009192087,0.0,0.0,0.0,-4219.893336,995.1816184,8.93459E-4,632.0500259,412.1144824,8.66E-9,0.060349147,-0.060638839,0.0,0.0,0.0,0.099464233,58.64699502
2.3,8.87E-11,0.126502994,73.52477131,29915.41844,3.61E-7,-7.55E-19,32.10679433,-6.11E-25,-7.58E-19,-0.009609928,0.0,0.0,0.0,-4411.486279,995.2125005,8.93693E-4,632.2542309,412.14006,8.86E-9,0.061727563,-0.064878294,0.0,0.0,0.0,0.101746251,59.99440028
2.4,9.08E-11,0.133852086,76.71755547,29907.90632,3.97E-7,-7.52E-19,32.10681729,-6.11E-25,-7.55E-19,-0.010027771,0.0,0.0,0.0,-4603.053328,995.2447578,8.93936E-4,632.4674725,412.1667773,9.07E-9,0.063134514,-0.069279543,0.0,0.0,0.0,0.104075651,61.36991386
2.5,9.29E-11,0.141389919,79.90989188,29900.07495,4.34E-7,-7.48E-19,32.10684123,-6.11E-25,-7.51E-19,-0.010445616,0.0,0.0,0.0,-4794.593513,995.2783819,8.9419E-4,632.6897932,412.1946277,9.28E-9,0.064568011,-0.073844607,0.0,0.0,0.0,0.106449235,62.77165717
2.6,9.5E-11,0.149119019,83.10176412,29891.92436,4.74E-7,-7.45E-19,32.10686615,-6.11E-25,-7.48E-19,-0.010863463,0.0,0.0,0.0,-4986.105847,995.3133726,8.94454E-4,632.921246,412.223611,9.49E-9,0.066026212,-0.078575333,0.0,0.0,0.0,0.108864021,64.19788086
2.7,9.72E-11,0.157041735,86.29315564,29883.45461,5.16E-7,-7.41E-19,32.10689204,-6.11E-25,-7.44E-19,-0.011281312,0.0,0.0,0.0,-5177.589338,995.349738,8.94729E-4,633.1617444,412.2537341,9.71E-9,0.067507387,-0.083473387,0.0,0.0,0.0,0.111317237,65.64695773
2.8,9.94E-11,0.165160251,89.48404968,29874.66575,5.6E-7,-7.38E-19,32.10691892,-6.11E-25,-7.41E-19,-0.011699163,0.0,0.0,0.0,-5369.042981,995.3874698,8.95014E-4,633.4113811,412.2849902,9.93E-9,0.069009932,-0.088540295,0.0,0.0,0.0,0.113806303,67.11737556
2.9,1.02E-10,0.173476594,92.67442938,29865.55782,6.06E-7,-7.34E-19,32.10694678,-6.11E-25,-7.37E-19,-0.012117017,0.0,0.0,0.0,-5560.465763,995.4265679,8.95309E-4,633.6700594,412.3173793,1.02E-8,0.070532353,-0.09377745,0.0,0.0,0.0,0.116328825,68.60772976
3.0,1.04E-10,0.18199265,95.86427772,29856.13088,6.55E-7,-7.31E-19,32.10697561,-6.11E-25,-7.34E-19,-0.012534872,0.0,0.0,0.0,-5751.856663,995.4670319,8.95614E-4,633.9378829,412.3509013,1.04E-8,0.07207326,-0.099186133,0.0,0.0,0.0,0.118882576,70.1167163
3.1,1.06E-10,0.19071017,99.05357758,29846.38498,7.06E-7,-7.27E-19,32.10700543,-6.11E-25,-7.3E-19,-0.01295273,0.0,0.0,0.0,-5943.214655,995.5088701,8.9593E-4,634.2147654,412.3855632,1.06E-8,0.073631362,-0.104767525,0.0,0.0,0.0,0.12146549,71.6431247
3.2,1.09E-10,0.19963078,102.2423117,29836.32018,7.59E-7,-7.24E-19,32.10703622,-6.11E-25,-7.27E-19,-0.013370591,0.0,0.0,0.0,-6134.538703,995.5520739,8.96257E-4,634.5008004,412.421358,1.08E-8,0.075205456,-0.110522717,0.0,0.0,0.0,0.124075647,73.1858314
3.3,1.11E-10,0.208755992,105.4304628,29825.93654,8.15E-7,-7.2E-19,32.107068,-6.11E-25,-7.23E-19,-0.013788454,0.0,0.0,0.0,-6325.827766,995.5966433,8.96593E-4,634.7958915,412.4582858,1.11E-8,0.076794418,-0.116452714,0.0,0.0,0.0,0.126711266,74.74379342
3.4,1.13E-10,0.218087208,108.6180133,29815.23411,8.73E-7,-7.16E-19,32.10710075,-6.11E-25,-7.2E-19,-0.014206319,0.0,0.0,0.0,-6517.080797,995.642578,8.9694E-4,635.1000926,412.4963466,1.13E-8,0.07839722,-0.122558482,0.0,0.0,0.0,0.129370692,76.31604236
3.5,1.16E-10,0.227625733,111.8049457,29804.21296,9.34E-7,-7.13E-19,32.10713448,-6.11E-25,-7.16E-19,-0.014624188,0.0,0.0,0.0,-6708.296744,995.6898778,8.97297E-4,635.4134078,412.5355403,1.16E-8,0.08001288,-0.128840887,0.0,0.0,0.0,0.132052383,77.90167876
3.6,1.18E-10,0.237372774,114.9912425,29792.87314,9.98E-7,-7.09E-19,32.10716918,-6.11E-25,-7.13E-19,-0.015042058,0.0,0.0,0.0,-6899.474551,995.7385426,8.97665E-4,635.7358413,412.575867,1.18E-8,0.081640506,-0.135300784,0.0,0.0,0.0,0.134754912,79.49986688
3.7,1.21E-10,0.247329454,118.1768859,29781.21473,1.06E-6,-7.06E-19,32.10720487,-6.11E-25,-7.09E-19,-0.015459932,0.0,0.0,0.0,-7090.613154,995.7885721,8.98043E-4,636.0673975,412.6173267,1.2E-8,0.083279243,-0.141938941,0.0,0.0,0.0,0.137476945,81.10982981
3.8,1.23E-10,0.257496813,121.3618581,29769.23779,1.13E-6,-7.02E-19,32.10724153,-6.11E-25,-7.06E-19,-0.015877808,0.0,0.0,0.0,-7281.711487,995.8399662,8.98431E-4,636.4080304,412.6599193,1.23E-8,0.084928306,-0.148756106,0.0,0.0,0.0,0.140217244,82.73084489
3.9,1.25E-10,0.267875815,124.5461413,29756.94238,1.2E-6,-6.99E-19,32.10727917,-6.11E-25,-7.02E-19,-0.016295687,0.0,0.0,0.0,-7472.768478,995.8927245,8.98829E-4,636.7577949,412.7036449,1.25E-8,0.086586972,-0.155753015,0.0,0.0,0.0,0.142974656,84.36223953
4.0,1.28E-10,0.278467353,127.7297176,29744.32858,1.28E-6,-6.95E-19,32.10731779,-6.11E-25,-6.99E-19,-0.016713569,0.0,0.0,0.0,-7663.783053,995.946847,8.99238E-4,637.1166956,412.7485034,1.28E-8,0.088254542,-0.162930329,0.0,0.0,0.0,0.145748105,86.00338734
4.1,1.3E-10,0.289272254,130.9125689,29731.39646,1.36E-6,-6.92E-19,32.10735738,-6.11E-25,-6.95E-19,-0.017131453,0.0,0.0,0.0,-7854.754132,996.0023334,8.99657E-4,637.484687,412.7944949,1.3E-8,0.089930378,-0.170288716,0.0,0.0,0.0,0.148536587,87.65370453
4.2,1.33E-10,0.30029128,134.0946772,29718.14609,1.44E-6,-6.88E-19,32.10739796,-6.11E-25,-6.92E-19,-0.017549341,0.0,0.0,0.0,-8045.680632,996.0591834,9.00087E-4,637.8618243,412.8416194,1.33E-8,0.091613873,-0.177828796,0.0,0.0,0.0,0.151339166,89.31264662
4.3,1.36E-10,0.311525136,137.2760244,29704.57755,1.52E-6,-6.85E-19,32.1074395,-6.11E-25,-6.88E-19,-0.017967232,0.0,0.0,0.0,-8236.561466,996.1173886,9.00527E-4,638.2481018,412.88987,1.36E-8,0.093304467,-0.185551199,0.0,0.0,0.0,0.154154968,90.9797054
4.4,1.38E-10,0.322974474,140.4565924,29690.69091,1.61E-6,-6.81E-19,32.10748203,-6.11E-25,-6.85E-19,-0.018385126,0.0,0.0,0.0,-8427.395543,996.1769569,9.00977E-4,638.6434851,412.9392535,1.38E-8,0.095001632,-0.193456522,0.0,0.0,0.0,0.156983174,92.65440615
4.5,1.41E-10,0.33463989,143.6363628,29676.48626,1.7E-6,-6.78E-19,32.10752553,-6.11E-25,-6.81E-19,-0.018803023,0.0,0.0,0.0,-8618.181769,996.2378882,9.01437E-4,639.0480296,412.9897701,1.41E-8,0.09670486,-0.201545332,0.0,0.0,0.0,0.159823018,94.33630505
4.6,1.43E-10,0.346521935,146.8153175,29661.96367,1.79E-6,-6.74E-19,32.10757001,-6.11E-25,-6.78E-19,-0.019220923,0.0,0.0,0.0,-8808.919048,996.3001822,9.01908E-4,639.4616905,413.0414195,1.43E-8,0.09841369,-0.209818215,0.0,0.0,0.0,0.162673783,96.02498687
4.7,1.46E-10,0.358621111,149.993438,29647.12322,1.89E-6,-6.71E-19,32.10761546,-6.11E-25,-6.74E-19,-0.019638826,0.0,0.0,0.0,-8999.606277,996.3638303,9.02389E-4,639.8844626,413.0941951,1.46E-8,0.100127671,-0.218275716,0.0,0.0,0.0,0.165534798,97.72006276
4.8,1.49E-10,0.370937878,153.1707059,29631.96501,1.99E-6,-6.67E-19,32.10766189,-6.11E-25,-6.71E-19,-0.020056733,0.0,0.0,0.0,-9190.242353,996.4288406,9.0288E-4,640.3164124,413.1481036,1.48E-8,0.101846387,-0.226918385,0.0,0.0,0.0,0.168405431,99.42116829
4.9,1.51E-10,0.383472655,156.3471028,29616.48911,2.09E-6,-6.64E-19,32.10770929,-6.11E-25,-6.67E-19,-0.020474643,0.0,0.0,0.0,-9380.826169,996.4952046,9.03382E-4,640.757535,413.2031383,1.51E-8,0.103569451,-0.235746782,0.0,0.0,0.0,0.17128509,101.1279616
5.0,1.54E-10,0.396225822,159.5226102,29600.69562,2.2E-6,-6.6E-19,32.10775767,-6.11E-25,-6.64E-19,-0.020892557,0.0,0.0,0.0,-9571.356613,996.5629302,9.03894E-4,641.2077463,413.2593059,1.54E-8,0.105296482,-0.244761429,0.0,0.0,0.0,0.174173217,102.8401218
5.1,1.57E-10,0.409197723,162.6972095,29584.58462,2.31E-6,-6.57E-19,32.10780702,-6.11E-25,-6.6E-19,-0.021310474,0.0,0.0,0.0,-9761.832571,996.6320088,9.04416E-4,641.6671422,413.3165996,1.56E-8,0.107027136,-0.253962878,0.0,0.0,0.0,0.17706929,104.5573474
5.2,1.59E-10,0.422388665,165.8708821,29568.15621,2.42E-6,-6.53E-19,32.10785735,-6.11E-25,-6.57E-19,-0.021728395,0.0,0.0,0.0,-9952.252927,996.7024486,9.04949E-4,642.1357394,413.3750262,1.59E-8,0.108761059,-0.263351619,0.0,0.0,0.0,0.179972812,106.2793546
5.3,1.62E-10,0.435798923,169.0436093,29551.41048,2.54E-6,-6.5E-19,32.10790865,-6.11E-25,-6.53E-19,-0.022146319,0.0,0.0,0.0,-10142.61656,996.7742408,9.05491E-4,642.6134329,413.434579,1.62E-8,0.110497952,-0.272928218,0.0,0.0,0.0,0.182883321,108.0058767
5.4,1.65E-10,0.449428741,172.2153724,29534.34752,2.66E-6,-6.46E-19,32.10796093,-6.11E-25,-6.5E-19,-0.022564247,0.0,0.0,0.0,-10332.92235,996.8473853,9.06044E-4,643.1003296,413.4952579,1.64E-8,0.112237503,-0.282693181,0.0,0.0,0.0,0.185800377,109.736662
5.5,1.67E-10,0.463278391,175.3861525,29516.96743,2.78E-6,-6.43E-19,32.10801418,-6.11E-25,-6.46E-19,-0.022982179,0.0,0.0,0.0,-10523.16915,996.9218817,9.06624E-4,643.6078006,413.5570628,1.67E-8,0.113981115,-0.292651376,0.0,0.0,0.0,0.188723566,111.4714735
5.6,1.7E-10,0.477348315,178.5559301,29499.27032,2.91E-6,-6.39E-19,32.1080684,-6.11E-25,-6.43E-19,-0.023400115,0.0,0.0,0.0,-10713.3558,996.997738,9.07224E-4,644.1321468,413.6200008,1.7E-8,0.115728588,-0.302803768,0.0,0.0,0.0,0.191652492,113.2100868
5.7,1.73E-10,0.491638707,181.7246861,29481.25628,3.04E-6,-6.36E-19,32.1081236,-6.11E-25,-6.39E-19,-0.023818054,0.0,0.0,0.0,-10903.48116,997.0749456,9.07836E-4,644.6659732,413.6840648,1.73E-8,0.117478047,-0.313146841,0.0,0.0,0.0,0.194586787,114.9522907
5.8,1.75E-10,0.506149715,184.8924015,29462.92542,3.18E-6,-6.32E-19,32.10817976,-6.11E-25,-6.36E-19,-0.024235998,0.0,0.0,0.0,-11093.54409,997.1535042,9.08458E-4,645.2093875,413.7492549,1.75E-8,0.119229261,-0.3236812,0.0,0.0,0.0,0.197526099,116.6978852
5.9,1.78E-10,0.520881461,188.0590573,29444.27784,3.32E-6,-6.28E-19,32.1082369,-6.11E-25,-6.32E-19,-0.024653945,0.0,0.0,0.0,-11283.54344,997.2334134,9.09091E-4,645.7622964,413.8155711,1.78E-8,0.120981975,-0.334407353,0.0,0.0,0.0,0.200470094,118.4466812
6.0,1.81E-10,0.535834043,191.2246344,29425.31364,3.47E-6,-6.25E-19,32.10829502,-6.11E-25,-6.29E-19,-0.025071896,0.0,0.0,0.0,-11473.47806,997.3146731,9.09734E-4,646.3247576,413.8830135,1.81E-8,0.122735959,-0.34532586,0.0,0.0,0.0,0.203418458,120.1984997
6.1,1.84E-10,0.551007536,194.3891135,29406.03295,3.61E-6,-6.21E-19,32.1083541,-6.11E-25,-6.25E-19,-0.025489852,0.0,0.0,0.0,-11663.34681,997.3972827,9.10388E-4,646.8967281,413.9515819,1.84E-8,0.124491015,-0.356437335,0.0,0.0,0.0,0.20637089,121.9531711
6.2,1.87E-10,0.566401992,197.5524755,29386.43586,3.77E-6,-6.18E-19,32.10841416,-6.11E-25,-6.22E-19,-0.025907812,0.0,0.0,0.0,-11853.14853,997.4812421,9.11053E-4,647.4782658,414.0212764,1.86E-8,0.126246903,-0.367742261,0.0,0.0,0.0,0.209327104,123.7105343
6.3,1.89E-10,0.582017444,200.714701,29366.52249,3.92E-6,-6.14E-19,32.10847518,-6.11E-25,-6.18E-19,-0.026325776,0.0,0.0,0.0,-12042.88206,997.5665425,9.11729E-4,648.0693678,414.0920901,1.89E-8,0.12800345,-0.379241291,0.0,0.0,0.0,0.212286831,125.4704365
6.4,1.92E-10,0.597853902,203.8757707,29346.29296,4.09E-6,-6.11E-19,32.10853718,-6.11E-25,-6.15E-19,-0.026743744,0.0,0.0,0.0,-12232.54624,997.6532001,9.12416E-4,648.670013,414.1640369,1.92E-8,0.129760441,-0.390934939,0.0,0.0,0.0,0.215249809,127.2327325
6.5,1.95E-10,0.613911357,207.0356652,29325.74738,4.25E-6,-6.07E-19,32.10860015,-6.11E-25,-6.11E-19,-0.027161717,0.0,0.0,0.0,-12422.13991,997.7411899,9.13113E-4,649.2801771,414.2370959,1.95E-8,0.131517688,-0.402823779,0.0,0.0,0.0,0.218215797,128.9972843
6.6,1.98E-10,0.630189781,210.194365,29304.88586,4.42E-6,-6.04E-19,32.10866408,-6.11E-25,-6.08E-19,-0.027579694,0.0,0.0,0.0,-12611.6619,997.8305363,9.13821E-4,649.8999508,414.311288,1.98E-8,0.133275019,-0.414908421,0.0,0.0,0.0,0.221184554,130.7639604
6.7,2.01E-10,0.646689128,213.3518506,29283.70854,4.6E-6,-6.0E-19,32.10872899,-6.11E-25,-6.04E-19,-0.027997675,0.0,0.0,0.0,-12801.11104,997.9212223,9.14539E-4,650.5292704,414.3865993,2.01E-8,0.135032237,-0.427189384,0.0,0.0,0.0,0.22415586,132.5326357
6.8,2.03E-10,0.663409332,216.5081024,29262.21554,4.78E-6,-5.97E-19,32.10879487,-6.11E-25,-6.01E-19,-0.028415661,0.0,0.0,0.0,-12990.48615,998.0132559,9.15269E-4,651.1681549,414.4630367,2.03E-8,0.136789191,-0.439667317,0.0,0.0,0.0,0.227129498,134.3031908
6.9,2.06E-10,0.680350311,219.6631008,29240.40697,4.96E-6,-5.93E-19,32.10886171,-6.11E-25,-5.97E-19,-0.028833652,0.0,0.0,0.0,-13179.78605,998.1066284,9.16009E-4,651.8166021,414.5405933,2.06E-8,0.138545718,-0.452342814,0.0,0.0,0.0,0.230105266,136.075512
7.0,2.09E-10,0.697511965,222.8168261,29218.28296,5.15E-6,-5.9E-19,32.10892952,-6.11E-25,-5.94E-19,-0.029251647,0.0,0.0,0.0,-13369.00957,998.2013477,9.1676E-4,652.4746817,414.619276,2.09E-8,0.140301633,-0.465216401,0.0,0.0,0.0,0.233082965,137.8494905
7.1,2.12E-10,0.714894178,225.9692586,29195.84364,5.34E-6,-5.86E-19,32.10899831,-6.11E-25,-5.9E-19,-0.029669647,0.0,0.0,0.0,-13558.15552,998.2973969,9.17521E-4,653.1422799,414.699071,2.12E-8,0.142056803,-0.478288748,0.0,0.0,0.0,0.23606241,139.6250224
7.2,2.15E-10,0.732496819,229.1203783,29173.08915,5.54E-6,-5.83E-19,32.10906806,-6.11E-25,-5.87E-19,-0.030087652,0.0,0.0,0.0,-13747.2227,998.3948005,9.18293E-4,653.8195387,414.7799991,2.15E-8,0.143811053,-0.491560386,0.0,0.0,0.0,0.239043417,141.4020085
7.3,2.18E-10,0.750319738,232.2701655,29150.01961,5.74E-6,-5.79E-19,32.10913877,-6.11E-25,-5.83E-19,-0.030505662,0.0,0.0,0.0,-13936.20993,998.4935331,9.19076E-4,654.5063339,414.8620395,2.18E-8,0.145564255,-0.505031999,0.0,0.0,0.0,0.242025817,143.1803536
7.4,2.21E-10,0.768362771,235.4186002,29126.63516,5.95E-6,-5.76E-19,32.10921046,-6.11E-25,-5.8E-19,-0.030923676,0.0,0.0,0.0,-14125.11601,998.5936028,9.1987E-4,655.202786,414.9451991,2.21E-8,0.147316244,-0.518704122,0.0,0.0,0.0,0.245009442,144.9599668
7.5,2.24E-10,0.78662574,238.5656624,29102.93594,6.16E-6,-5.72E-19,32.10928311,-6.11E-25,-5.76E-19,-0.031341696,0.0,0.0,0.0,-14313.93974,998.695009,9.20674E-4,655.9088034,415.029478,2.24E-8,0.149066886,-0.532577413,0.0,0.0,0.0,0.247994133,146.7407607
7.6,2.27E-10,0.805108452,241.711332,29078.92208,6.38E-6,-5.69E-19,32.10935672,-6.11E-25,-5.73E-19,-0.03175972,0.0,0.0,0.0,-14502.67992,998.7977597,9.21489E-4,656.6244567,415.114883,2.26E-8,0.150816045,-0.546652493,0.0,0.0,0.0,0.250979734,148.5226517
7.7,2.3E-10,0.823810698,244.8555889,29054.59372,6.6E-6,-5.65E-19,32.1094313,-6.11E-25,-5.69E-19,-0.03217775,0.0,0.0,0.0,-14691.33533,998.9018379,9.22314E-4,657.3496831,415.2014003,2.29E-8,0.152563571,-0.560929948,0.0,0.0,0.0,0.253966101,150.3055593
7.8,2.32E-10,0.842732254,247.9984129,29029.95101,6.83E-6,-5.62E-19,32.10950685,-6.11E-25,-5.66E-19,-0.032595785,0.0,0.0,0.0,-14879.90477,999.0072515,9.23151E-4,658.0846038,415.2890369,2.32E-8,0.154309342,-0.575410452,0.0,0.0,0.0,0.256953089,152.0894063
7.9,2.35E-10,0.861872885,251.1397838,29004.99409,7.06E-6,-5.58E-19,32.10958336,-6.11E-25,-5.62E-19,-0.033013825,0.0,0.0,0.0,-15068.38703,999.1139999,9.23997E-4,658.8290771,415.3777927,2.35E-8,0.156053228,-0.590094642,0.0,0.0,0.0,0.259940562,153.8741184
8.0,2.38E-10,0.88123234,254.2796813,28979.7231,7.3E-6,-5.55E-19,32.10966084,-6.11E-25,-5.59E-19,-0.03343187,0.0,0.0,0.0,-15256.78088,999.2220747,9.24855E-4,659.5832027,415.4676608,2.38E-8,0.157795088,-0.604983115,0.0,0.0,0.0,0.262928387,155.6596243
8.1,2.41E-10,0.900810354,257.4180849,28954.1382,7.54E-6,-5.51E-19,32.10973928,-6.11E-25,-5.55E-19,-0.03384992,0.0,0.0,0.0,-15445.08509,999.3314835,9.25723E-4,660.3470015,415.5586482,2.41E-8,0.159534793,-0.620076515,0.0,0.0,0.0,0.265916436,157.4458551
8.2,2.44E-10,0.92060665,260.5549743,28928.23953,7.79E-6,-5.48E-19,32.10981868,-6.11E-25,-5.52E-19,-0.034267976,0.0,0.0,0.0,-15633.29846,999.4422176,9.26602E-4,661.1203715,415.650748,2.44E-8,0.161272231,-0.635375539,0.0,0.0,0.0,0.268904586,159.2327444
8.3,2.47E-10,0.940620937,263.6903289,28902.02726,8.05E-6,-5.44E-19,32.10989905,-6.11E-25,-5.48E-19,-0.034686037,0.0,0.0,0.0,-15821.41973,999.554285,9.27492E-4,661.9034853,415.743967,2.47E-8,0.163007267,-0.650880795,0.0,0.0,0.0,0.271892716,161.0202284
8.4,2.5E-10,0.960852911,266.8241281,28875.50152,8.31E-6,-5.41E-19,32.10998038,-6.11E-25,-5.45E-19,-0.035104104,0.0,0.0,0.0,-16009.44769,999.6676851,9.28392E-4,662.6962016,415.8383052,2.5E-8,0.164739778,-0.666592942,0.0,0.0,0.0,0.274880709,162.8082454
8.5,2.53E-10,0.981302255,269.9563514,28848.66248,8.57E-6,-5.37E-19,32.11006267,-6.11E-25,-5.41E-19,-0.035522177,0.0,0.0,0.0,-16197.38109,999.782401,9.29303E-4,663.4985592,415.9337489,2.53E-8,0.166469656,-0.682512695,0.0,0.0,0.0,0.277868458,164.5967358
8.6,2.56E-10,1.001968638,273.086978,28821.5103,8.84E-6,-5.33E-19,32.11014592,-6.11E-25,-5.38E-19,-0.035940255,0.0,0.0,0.0,-16385.21868,999.8984488,9.30224E-4,664.3105905,416.0303119,2.56E-8,0.168196757,-0.698640619,0.0,0.0,0.0,0.280855848,166.3856419
8.7,2.59E-10,1.022851718,276.2159872,28794.04514,9.12E-6,-5.3E-19,32.11023014,-6.11E-25,-5.34E-19,-0.036358338,0.0,0.0,0.0,-16572.95923,1000.01582,9.31156E-4,665.1322952,416.1279872,2.59E-8,0.169920976,-0.714977438,0.0,0.0,0.0,0.283842778,168.1749082
8.8,2.62E-10,1.04395114,279.343358,28766.26716,9.4E-6,-5.26E-19,32.11031531,-6.11E-25,-5.31E-19,-0.036776428,0.0,0.0,0.0,-16760.60148,1000.134505,9.32099E-4,665.9637235,416.226768,2.62E-8,0.171642195,-0.73152383,0.0,0.0,0.0,0.286829146,169.9644806
8.9,2.65E-10,1.065266536,282.4690696,28738.17653,9.69E-6,-5.23E-19,32.11040145,-6.11E-25,-5.27E-19,-0.037194523,0.0,0.0,0.0,-16948.14418,1000.254521,9.33052E-4,666.8047564,416.3266681,2.65E-8,0.173360299,-0.748280477,0.0,0.0,0.0,0.289814849,171.754307
9.0,2.68E-10,1.086797526,285.5931011,28709.7734,9.99E-6,-5.19E-19,32.11048854,-6.11E-25,-5.24E-19,-0.037612624,0.0,0.0,0.0,-17135.58607,1000.375858,9.34016E-4,667.6555457,416.4276805,2.68E-8,0.175075173,-0.765248065,0.0,0.0,0.0,0.292799792,173.5443368
9.1,2.71E-10,1.108543716,288.7154313,28681.05796,1.03E-5,-5.16E-19,32.1105766,-6.11E-25,-5.2E-19,-0.038030731,0.0,0.0,0.0,-17322.92588,1000.498508,9.3499E-4,668.5159902,416.5297984,2.71E-8,0.17678669,-0.782427227,0.0,0.0,0.0,0.295783883,175.3345209
9.2,2.74E-10,1.130504703,291.8360392,28652.03037,1.06E-5,-5.12E-19,32.11066561,-6.11E-25,-5.17E-19,-0.038448844,0.0,0.0,0.0,-17510.16235,1000.62248,9.35975E-4,669.3861625,416.6330287,2.74E-8,0.178494748,-0.799818714,0.0,0.0,0.0,0.298767028,177.1248118
9.3,2.78E-10,1.152680069,294.9549036,28622.69081,1.09E-5,-5.09E-19,32.11075558,-6.11E-25,-5.13E-19,-0.038866963,0.0,0.0,0.0,-17697.29422,1000.747771,9.36971E-4,670.2660235,416.7373714,2.77E-8,0.180199223,-0.817423165,0.0,0.0,0.0,0.301749137,178.9151631
9.4,2.81E-10,1.175069384,298.0720033,28593.03945,1.12E-5,-5.05E-19,32.11084651,-6.11E-25,-5.1E-19,-0.039285088,0.0,0.0,0.0,-17884.3202,1000.874374,9.37977E-4,671.1555733,416.8428195,2.81E-8,0.181900002,-0.835241281,0.0,0.0,0.0,0.304730127,180.7055299
9.5,2.84E-10,1.197672207,301.1873168,28563.07647,1.15E-5,-5.02E-19,32.11093839,-6.11E-25,-5.06E-19,-0.039703219,0.0,0.0,0.0,-18071.23901,1001.002288,9.38994E-4,672.0548741,416.9493732,2.84E-8,0.183596986,-0.85327383,0.0,0.0,0.0,0.307709913,182.4958686
9.6,2.87E-10,1.220488085,304.3008229,28532.80205,1.19E-5,-4.98E-19,32.11103123,-6.11E-25,-5.03E-19,-0.040121356,0.0,0.0,0.0,-18258.04937,1001.13152,9.40021E-4,672.9638979,417.0570392,2.87E-8,0.185290051,-0.87152146,0.0,0.0,0.0,0.310688408,184.2861367
9.7,2.9E-10,1.243516551,307.4125,28502.21637,1.22E-5,-4.95E-19,32.11112503,-6.11E-25,-4.99E-19,-0.0405395,0.0,0.0,0.0,-18444.75,1001.262063,9.41059E-4,673.8826454,417.1658107,2.9E-8,0.186979086,-0.889984883,0.0,0.0,0.0,0.313665536,186.0762926
9.8,2.93E-10,1.266757129,310.5223267,28471.31961,1.26E-5,-4.91E-19,32.11121978,-6.11E-25,-4.96E-19,-0.04095765,0.0,0.0,0.0,-18631.3396,1001.393915,9.42107E-4,674.8111284,417.2756877,2.93E-8,0.188663993,-0.908664885,0.0,0.0,0.0,0.316641216,187.8662962
9.9,2.96E-10,1.290209329,313.6302813,28440.11197,1.29E-5,-4.88E-19,32.11131549,-6.11E-25,-4.92E-19,-0.041375806,0.0,0.0,0.0,-18817.81688,1001.527077,9.43167E-4,675.7494096,417.3866702,2.96E-8,0.190344635,-0.92756205,0.0,0.0,0.0,0.319615372,189.656108
10.0,2.99E-10,1.313872649,316.7363421,28408.59362,1.33E-5,-4.84E-19,32.11141215,-6.11E-25,-4.88E-19,-0.041793969,0.0,0.0,0.0,-19004.18053,1001.661546,9.44236E-4,676.6973487,417.4987582,2.99E-8,0.192020915,-0.946677172,0.0,0.0,0.0,0.322587928,191.4456898
10.1,3.02E-10,1.337746575,319.8404875,28376.76476,1.36E-5,-4.81E-19,32.11150977,-6.11E-25,-4.85E-19,-0.042212138,0.0,0.0,0.0,-19190.42925,1001.797324,9.45316E-4,677.6551103,417.6119518,3.02E-8,0.193692722,-0.966010978,0.0,0.0,0.0,0.325558811,193.235004
10.2,3.06E-10,1.361830581,322.9426955,28344.62559,1.4E-5,-4.77E-19,32.11160834,-6.11E-25,-4.81E-19,-0.042630314,0.0,0.0,0.0,-19376.56173,1001.934409,9.46407E-4,678.622605,417.7262508,3.06E-8,0.195359934,-0.985564127,0.0,0.0,0.0,0.328527947,195.0240142
10.3,3.09E-10,1.386124131,326.0429444,28312.17629,1.44E-5,-4.74E-19,32.11170786,-6.11E-25,-4.78E-19,-0.043048497,0.0,0.0,0.0,-19562.57666,1002.072792,9.47508E-4,679.5998849,417.8416484,3.09E-8,0.197022453,-1.005337425,0.0,0.0,0.0,0.331495269,196.8126845
10.4,3.12E-10,1.410626674,329.141212,28279.41706,1.48E-5,-4.7E-19,32.11180834,-6.11E-25,-4.74E-19,-0.043466686,0.0,0.0,0.0,-19748.47272,1002.212482,9.4862E-4,680.5869737,417.9581516,3.12E-8,0.19868017,-1.025331611,0.0,0.0,0.0,0.334460704,198.60098
10.5,3.15E-10,1.43533765,332.2374765,28246.34811,1.51E-5,-4.67E-19,32.11190976,-6.11E-25,-4.71E-19,-0.043884882,0.0,0.0,0.0,-19934.24859,1002.353469,9.49742E-4,681.5837712,418.0757533,3.15E-8,0.20033296,-1.04554735,0.0,0.0,0.0,0.337424188,200.3888667
10.6,3.18E-10,1.460256484,335.3317156,28212.96964,1.55E-5,-4.63E-19,32.11201214,-6.11E-25,-4.67E-19,-0.044303084,0.0,0.0,0.0,-20119.90294,1002.495754,9.50874E-4,682.5903917,418.1944537,3.18E-8,0.201980713,-1.065985385,0.0,0.0,0.0,0.340385652,202.1763109
10.7,3.22E-10,1.485382589,338.4239073,28179.28184,1.59E-5,-4.59E-19,32.11211546,-6.11E-25,-4.64E-19,-0.044721294,0.0,0.0,0.0,-20305.43444,1002.639343,9.52018E-4,683.6068593,418.3142596,3.21E-8,0.203623318,-1.086646458,0.0,0.0,0.0,0.34334503,203.9632798
10.8,3.25E-10,1.510715371,341.5140291,28145.28492,1.64E-5,-4.56E-19,32.11221974,-6.11E-25,-4.6E-19,-0.04513951,0.0,0.0,0.0,-20490.84175,1002.784228,9.53171E-4,684.6330741,418.4351642,3.25E-8,0.205260666,-1.10753132,0.0,0.0,0.0,0.346302258,205.7497415
10.9,3.28E-10,1.536254217,344.6020589,28110.9791,1.68E-5,-4.52E-19,32.11232496,-6.11E-25,-4.57E-19,-0.045557733,0.0,0.0,0.0,-20676.12353,1002.9304,9.54336E-4,685.6690886,418.5571605,3.28E-8,0.206892659,-1.128640803,0.0,0.0,0.0,0.349257277,207.5356643
11.0,3.31E-10,1.561998507,347.6879741,28076.36458,1.72E-5,-4.49E-19,32.11243114,-6.11E-25,-4.53E-19,-0.045975964,0.0,0.0,0.0,-20861.27845,1003.077875,9.5551E-4,686.7149386,418.6802623,3.31E-8,0.208519158,-1.149975497,0.0,0.0,0.0,0.352210019,209.3210173
11.1,3.34E-10,1.587947605,350.7717524,28041.44158,1.76E-5,-4.45E-19,32.11253826,-6.11E-25,-4.5E-19,-0.046394201,0.0,0.0,0.0,-21046.30514,1003.226636,9.56695E-4,687.7706148,418.8044559,3.34E-8,0.210140065,-1.17153624,0.0,0.0,0.0,0.355160427,211.1057702
11.2,3.38E-10,1.614100866,353.8533711,28006.21031,1.81E-5,-4.42E-19,32.11264632,-6.11E-25,-4.46E-19,-0.046812445,0.0,0.0,0.0,-21231.20226,1003.376691,9.57891E-4,688.8361418,418.9297481,3.38E-8,0.21175527,-1.193323791,0.0,0.0,0.0,0.35810844,212.8898932
11.3,3.41E-10,1.640457633,356.9328076,27970.67098,1.85E-5,-4.38E-19,32.11275534,-6.11E-25,-4.43E-19,-0.047230697,0.0,0.0,0.0,-21415.96845,1003.528038,9.59097E-4,689.9114824,419.0561389,3.41E-8,0.21336466,-1.215338913,0.0,0.0,0.0,0.361053997,214.673357
11.4,3.44E-10,1.667017233,360.0100392,27934.82382,1.9E-5,-4.35E-19,32.1128653,-6.11E-25,-4.39E-19,-0.047648956,0.0,0.0,0.0,-21600.60235,1003.68067,9.60313E-4,690.9966387,419.1836215,3.44E-8,0.214968109,-1.237582279,0.0,0.0,0.0,0.363997042,216.4561328
11.5,3.47E-10,1.693778984,363.0850431,27898.66905,1.94E-5,-4.31E-19,32.1129762,-6.11E-25,-4.36E-19,-0.048067222,0.0,0.0,0.0,-21785.10259,1003.834586,9.6154E-4,692.0916753,419.3121959,3.47E-8,0.216565502,-1.260054652,0.0,0.0,0.0,0.36693752,218.2381923
11.6,3.51E-10,1.720742487,366.1577948,27862.20688,1.99E-5,-4.28E-19,32.11308805,-6.11E-25,-4.32E-19,-0.048485496,0.0,0.0,0.0,-21969.46769,1003.989792,9.62817E-4,693.224924,419.4418689,3.51E-8,0.218164352,-1.282801622,0.0,0.0,0.0,0.369875367,220.0195066
11.7,3.54E-10,1.747907988,369.2282655,27825.43756,2.04E-5,-4.24E-19,32.11320084,-6.11E-25,-4.29E-19,-0.048903776,0.0,0.0,0.0,-22153.69593,1004.146273,9.64123E-4,694.381556,419.5726268,3.54E-8,0.219762557,-1.305813573,0.0,0.0,0.0,0.372810528,221.8000447
11.8,3.57E-10,1.775274852,372.2964316,27788.36131,2.08E-5,-4.21E-19,32.11331458,-6.11E-25,-4.25E-19,-0.049322065,0.0,0.0,0.0,-22337.7859,1004.304044,9.65439E-4,695.5484032,419.7044833,3.57E-8,0.221354643,-1.329060138,0.0,0.0,0.0,0.375742942,223.5797792
11.9,3.61E-10,1.80284237,375.3622697,27750.97835,2.13E-5,-4.17E-19,32.11342926,-6.11E-25,-4.22E-19,-0.049740361,0.0,0.0,0.0,-22521.73618,1004.463089,9.66767E-4,696.7255087,419.8374248,3.61E-8,0.222940477,-1.352542052,0.0,0.0,0.0,0.378672559,225.3586834
12.0,3.64E-10,1.830609822,378.4257563,27713.28893,2.18E-5,-4.14E-19,32.11354488,-6.11E-25,-4.19E-19,-0.050158664,0.0,0.0,0.0,-22705.54538,1004.623422,9.68106E-4,697.912859,419.9714648,3.64E-8,0.224519929,-1.376260044,0.0,0.0,0.0,0.381599319,227.1367307
12.1,3.67E-10,1.858576475,381.4868678,27675.29328,2.23E-5,-4.11E-19,32.11366144,-6.11E-25,-4.15E-19,-0.050576975,0.0,0.0,0.0,-22889.21207,1004.785018,9.69455E-4,699.110486,420.1065829,3.67E-8,0.226092881,-1.400214945,0.0,0.0,0.0,0.384523179,228.9138951
12.2,3.71E-10,1.886741585,384.5455806,27636.99164,2.28E-5,-4.07E-19,32.11377894,-6.11E-25,-4.12E-19,-0.050995294,0.0,0.0,0.0,-23072.73484,1004.947894,9.70815E-4,700.3183766,420.2427928,3.71E-8,0.227659233,-1.424407687,0.0,0.0,0.0,0.387444079,230.6901507
12.3,3.74E-10,1.915104391,387.6018709,27598.38425,2.34E-5,-4.04E-19,32.11389738,-6.11E-25,-4.08E-19,-0.05141362,0.0,0.0,0.0,-23256.11226,1005.112049,9.72186E-4,701.5365972,420.3800945,3.74E-8,0.229218869,-1.448839108,0.0,0.0,0.0,0.390361967,232.4654722
12.4,3.78E-10,1.943664123,390.6557149,27559.47135,2.39E-5,-4.0E-19,32.11401676,-6.11E-25,-4.05E-19,-0.051831954,0.0,0.0,0.0,-23439.3429,1005.277474,9.73568E-4,702.7651005,420.518481,3.78E-8,0.230771638,-1.473509832,0.0,0.0,0.0,0.393276794,234.2398344
12.5,3.81E-10,1.972419997,393.7070888,27520.25319,2.44E-5,-3.97E-19,32.11413707,-6.11E-25,-4.01E-19,-0.052250297,0.0,0.0,0.0,-23622.42533,1005.444168,9.74961E-4,704.0039021,420.6579524,3.81E-8,0.232317453,-1.498420907,0.0,0.0,0.0,0.396188511,236.0132125
12.6,3.84E-10,2.001371214,396.7559684,27480.73001,2.5E-5,-3.93E-19,32.11425833,-6.12E-25,-3.98E-19,-0.052668646,0.0,0.0,0.0,-23805.3581,1005.61213,9.76365E-4,705.2530175,420.7985088,3.84E-8,0.233856162,-1.523572952,0.0,0.0,0.0,0.399097065,237.7855819
12.7,3.88E-10,2.030516965,399.8023298,27440.90208,2.55E-5,-3.9E-19,32.11438052,-6.12E-25,-3.95E-19,-0.053087004,0.0,0.0,0.0,-23988.13979,1005.781353,9.77779E-4,706.5123996,420.9401431,3.88E-8,0.235387679,-1.548967025,0.0,0.0,0.0,0.402002411,239.5569183
12.8,3.91E-10,2.059856425,402.8461488,27400.76963,2.61E-5,-3.86E-19,32.11450364,-6.12E-25,-3.91E-19,-0.05350537,0.0,0.0,0.0,-24170.76893,1005.951851,9.79204E-4,707.7821384,421.0828693,3.91E-8,0.23691185,-1.574603742,0.0,0.0,0.0,0.404904493,241.3271977
12.9,3.95E-10,2.089388758,405.8874011,27360.33293,2.66E-5,-3.83E-19,32.11462771,-6.12E-25,-3.88E-19,-0.053923744,0.0,0.0,0.0,-24353.24407,1006.123608,9.8064E-4,709.0622269,421.2266734,3.95E-8,0.238428553,-1.600483936,0.0,0.0,0.0,0.407803267,243.0963963
13.0,3.98E-10,2.119113112,408.9260625,27319.59224,2.72E-5,-3.8E-19,32.1147527,-6.12E-25,-3.84E-19,-0.054342126,0.0,0.0,0.0,-24535.56375,1006.296623,9.82087E-4,710.3526298,421.3715556,3.98E-8,0.239937683,-1.626608561,0.0,0.0,0.0,0.410698687,244.8644906
13.1,4.02E-10,2.149028625,411.9621086,27278.54781,2.78E-5,-3.76E-19,32.11487863,-6.12E-25,-3.81E-19,-0.054760516,0.0,0.0,0.0,-24717.72652,1006.470903,9.83545E-4,711.6534259,421.5175227,4.02E-8,0.241439101,-1.652978338,0.0,0.0,0.0,0.4135907,246.6314573
13.2,4.05E-10,2.179134419,414.9955149,27237.19991,2.84E-5,-3.73E-19,32.11500549,-6.12E-25,-3.77E-19,-0.055178915,0.0,0.0,0.0,-24899.73089,1006.64644,9.85013E-4,712.9645687,421.6645679,4.05E-8,0.242932701,-1.679594225,0.0,0.0,0.0,0.416479263,248.3972733
13.3,4.09E-10,2.209429603,418.0262568,27195.5488,2.9E-5,-3.69E-19,32.11513328,-6.12E-25,-3.74E-19,-0.055597321,0.0,0.0,0.0,-25081.57541,1006.823233,9.86493E-4,714.2860233,421.812691,4.09E-8,0.244418322,-1.706456817,0.0,0.0,0.0,0.419364327,250.1619156
13.4,4.12E-10,2.239913272,421.0543096,27153.59475,2.96E-5,-3.66E-19,32.11526201,-6.12E-25,-3.71E-19,-0.056015736,0.0,0.0,0.0,-25263.25858,1007.001281,9.87983E-4,715.6179085,421.9618922,4.12E-8,0.245895877,-1.733567196,0.0,0.0,0.0,0.422245848,251.9253616
13.5,4.16E-10,2.270584509,424.0796487,27111.33802,3.02E-5,-3.62E-19,32.11539166,-6.12E-25,-3.67E-19,-0.056434159,0.0,0.0,0.0,-25444.77892,1007.180576,9.89483E-4,716.9601268,422.1121646,4.16E-8,0.247365204,-1.760925953,0.0,0.0,0.0,0.42512378,253.6875887
13.6,4.19E-10,2.30144238,427.1022493,27068.77891,3.08E-5,-3.59E-19,32.11552225,-6.12E-25,-3.64E-19,-0.056852591,0.0,0.0,0.0,-25626.13496,1007.361132,9.90995E-4,718.3127692,422.2635219,4.19E-8,0.248826176,-1.788533917,0.0,0.0,0.0,0.427998073,255.4485747
13.7,4.23E-10,2.33248594,430.1220864,27025.91767,3.15E-5,-3.56E-19,32.11565376,-6.12E-25,-3.6E-19,-0.057271031,0.0,0.0,0.0,-25807.32518,1007.542934,9.92517E-4,719.675778,422.4159503,4.23E-8,0.250278703,-1.816392182,0.0,0.0,0.0,0.430868686,257.2082974
13.8,4.26E-10,2.363714228,433.1391351,26982.75458,3.21E-5,-3.52E-19,32.1157862,-6.12E-25,-3.57E-19,-0.05768948,0.0,0.0,0.0,-25988.3481,1007.725981,9.9405E-4,721.0492213,422.5694499,4.26E-8,0.251722602,-1.844501194,0.0,0.0,0.0,0.433735576,258.9667347
13.9,4.3E-10,2.395126272,436.1533703,26939.28993,3.28E-5,-3.49E-19,32.11591956,-6.12E-25,-3.54E-19,-0.058107937,0.0,0.0,0.0,-26169.20222,1007.910271,9.95593E-4,722.4330647,422.7240207,4.3E-8,0.253157781,-1.872862045,0.0,0.0,0.0,0.436598696,260.7238649
14.0,4.33E-10,2.426721082,439.1647669,26895.524,3.34E-5,-3.45E-19,32.11605386,-6.13E-25,-3.5E-19,-0.058526403,0.0,0.0,0.0,-26349.88601,1008.095804,9.97148E-4,723.8273251,422.8796626,4.33E-8,0.254584092,-1.901475437,0.0,0.0,0.0,0.439458003,262.4796663
14.1,4.37E-10,2.458497655,442.1732997,26851.45708,3.41E-5,-3.42E-19,32.11618908,-6.13E-25,-3.47E-19,-0.058944877,0.0,0.0,0.0,-26530.39798,1008.28258,9.98713E-4,725.2320198,423.0363757,4.37E-8,0.256001388,-1.930342062,0.0,0.0,0.0,0.442313452,264.2341172
14.2,4.41E-10,2.490454976,445.1789434,26807.08944,3.48E-5,-3.39E-19,32.11632522,-6.13E-25,-3.43E-19,-0.059363361,0.0,0.0,0.0,-26710.7366,1008.470597,0.001000288,726.6471145,423.19416,4.41E-8,0.257409573,-1.95946302,0.0,0.0,0.0,0.445165,265.9871964
14.3,4.44E-10,2.522592013,448.1816726,26762.42139,3.55E-5,-3.35E-19,32.11646228,-6.13E-25,-3.4E-19,-0.059781853,0.0,0.0,0.0,-26890.90036,1008.659855,0.001001875,728.0726781,423.3530154,4.44E-8,0.25880848,-1.988838865,0.0,0.0,0.0,0.448012602,267.7388825
14.4,4.48E-10,2.55490772,451.1814619,26717.4532,3.62E-5,-3.32E-19,32.11660027,-6.13E-25,-3.37E-19,-0.060200353,0.0,0.0,0.0,-27070.88771,1008.850346,0.001003472,729.5087162,423.5129352,4.48E-8,0.260197993,-2.018470559,0.0,0.0,0.0,0.450856219,269.4891544
14.5,4.51E-10,2.587401036,454.1782857,26672.18519,3.69E-5,-3.28E-19,32.11673918,-6.13E-25,-3.33E-19,-0.060618863,0.0,0.0,0.0,-27250.69714,1009.042067,0.001005079,730.9551948,423.6739192,4.51E-8,0.261577963,-2.048358785,0.0,0.0,0.0,0.453695808,271.2379911
14.6,4.55E-10,2.620070887,457.1721184,26626.61765,3.76E-5,-3.25E-19,32.11687901,-6.13E-25,-3.3E-19,-0.061037381,0.0,0.0,0.0,-27430.3271,1009.23502,0.001006698,732.4121316,423.8359676,4.55E-8,0.262948253,-2.078504359,0.0,0.0,0.0,0.456531326,272.9853716
14.7,4.59E-10,2.652916183,460.1629343,26580.75087,3.83E-5,-3.21E-19,32.11701976,-6.13E-25,-3.26E-19,-0.061455909,0.0,0.0,0.0,-27609.77606,1009.429211,0.001008326,733.8795563,423.9990871,4.59E-8,0.264308731,-2.1089081,0.0,0.0,0.0,0.459362727,274.7312751
14.8,4.62E-10,2.685935819,463.1507076,26534.58516,3.9E-5,-3.18E-19,32.11716143,-6.13E-25,-3.23E-19,-0.061874445,0.0,0.0,0.0,-27789.04246,1009.624623,0.001009966,735.3574628,424.163264,4.62E-8,0.265659258,-2.139570823,0.0,0.0,0.0,0.462189976,276.475681
14.9,4.66E-10,2.719128675,466.1354125,26488.12083,3.98E-5,-3.14E-19,32.11730402,-6.13E-25,-3.19E-19,-0.062292991,0.0,0.0,0.0,-27968.12475,1009.821263,0.001011616,736.8458811,424.3285052,4.66E-8,0.266999701,-2.170493341,0.0,0.0,0.0,0.465013028,278.2185686
15.0,4.7E-10,2.752493618,469.1170231,26441.35818,4.05E-5,-3.11E-19,32.11744753,-6.13E-25,-3.16E-19,-0.062711546,0.0,0.0,0.0,-28147.02138,1010.019124,0.001013277,738.3447656,424.4948039,4.7E-8,0.268329901,-2.201676312,0.0,0.0,0.0,0.467831844,279.9599174
15.1,4.73E-10,2.786029497,472.0955132,26394.29753,4.13E-5,-3.08E-19,32.11759195,-6.13E-25,-3.13E-19,-0.063130109,0.0,0.0,0.0,-28325.73079,1010.218211,0.001014948,739.8541981,424.6621669,4.73E-8,0.26964974,-2.233120694,0.0,0.0,0.0,0.470646379,281.699707
15.2,4.77E-10,2.819735148,475.070857,26346.93919,4.2E-5,-3.04E-19,32.11773728,-6.13E-25,-3.09E-19,-0.063548682,0.0,0.0,0.0,-28504.25142,1010.418517,0.00101663,741.3741333,424.8305873,4.77E-8,0.27095906,-2.264827138,0.0,0.0,0.0,0.473456596,283.437917
15.3,4.81E-10,2.85360939,478.0430281,26299.28347,4.28E-5,-3.01E-19,32.11788353,-6.13E-25,-3.06E-19,-0.063967265,0.0,0.0,0.0,-28682.58168,1010.62004,0.001018322,742.9045893,425.0000652,4.81E-8,0.272257722,-2.296796442,0.0,0.0,0.0,0.476262453,285.1745273
15.4,4.85E-10,2.887651028,481.0120003,26251.33069,4.36E-5,-2.97E-19,32.1180307,-6.13E-25,-3.02E-19,-0.064385856,0.0,0.0,0.0,-28860.72002,1010.822772,0.001020025,744.4455727,425.1705936,4.85E-8,0.273545584,-2.329029402,0.0,0.0,0.0,0.479063914,286.9095176
15.5,4.88E-10,2.9218597,483.9777399,26203.08117,4.44E-5,-2.94E-19,32.11817877,-6.14E-25,-2.99E-19,-0.064804457,0.0,0.0,0.0,-29038.6644,1011.026785,0.00102181,746.0493441,425.3422343,4.88E-8,0.274839594,-2.361673642,0.0,0.0,0.0,0.481860895,288.6428634
15.6,4.92E-10,2.956235445,486.9402095,26154.53525,4.52E-5,-2.91E-19,32.11832776,-6.14E-25,-2.96E-19,-0.065223067,0.0,0.0,0.0,-29216.41257,1011.232014,0.001023614,747.6696331,425.5149326,4.92E-8,0.276126881,-2.394623642,0.0,0.0,0.0,0.484653375,290.3745382
15.7,4.96E-10,2.990777044,489.8993819,26105.69324,4.6E-5,-2.87E-19,32.11847766,-6.14E-25,-2.93E-19,-0.065641687,0.0,0.0,0.0,-29393.96291,1011.438449,0.001025429,749.300812,425.6886813,4.96E-8,0.277403157,-2.427844983,0.0,0.0,0.0,0.487441319,292.1045215
15.8,5.0E-10,3.025483259,492.85523,26056.55549,4.68E-5,-2.84E-19,32.11862846,-6.14E-25,-2.89E-19,-0.066060316,0.0,0.0,0.0,-29571.3138,1011.64609,0.001027254,750.943004,425.8634807,5.0E-8,0.278668275,-2.461338509,0.0,0.0,0.0,0.490224685,293.8327931
15.9,5.04E-10,3.06035284,495.8077267,26007.12231,4.77E-5,-2.81E-19,32.11878018,-6.14E-25,-2.86E-19,-0.066478954,0.0,0.0,0.0,-29748.4636,1011.854943,0.001029091,752.5961891,426.0393375,5.04E-8,0.279922087,-2.49510506,0.0,0.0,0.0,0.493003429,295.559333
16.0,5.08E-10,3.095384517,498.7568448,25957.39405,4.85E-5,-2.78E-19,32.1189328,-6.15E-25,-2.83E-19,-0.066897602,0.0,0.0,0.0,-29925.41069,1012.064993,0.001030938,754.2603112,426.2162379,5.07E-8,0.281164444,-2.529145473,0.0,0.0,0.0,0.495777518,297.284121
16.1,5.11E-10,3.130577005,501.7025568,25907.37105,4.94E-5,-2.75E-19,32.11908633,-6.15E-25,-2.8E-19,-0.06731626,0.0,0.0,0.0,-30102.15341,1012.276247,0.001032796,755.9354543,426.394189,5.11E-8,0.282395196,-2.563460581,0.0,0.0,0.0,0.498546909,299.007137
16.2,5.15E-10,3.165929002,504.6448353,25857.05366,5.02E-5,-2.71E-19,32.11924077,-6.15E-25,-2.77E-19,-0.067734928,0.0,0.0,0.0,-30278.69012,1012.488695,0.001034666,757.6216261,426.5731837,5.15E-8,0.283614174,-2.598051038,0.0,0.0,0.0,0.501311566,300.728361
16.3,5.19E-10,3.201439191,507.583653,25806.4422,5.11E-5,-2.68E-19,32.11939611,-6.15E-25,-2.73E-19,-0.068153605,0.0,0.0,0.0,-30455.01918,1012.702344,0.001036546,759.3188072,426.7532291,5.19E-8,0.284821227,-2.63291766,0.0,0.0,0.0,0.504071445,302.4477731
16.4,5.23E-10,3.237106237,510.518982,25755.53704,5.2E-5,-2.65E-19,32.11955235,-6.16E-25,-2.7E-19,-0.068572292,0.0,0.0,0.0,-30631.13892,1012.917187,0.001038437,761.0269538,426.9343181,5.23E-8,0.28601622,-2.668061446,0.0,0.0,0.0,0.50682651,304.1653534
16.5,5.27E-10,3.272928789,513.4507949,25704.33852,5.29E-5,-2.62E-19,32.11970949,-6.16E-25,-2.67E-19,-0.068990988,0.0,0.0,0.0,-30807.0477,1013.133223,0.001040339,762.74619,427.1164508,5.27E-8,0.287198963,-2.703482845,0.0,0.0,0.0,0.509576722,305.8810819
16.6,5.31E-10,3.308905478,516.3790639,25652.847,5.38E-5,-2.58E-19,32.11986754,-6.16E-25,-2.64E-19,-0.069409694,0.0,0.0,0.0,-30982.74383,1013.350449,0.001042252,764.4764323,427.2996272,5.31E-8,0.288369321,-2.739182841,0.0,0.0,0.0,0.512322042,307.5949389
16.7,5.35E-10,3.345034919,519.3037611,25601.06283,5.47E-5,-2.55E-19,32.12002648,-6.16E-25,-2.61E-19,-0.069828411,0.0,0.0,0.0,-31158.22567,1013.568859,0.001044176,766.217741,427.4838405,5.35E-8,0.28952712,-2.775162049,0.0,0.0,0.0,0.515062434,309.3069046
16.8,5.39E-10,3.381315711,522.2248587,25548.98637,5.56E-5,-2.52E-19,32.12018633,-6.16E-25,-2.57E-19,-0.070247137,0.0,0.0,0.0,-31333.49152,1013.788458,0.001046111,767.9700971,427.6690974,5.39E-8,0.290672223,-2.811421448,0.0,0.0,0.0,0.517797856,311.0169591
16.9,5.43E-10,3.417746434,525.1423287,25496.61798,5.65E-5,-2.49E-19,32.12034707,-6.17E-25,-2.54E-19,-0.070665873,0.0,0.0,0.0,-31508.53972,1014.009238,0.001048056,769.7335088,427.8553912,5.43E-8,0.291804456,-2.847961637,0.0,0.0,0.0,0.520528274,312.7250829
17.0,5.47E-10,3.454325651,528.0561431,25443.95803,5.75E-5,-2.46E-19,32.12050871,-6.17E-25,-2.51E-19,-0.071084619,0.0,0.0,0.0,-31683.36859,1014.231199,0.001050013,771.507997,428.0427219,5.47E-8,0.29292364,-2.884783202,0.0,0.0,0.0,0.523253648,314.4312561
17.1,5.51E-10,3.491051909,530.9662738,25391.00688,5.84E-5,-2.43E-19,32.12067124,-6.17E-25,-2.48E-19,-0.071503375,0.0,0.0,0.0,-31857.97643,1014.454339,0.00105198,773.2935826,428.2310893,5.51E-8,0.294029657,-2.921887304,0.0,0.0,0.0,0.525973939,316.1354591
17.2,5.55E-10,3.527923737,533.8726925,25337.7649,5.94E-5,-2.39E-19,32.12083467,-6.18E-25,-2.45E-19,-0.071922141,0.0,0.0,0.0,-32032.36155,1014.678659,0.001053958,775.0902345,428.4204936,5.55E-8,0.29512231,-2.959274321,0.0,0.0,0.0,0.52868911,317.8376723
17.3,5.59E-10,3.564939647,536.775371,25284.23246,6.03E-5,-2.36E-19,32.12099899,-6.18E-25,-2.42E-19,-0.072340918,0.0,0.0,0.0,-32206.52226,1014.904147,0.001055947,776.8980134,428.6109279,5.59E-8,0.296201438,-2.996945009,0.0,0.0,0.0,0.531399127,319.537876
17.4,5.63E-10,3.602098133,539.6742811,25230.40995,6.13E-5,-2.33E-19,32.12116421,-6.18E-25,-2.39E-19,-0.072759704,0.0,0.0,0.0,-32380.45686,1015.130813,0.001057946,778.7169009,428.802399,5.63E-8,0.297266902,-3.034900322,0.0,0.0,0.0,0.534103947,321.2360507
17.5,5.67E-10,3.63939767,542.5693942,25176.29773,6.23E-5,-2.3E-19,32.12133031,-6.18E-25,-2.35E-19,-0.073178501,0.0,0.0,0.0,-32554.16365,1015.35864,0.001059957,780.5468411,428.9948932,5.67E-8,0.298318499,-3.073140601,0.0,0.0,0.0,0.53680354,322.9321769
17.6,5.71E-10,3.676836719,545.4606819,25121.8962,6.33E-5,-2.27E-19,32.12149731,-6.19E-25,-2.32E-19,-0.073597307,0.0,0.0,0.0,-32727.64091,1015.587642,0.001061978,782.3879845,429.1884242,5.71E-8,0.299356109,-3.111666993,0.0,0.0,0.0,0.539497861,324.6262349
17.7,5.75E-10,3.71441372,548.3481157,25067.20573,6.43E-5,-2.24E-19,32.1216652,-6.19E-25,-2.29E-19,-0.074016124,0.0,0.0,0.0,-32900.88694,1015.817802,0.00106401,784.2402234,429.3829784,5.75E-8,0.300379529,-3.150479818,0.0,0.0,0.0,0.54218688,326.3182053
17.8,5.79E-10,3.752127095,551.231667,25012.22671,6.53E-5,-2.2E-19,32.12183397,-6.19E-25,-2.26E-19,-0.074434952,0.0,0.0,0.0,-33073.90002,1016.04912,0.001066052,786.1035791,429.5785556,5.79E-8,0.301388596,-3.189579793,0.0,0.0,0.0,0.544870559,328.0080685
17.9,5.83E-10,3.789975251,554.1113071,24956.95952,6.64E-5,-2.17E-19,32.12200363,-6.19E-25,-2.23E-19,-0.074853789,0.0,0.0,0.0,-33246.67842,1016.281604,0.001068105,787.9780857,429.7751628,5.83E-8,0.302383145,-3.228967632,0.0,0.0,0.0,0.547548858,329.6958051
18.0,5.87E-10,3.827956575,556.9870072,24901.40458,6.74E-5,-2.14E-19,32.12217417,-6.2E-25,-2.2E-19,-0.075272637,0.0,0.0,0.0,-33419.22043,1016.515243,0.001070169,789.8638046,429.9727931,5.87E-8,0.303363012,-3.268644041,0.0,0.0,0.0,0.550221741,331.3813957
18.1,5.91E-10,3.866069436,559.8587385,24845.56226,6.85E-5,-2.11E-19,32.1223456,-6.2E-25,-2.16E-19,-0.075691496,0.0,0.0,0.0,-33591.52431,1016.750038,0.001072244,791.760653,430.1714465,5.91E-8,0.304328031,-3.308609717,0.0,0.0,0.0,0.552889174,333.0648207
18.2,5.96E-10,3.904312184,562.7264723,24789.43296,6.95E-5,-2.08E-19,32.12251791,-6.2E-25,-2.13E-19,-0.076110365,0.0,0.0,0.0,-33763.58834,1016.985988,0.001074329,793.6686528,430.371123,5.95E-8,0.305278036,-3.348865351,0.0,0.0,0.0,0.555551118,334.7460608
18.3,6.0E-10,3.942683154,565.5901795,24733.0171,7.06E-5,-2.04E-19,32.1226911,-6.2E-25,-2.1E-19,-0.076529244,0.0,0.0,0.0,-33935.41077,1017.223083,0.001076425,795.5878655,430.5718158,6.0E-8,0.30621284,-3.389411406,0.0,0.0,0.0,0.55820754,336.4250965
18.4,6.04E-10,3.981180659,568.4498311,24676.31506,7.17E-5,-2.01E-19,32.12286518,-6.2E-25,-2.07E-19,-0.076948134,0.0,0.0,0.0,-34106.98986,1017.461323,0.001078532,797.5182607,430.7735248,6.04E-8,0.307132276,-3.430248549,0.0,0.0,0.0,0.560858405,338.1019084
18.5,6.08E-10,4.019802995,571.305398,24619.32727,7.28E-5,-1.98E-19,32.12304013,-6.21E-25,-2.04E-19,-0.077367035,0.0,0.0,0.0,-34278.32388,1017.700707,0.001080649,799.4598606,430.97625,6.08E-8,0.308036175,-3.471377444,0.0,0.0,0.0,0.563503675,339.7764771
18.6,6.12E-10,4.058549235,574.1568421,24562.05412,7.39E-5,-1.95E-19,32.12321596,-6.21E-25,-2.0E-19,-0.077785946,0.0,0.0,0.0,-34449.41053,1017.9413,0.001082851,801.4678407,431.1800464,6.12E-8,0.308942817,-3.513008521,0.0,0.0,0.0,0.566143268,341.4487779
18.7,6.17E-10,4.097419494,577.0041124,24504.49604,7.5E-5,-1.91E-19,32.12339267,-6.21E-25,-1.97E-19,-0.078204867,0.0,0.0,0.0,-34620.24674,1018.183035,0.001085086,803.5035933,431.384859,6.16E-8,0.309842708,-3.555041116,0.0,0.0,0.0,0.568777163,343.1187784
18.8,6.21E-10,4.136412085,579.8471782,24446.65344,7.61E-5,-1.88E-19,32.12357025,-6.21E-25,-1.94E-19,-0.078623799,0.0,0.0,0.0,-34790.83069,1018.425919,0.001087332,805.5510664,431.5906947,6.21E-8,0.310726683,-3.597374626,0.0,0.0,0.0,0.571405316,344.7864585
18.9,6.25E-10,4.175525241,582.6860094,24388.52674,7.73E-5,-1.84E-19,32.12374871,-6.21E-25,-1.9E-19,-0.079042742,0.0,0.0,0.0,-34961.16057,1018.669928,0.001089589,807.6101401,431.797533,6.25E-8,0.311594565,-3.640009735,0.0,0.0,0.0,0.574027705,346.4517983
19.0,6.3E-10,4.214757178,585.5205761,24330.11638,7.84E-5,-1.81E-19,32.12392804,-6.21E-25,-1.87E-19,-0.079461696,0.0,0.0,0.0,-35131.23457,1018.915078,0.001091858,809.6809159,432.0053874,6.29E-8,0.312446157,-3.682946882,0.0,0.0,0.0,0.576644284,348.1147782
19.1,6.34E-10,4.254106091,588.350848,24271.42277,7.96E-5,-1.78E-19,32.12410824,-6.21E-25,-1.84E-19,-0.07988066,0.0,0.0,0.0,-35301.05088,1019.161358,0.001094137,811.7633521,432.2142513,6.34E-8,0.313281302,-3.726186966,0.0,0.0,0.0,0.57925502,349.7753782
19.2,6.38E-10,4.293570155,591.1767949,24212.44636,8.07E-5,-1.74E-19,32.12428932,-6.21E-25,-1.8E-19,-0.080299636,0.0,0.0,0.0,-35470.60769,1019.40876,0.001096427,813.8574595,432.4241176,6.38E-8,0.31409978,-3.769730159,0.0,0.0,0.0,0.581859881,351.4335787
19.3,6.43E-10,4.333147527,593.9983865,24153.18756,8.19E-5,-1.71E-19,32.12447126,-6.22E-25,-1.77E-19,-0.080718622,0.0,0.0,0.0,-35639.90319,1019.657284,0.001098728,815.9632617,432.6349864,6.42E-8,0.314901453,-3.813577586,0.0,0.0,0.0,0.58445883,353.0893598
19.4,6.47E-10,4.372836343,596.8155924,24093.64683,8.31E-5,-1.67E-19,32.12465407,-6.22E-25,-1.73E-19,-0.081137618,0.0,0.0,0.0,-35808.93555,1019.906928,0.00110104,818.0807825,432.8468578,6.47E-8,0.315686101,-3.857729391,0.0,0.0,0.0,0.587051832,354.742702
19.5,6.51E-10,4.41263472,599.6283824,24033.82459,8.43E-5,-1.64E-19,32.12483774,-6.22E-25,-1.7E-19,-0.081556626,0.0,0.0,0.0,-35977.70294,1020.1577,0.001103363,820.2100062,433.0597385,6.51E-8,0.316453543,-3.902186187,0.0,0.0,0.0,0.589638844,356.3935853
19.6,6.56E-10,4.452540756,602.4367258,23973.7213,8.55E-5,-1.61E-19,32.12502228,-6.22E-25,-1.67E-19,-0.081975645,0.0,0.0,0.0,-36146.20355,1020.409583,0.001105697,822.3509308,433.2736148,6.56E-8,0.317203619,-3.946948833,0.0,0.0,0.0,0.592219841,358.04199
19.7,6.6E-10,4.492552527,605.2405923,23913.33739,8.67E-5,-1.57E-19,32.12520769,-6.22E-25,-1.63E-19,-0.082394674,0.0,0.0,0.0,-36314.43554,1020.662576,0.001108042,824.5035275,433.4884868,6.6E-8,0.317936107,-3.992017419,0.0,0.0,0.0,0.594794786,359.6878965
19.8,6.65E-10,4.532668092,608.0399512,23852.67333,8.8E-5,-1.54E-19,32.12539396,-6.22E-25,-1.6E-19,-0.082813715,0.0,0.0,0.0,-36482.39707,1020.916686,0.001110398,826.667939,433.7043613,6.64E-8,0.318650845,-4.037392781,0.0,0.0,0.0,0.597363638,361.3312849
19.9,6.69E-10,4.572885488,610.8347719,23791.72956,8.92E-5,-1.51E-19,32.12558108,-6.22E-25,-1.57E-19,-0.083232766,0.0,0.0,0.0,-36650.08631,1021.171896,0.001112764,828.844005,433.9212245,6.69E-8,0.31934765,-4.083075491,0.0,0.0,0.0,0.599926371,362.9721355
20.0,6.73E-10,4.613202732,613.6250238,23730.50653,9.05E-5,-1.47E-19,32.12576907,-6.22E-25,-1.53E-19,-0.083651829,0.0,0.0,0.0,-36817.50143,1021.428218,0.001115142,831.0318749,434.1390868,6.73E-8,0.320026299,-4.129065589,0.0,0.0,0.0,0.602482941,364.6104287
20.1,6.78E-10,4.653617821,616.4106762,23669.00471,9.17E-5,-1.44E-19,32.12595792,-6.22E-25,-1.5E-19,-0.084070902,0.0,0.0,0.0,-36984.64057,1021.685643,0.00111753,833.2315072,434.3579414,6.78E-8,0.320686629,-4.175363876,0.0,0.0,0.0,0.605033318,366.2461446
20.2,6.82E-10,4.694128734,619.1916983,23607.22455,9.3E-5,-1.41E-19,32.12614762,-6.23E-25,-1.47E-19,-0.084489987,0.0,0.0,0.0,-37151.5019,1021.944165,0.001119929,835.442867,434.5777847,6.82E-8,0.321328455,-4.221970887,0.0,0.0,0.0,0.607577468,367.8792636
20.3,6.87E-10,4.734733428,621.9680592,23545.16652,9.43E-5,-1.37E-19,32.12633818,-6.23E-25,-1.43E-19,-0.084909082,0.0,0.0,0.0,-37318.08355,1022.203784,0.001122339,837.6659785,434.7986167,6.87E-8,0.321951593,-4.268887144,0.0,0.0,0.0,0.610115357,369.5097659
20.4,6.91E-10,4.775429839,624.7397283,23482.83109,9.56E-5,-1.34E-19,32.12652959,-6.23E-25,-1.4E-19,-0.085328189,0.0,0.0,0.0,-37484.3837,1022.464495,0.00112476,839.9009126,435.0204341,6.91E-8,0.322555818,-4.316112615,0.0,0.0,0.0,0.61264695,371.1376318
20.5,6.96E-10,4.816215884,627.5066745,23420.21873,9.69E-5,-1.3E-19,32.12672185,-6.23E-25,-1.37E-19,-0.085747307,0.0,0.0,0.0,-37650.40047,1022.726301,0.001127191,842.1475947,435.2432403,6.96E-8,0.323140964,-4.363648059,0.0,0.0,0.0,0.615172211,372.7628417
20.6,7.0E-10,4.85708946,630.2688669,23357.32992,9.82E-5,-1.27E-19,32.12691497,-6.23E-25,-1.33E-19,-0.086166436,0.0,0.0,0.0,-37816.13202,1022.989194,0.001129633,844.4060891,435.4670284,7.0E-8,0.323706846,-4.411493958,0.0,0.0,0.0,0.617691108,374.3853757
20.7,7.05E-10,4.898048443,633.0262746,23294.16512,9.96E-5,-1.24E-19,32.12710894,-6.23E-25,-1.3E-19,-0.086585577,0.0,0.0,0.0,-37981.57648,1023.253172,0.001132086,846.6763677,435.6917983,7.05E-8,0.324253257,-4.459650501,0.0,0.0,0.0,0.620203607,376.0052142
20.8,7.1E-10,4.939090688,635.7788666,23230.72482,1.00921E-4,-1.2E-19,32.12730375,-6.23E-25,-1.26E-19,-0.087004728,0.0,0.0,0.0,-38146.732,1023.518235,0.001134549,848.9585081,435.9175502,7.09E-8,0.32478001,-4.508118139,0.0,0.0,0.0,0.622709673,377.6223376
20.9,7.14E-10,4.980214032,638.5266117,23167.00951,1.02278E-4,-1.17E-19,32.12749941,-6.23E-25,-1.23E-19,-0.087423891,0.0,0.0,0.0,-38311.5967,1023.784378,0.001137024,851.2524226,436.1442805,7.14E-8,0.325286919,-4.556897308,0.0,0.0,0.0,0.625209272,379.2367261
21.0,7.19E-10,5.02141629,641.269479,23103.01967,1.03646E-4,-1.13E-19,32.12769592,-6.23E-25,-1.2E-19,-0.087843065,0.0,0.0,0.0,-38476.16874,1024.051595,0.001139508,853.5581294,436.3719859,7.19E-8,0.325773776,-4.605988147,0.0,0.0,0.0,0.627702374,380.8483599
21.1,7.23E-10,5.062695254,644.0074373,23038.75578,1.05025E-4,-1.1E-19,32.12789327,-6.23E-25,-1.16E-19,-0.08826225,0.0,0.0,0.0,-38640.44624,1024.319887,0.001142004,855.8757065,436.6006664,7.23E-8,0.326240414,-4.65539135,0.0,0.0,0.0,0.630188943,382.4572196
21.2,7.28E-10,5.104048701,646.7404555,22974.21834,1.06415E-4,-1.07E-19,32.12809146,-6.24E-25,-1.13E-19,-0.088681447,0.0,0.0,0.0,-38804.42733,1024.589252,0.00114451,858.2050727,436.8303218,7.28E-8,0.326686625,-4.705107026,0.0,0.0,0.0,0.632668944,384.0632852
21.3,7.33E-10,5.145475551,649.468485,22909.40786,1.07817E-4,-1.03E-19,32.12829049,-6.24E-25,-1.1E-19,-0.089100655,0.0,0.0,0.0,-38968.1091,1024.859685,0.001147124,860.6193739,437.0609489,7.33E-8,0.327136777,-4.75549253,0.0,0.0,0.0,0.635142329,385.666527
21.4,7.37E-10,5.18697547,652.1914654,22844.32482,1.0923E-4,-1.0E-19,32.12849037,-6.24E-25,-1.07E-19,-0.089519874,0.0,0.0,0.0,-39131.48792,1025.131186,0.001149764,863.0567514,437.2925475,7.37E-8,0.32757342,-4.806304958,0.0,0.0,0.0,0.637609035,387.2669079
21.5,7.42E-10,5.228546181,654.9093643,22778.96973,1.10654E-4,-9.69E-20,32.12869108,-6.24E-25,-1.03E-19,-0.089939105,0.0,0.0,0.0,-39294.56186,1025.403745,0.001152414,865.5064355,437.5251109,7.42E-8,0.327989076,-4.857439832,0.0,0.0,0.0,0.640069031,388.8644075
21.6,7.47E-10,5.270185375,657.6221497,22713.34311,1.1209E-4,-9.37E-20,32.12889262,-6.24E-25,-1.0E-19,-0.090358347,0.0,0.0,0.0,-39457.32898,1025.677366,0.001155076,867.9684062,437.7586425,7.47E-8,0.328383549,-4.908897539,0.0,0.0,0.0,0.64252228,390.4590057
21.7,7.52E-10,5.311890721,660.3297893,22647.44547,1.13537E-4,-9.04E-20,32.129095,-6.25E-25,-9.69E-20,-0.0907776,0.0,0.0,0.0,-39619.78736,1025.952044,0.001157748,870.4426829,437.9931388,7.52E-8,0.328756622,-4.960678142,0.0,0.0,0.0,0.64496875,392.0506823
21.8,7.57E-10,5.353659866,663.0322509,22581.27733,1.14995E-4,-8.72E-20,32.12929822,-6.25E-25,-9.37E-20,-0.091196865,0.0,0.0,0.0,-39781.93505,1026.227774,0.001160432,872.9293389,438.2285964,7.56E-8,0.329108077,-5.012781686,0.0,0.0,0.0,0.647408408,393.6394171
21.9,7.61E-10,5.395490436,665.7295022,22514.8392,1.16465E-4,-8.39E-20,32.12950227,-6.25E-25,-9.05E-20,-0.091616141,0.0,0.0,0.0,-39943.77013,1026.504555,0.001163126,875.4282407,438.4650153,7.61E-8,0.329437758,-5.065209113,0.0,0.0,0.0,0.64984122,395.22519
22.0,7.66E-10,5.437380034,668.4215109,22448.13161,1.17947E-4,-8.07E-20,32.12970714,-6.25E-25,-8.73E-20,-0.092035429,0.0,0.0,0.0,-40105.29066,1026.782383,0.001165832,877.9395147,438.7023921,7.66E-8,0.329745407,-5.117959815,0.0,0.0,0.0,0.652267154,396.8079807
22.1,7.71E-10,5.479326242,671.1082449,22381.15507,1.1944E-4,-7.74E-20,32.12991285,-6.25E-25,-8.4E-20,-0.092454728,0.0,0.0,0.0,-40266.49469,1027.061256,0.001168548,880.4631344,438.9407268,7.71E-8,0.330030867,-5.171034709,0.0,0.0,0.0,0.654686175,398.3877692
22.2,7.76E-10,5.521326622,673.7896717,22313.91013,1.20944E-4,-7.42E-20,32.13011938,-6.26E-25,-8.08E-20,-0.092874039,0.0,0.0,0.0,-40427.3803,1027.34117,0.001171275,882.9991196,439.1800159,7.76E-8,0.330293901,-5.224433452,0.0,0.0,0.0,0.657098252,399.9645352
22.3,7.81E-10,5.563378713,676.4657589,22246.39732,1.2246E-4,-7.09E-20,32.13032674,-6.26E-25,-7.76E-20,-0.093293361,0.0,0.0,0.0,-40587.94554,1027.622123,0.001174013,885.5474437,439.4202594,7.81E-8,0.330534329,-5.278156619,0.0,0.0,0.0,0.65950335,401.5382586
22.4,7.86E-10,5.605480033,679.1364744,22178.61716,1.23988E-4,-6.76E-20,32.13053492,-6.26E-25,-7.43E-20,-0.093712695,0.0,0.0,0.0,-40748.18846,1027.904112,0.001176762,888.1081267,439.6614539,7.86E-8,0.330751935,-5.332204141,0.0,0.0,0.0,0.661901437,403.1089194
22.5,7.91E-10,5.647628077,681.8017857,22110.5702,1.25526E-4,-6.44E-20,32.13074392,-6.26E-25,-7.11E-20,-0.09413204,0.0,0.0,0.0,-40908.10714,1028.18713,0.001179522,890.6811885,439.903596,7.9E-8,0.330946501,-5.38657592,0.0,0.0,0.0,0.664292484,404.6764973
22.6,7.95E-10,5.68982032,684.4616604,22042.25699,1.27077E-4,-6.11E-20,32.13095374,-6.26E-25,-6.78E-20,-0.094551397,0.0,0.0,0.0,-41067.69962,1028.471182,0.001182293,893.2666096,440.1466891,7.95E-8,0.331117849,-5.441272488,0.0,0.0,0.0,0.666676452,406.2409723
22.7,8.0E-10,5.732054215,687.1160661,21973.67806,1.28639E-4,-5.78E-20,32.13116438,-6.27E-25,-6.46E-20,-0.094970765,0.0,0.0,0.0,-41226.96397,1028.756258,0.001185074,895.8644566,440.3907264,8.0E-8,0.33126578,-5.49629404,0.0,0.0,0.0,0.669053314,407.8023242
22.8,8.05E-10,5.774327193,689.7649706,21904.83396,1.30213E-4,-5.46E-20,32.13137584,-6.27E-25,-6.13E-20,-0.095390145,0.0,0.0,0.0,-41385.89823,1029.042353,0.001187866,898.4746424,440.6357043,8.05E-8,0.331390058,-5.551640092,0.0,0.0,0.0,0.671423039,409.360533
22.9,8.1E-10,5.816636663,692.4083413,21835.72525,1.31798E-4,-5.13E-20,32.13158812,-6.27E-25,-5.81E-20,-0.095809536,0.0,0.0,0.0,-41544.50048,1029.329471,0.001190669,901.0972548,440.8816264,8.1E-8,0.331490485,-5.607310794,0.0,0.0,0.0,0.67378559,410.9155786
23.0,8.15E-10,5.858980014,695.0461458,21766.35248,1.33395E-4,-4.8E-20,32.1318012,-6.27E-25,-5.48E-20,-0.096228939,0.0,0.0,0.0,-41702.76875,1029.617607,0.001193482,903.7322603,441.1284892,8.15E-8,0.331566902,-5.66330695,0.0,0.0,0.0,0.676140937,412.4674409
23.1,8.2E-10,5.90135461,697.6783519,21696.71621,1.35003E-4,-4.47E-20,32.1320151,-6.27E-25,-5.15E-20,-0.096648354,0.0,0.0,0.0,-41860.70111,1029.906756,0.001196306,906.3796254,441.3762893,8.2E-8,0.331619013,-5.719626997,0.0,0.0,0.0,0.67848905,414.0160999
23.2,8.25E-10,5.943757799,700.3049269,21626.81699,1.36623E-4,-4.14E-20,32.13222981,-6.27E-25,-4.82E-20,-0.09706778,0.0,0.0,0.0,-42018.29562,1030.196913,0.001199141,909.0394776,441.6250232,8.25E-8,0.331646738,-5.776273058,0.0,0.0,0.0,0.680829897,415.5615356
23.3,8.3E-10,5.986186902,702.9258387,21556.65541,1.38254E-4,-3.81E-20,32.13244533,-6.28E-25,-4.5E-20,-0.097487218,0.0,0.0,0.0,-42175.55032,1030.488077,0.001201987,911.711737,441.8746909,8.3E-8,0.331649763,-5.833243175,0.0,0.0,0.0,0.683163445,417.1037278
23.4,8.35E-10,6.028639222,705.5410547,21486.23202,1.39898E-4,-3.48E-20,32.13266166,-6.28E-25,-4.17E-20,-0.097906667,0.0,0.0,0.0,-42332.46328,1030.780247,0.001204843,914.3963232,442.1252925,8.35E-8,0.331627929,-5.890538083,0.0,0.0,0.0,0.685489663,418.6426567
