time,eiPosition_ft_X,eiPosition_ft_Y,eiPosition_ft_Z,gePosition_ft_X,gePosition_ft_Y,gePosition_ft_Z,eiVelocity_ft_s_X,eiVelocity_ft_s_Y,eiVelocity_ft_s_Z,feVelocity_ft_s_X,feVelocity_ft_s_Y,feVelocity_ft_s_Z,altitudeMsl_ft,longitude_deg,latitude_deg,localGravity_ft_s2,eulerAngle_deg_Yaw,eulerAngle_deg_Pitch,eulerAngle_deg_Roll,bodyAngularRateWrtEi_deg_s_Roll,bodyAngularRateWrtEi_deg_s_Pitch,bodyAngularRateWrtEi_deg_s_Yaw,altitudeRateWrtMsl_ft_min,speedOfSound_ft_s,airDensity_slug_ft3,ambientPressure_lbf_ft2,ambientTemperature_dgR,aero_bodyForce_lbf_X,aero_bodyForce_lbf_Y,aero_bodyForce_lbf_Z,aero_bodyMoment_ftlbf_L,aero_bodyMoment_ftlbf_M,aero_bodyMoment_ftlbf_N,mach,dynamicPressure_lbf_ft2,trueAirspeed_nmi_h,feVelocity_ft_s_Z
0.0,2.0955646325459316E7,0.0,0.0,2.0955646325459316E7,0.0,0.0,0.0,1528.1098290457676,0.0,0.0,0.0,0.0,30000.0,0.0,0.0,32.10653595191867,0.0,-0.0,0.0,0.0,0.0,6.718855644083851E-19,-0.0,994.8487845641213,8.906867503799385E-4,629.6672472120785,411.8388730822483,1.31181241381351E-17,0.042847045032962806,-0.0,-0.0,0.0,-0.0,0.07036244869232178,2.182182550430298,41.4738655090332,0.0
0.009999999776482582,2.0955646323853996E7,15.281100432468222,9.895352502747128E-20,2.0955646323859572E7,2.1431784524850173E-6,9.89535250274713E-20,-0.32106441964224436,1528.1102574026704,1.979067491021955E-17,1.9938137802913528E-19,4.2870727591978557E-4,0.31995010391291007,29999.998400256038,5.859761048312747E-12,2.7055330407828956E-25,32.1065359568286,-6.286468132578326E-41,1.7241821476757288E-34,-4.178074718216509E-5,0.0,0.0,6.718855644083851E-19,-19.197006234774605,994.8487914348453,8.90686802738856E-4,629.6672929243368,411.83887877081384,1.3134405253712542E-17,0.04284696456288889,-1.9581126431869242E-4,-0.0,0.0,-0.0,0.07036275416612625,2.1822011470794678,41.47404098510742,0.31995010391291007
0.019999999552965164,2.0955646319038037E7,30.56220514730659,3.9581229925622637E-19,2.0955646319060322E7,8.57573450474547E-6,3.9581229925622637E-19,-0.642126842076558,1528.1106855242792,3.958097649666745E-17,3.985117834179767E-19,8.57880001183663E-4,0.6398982096802086,29999.993601005524,2.344730321678103E-11,1.0822082927656432E-24,32.106535971558415,-2.011670084760991E-39,2.758691436280616E-33,-8.35615060921113E-5,0.0,0.0,6.718855644083851E-19,-38.39389258081252,994.8488120470971,8.906869598162323E-4,629.6674300616605,411.8388958365767,1.31470523218034E-17,0.04284777219194622,-3.9163116544050643E-4,-0.0,0.0,0.0,0.07036450505256653,2.1823108196258545,41.47507858276367,0.6398982096802086
0.029999999329447746,2.0955646311011467E7,45.84331414224501,8.905729543599787E-19,2.0955646311061613E7,1.9302405455334792E-5,8.905729543599787E-19,-0.9631873064155906,1528.1111134242797,5.937118378901918E-17,5.976678509057555E-19,0.0012875318552433785,0.9598443564141732,29999.98560229689,5.2775578983559984E-11,2.4349557573124876E-24,32.10653599610798,-6.035011101914126E-39,5.5173828725593976E-33,-1.2534227674279108E-4,0.0,0.0,6.718855644083851E-19,-57.59066138485039,994.8488464006679,8.906872216105248E-4,629.6676586227139,411.83892427936456,1.3195647269040917E-17,0.042849467803937946,-5.874719824402708E-4,-0.0,0.0,0.0,0.0703677237033844,2.1825110912323,41.47697830200195,0.9598443564141732
0.03999999910593033,2.09556462997743E7,61.1244274151118,1.5832351730063243E-18,2.0955646299863454E7,3.432802698455362E-5,1.5832351730063247E-18,-1.2842458124869454,1528.1115411115509,7.916121704589338E-17,7.96769849692179E-19,0.001717671712235714,1.2797885439420018,29999.97440413758,9.385780982755661E-11,4.328794831325159E-24,32.10653603047727,1.2132853246536767E-20,1.7694853202734344E-26,-1.6712305914742595E-4,0.0,0.0,6.718855644083851E-19,-76.78731263652011,994.8488944955241,8.906875881215601E-4,629.6679786073648,411.8389640991511,1.3189316786771181E-17,0.04285205123306199,-7.833459675962787E-4,-0.0,0.0,-0.0,0.07037240266799927,2.182802200317383,41.479732513427734,1.2797885439420018
0.05000000074505806,2.095564628532656E7,76.40554496382407,2.473796902256734E-18,2.0955646285465848E7,5.365752345198871E-5,2.473796902256734E-18,-1.6053023599957212,1528.1119685949695,9.89510792491671E-17,9.95820779738621E-19,0.002148308443569268,1.5997307719683542,29999.960006531328,1.4670745970051317E-10,6.763719903506523E-24,32.10653607466628,-4.0233418660564216E-38,2.2069531490214124E-32,-2.0890385331947986E-4,0.0,0.0,6.718855644083851E-19,-95.98384631810126,994.848956331648,8.906880593493164E-4,629.6683900156207,411.8390152959231,1.3178483819437413E-17,0.04285552225815135,-9.79265369113499E-4,-0.0,0.0,0.0,0.07037853449583054,2.1831839084625244,41.48335266113281,1.5997307719683542
0.05999999865889549,2.0955646267668255E7,91.68666678638765,3.562254716687423E-18,2.095564626786884E7,7.729590799954167E-5,3.562254716687424E-18,-1.92635694852456,1528.1123958834105,1.1874049479951368E-16,1.1945450673030691E-18,0.0025794509179244605,1.9196710400754031,29999.94240952283,2.1133823530872339E-10,9.739721610481121E-24,32.10653612867487,-2.4265706493041274E-20,-5.308454144374785E-26,-2.506846592726594E-4,0.0,0.0,6.718855644083851E-19,-115.18026240452419,994.8490319088451,8.906886352924574E-4,629.6688928463487,411.8390778695216,1.3235371970841343E-17,0.042859880602826216,-0.001175242429877293,-0.0,0.0,-0.0,0.0703861266374588,2.183656692504883,41.48782730102539,1.9196710400754031
0.07000000029802322,2.095564624679942E7,106.96779288089712,4.848607534454341E-18,2.0955646247072436E7,1.0524828225300098E-4,4.848607534454342E-18,-2.247409577533705,1528.1128229857457,1.3852992783524958E-16,1.3934068837832137E-18,0.0030111080014809137,2.2396093477228893,29999.921613119543,2.8776408529710926E-10,1.325679699705638E-23,32.106536192503,-1.126536039786926E-37,4.4139062980357827E-32,-2.924654770209136E-4,0.0,0.0,6.718855644083851E-19,-134.37656086337336,994.84912122708,8.906893159508952E-4,629.6694870995142,411.8391518199201,1.3323513732012696E-17,0.04286512593540538,-0.001371289386208555,-0.0,0.0,-0.0,0.07039517164230347,2.184220314025879,41.4931640625,2.2396093477228893
0.07999999821186066,2.095564622272007E7,122.24892324553578,6.332852430662812E-18,2.0955646223076656E7,1.3751983667020795E-4,6.332852430662814E-18,-2.5684602463610755,1528.1132499108423,1.5831908815788442E-16,1.5921160712623177E-18,0.0034432885565532194,2.5595456942481953,29999.897617340088,3.7599920120117905E-10,1.7314938069367346E-23,32.10653626615063,-2.5749398825573135E-37,8.827812596062765E-32,-3.3424630657843344E-4,0.0,0.0,6.718855644083851E-19,-153.57274165489173,994.8492242862695,8.90690101324205E-4,629.6701727747951,411.8392371470526,1.3362817580296746E-17,0.042871257869102175,-0.0015674184666221995,-0.0,0.0,-0.0,0.07040567696094513,2.1848745346069336,41.49936294555664,2.5595456942481953
0.09000000357627869,2.0955646195430223E7,137.53005787857552,8.01498906174544E-18,2.0955646195881523E7,1.741158502284179E-4,8.01498906174544E-18,-2.8895089542223458,1528.1136766675645,1.781083374924527E-16,1.7910344028356095E-18,0.003876001441818315,2.87948007886643,29999.87042220682,4.760580165922506E-10,2.1914143891768235E-23,32.1065363496177,-5.793615553253803E-37,1.7655625192105578E-31,-3.760271479596529E-4,0.0,0.0,6.718855644083851E-19,-172.7688047319858,994.8493410863132,8.906909914118674E-4,629.6709498717951,411.8393338508396,1.3131778011342152E-17,0.04287827596211809,-0.0017636418905885938,-0.0,0.0,0.0,0.07041763514280319,2.185619592666626,41.50641632080078,2.87948007886643
0.10000000149011612,2.0955646164929897E7,152.81119677837694,9.895012284025901E-18,2.095564616548706E7,2.150416905521979E-4,9.895012284025903E-18,-3.2105557002110476,1528.114103264771,1.9789674149143627E-16,1.9892275865268985E-18,0.004309255510041757,3.1994125006705256,29999.840027742088,5.879552074271645E-10,2.7054400404914077E-23,32.10653644290412,-6.437351523791266E-37,1.765562519208328E-31,-4.178080011792479E-4,0.0,0.0,6.718855644083851E-19,-191.96475004023154,994.8494716271105,8.906919862133922E-4,629.6718183901504,411.83944193120163,1.3301003595887053E-17,0.04288617971776474,-0.0019599718672987983,-0.0,0.0,-0.0,0.07043105363845825,2.186455488204956,41.51432800292969,3.1994125006705256
0.10999999940395355,2.095564613121911E7,168.0923399433892,1.1972921817864317E-17,2.095564613189328E7,2.6030281370026387E-4,1.197292181786432E-17,-3.531600483298676,1528.1145297113164,2.176850364351517E-16,2.1874319656690455E-18,0.004743059610578837,3.519342958631346,29999.80643396452,7.117056914654917E-10,3.2735706848937375E-23,32.10653654600985,-7.0810876769567654E-37,1.7655625192058637E-31,-4.595888662521359E-4,0.0,0.0,6.718855644083851E-19,-211.16057751788074,994.849615908576,8.90693085728439E-4,629.6727783296361,411.83956138807275,1.3289964923461906E-17,0.042894968584596266,-0.002156420594433954,-0.0,0.0,0.0,0.07044591754674911,2.187382221221924,41.52309799194336,3.519342958631346
0.11999999731779099,2.0955646094297893E7,183.3734873721498,1.424871521762949E-17,2.0955646095100205E7,3.099047640091612E-4,1.424871521762949E-17,-3.85264330233481,1528.1149560160482,2.3747366991426356E-16,2.3860952014104264E-18,0.005177422585054488,3.8392714515978037,29999.76964088902,8.47324627842156E-10,3.89580565423314E-23,32.10653665893483,-1.544964802596758E-36,3.531125038406329E-31,-5.013697431934763E-4,0.0,0.0,6.718855644083851E-19,-230.35628709586823,994.8497739306398,8.906942899568174E-4,629.6738296901651,411.8396922213999,1.3301479506500075E-17,0.042904641956574834,-0.0023530002569396896,-0.0,0.0,0.0,0.07046224176883698,2.18839955329895,41.5327262878418,3.8392714515978037
0.12999999523162842,2.0955646054166257E7,198.65463906328498,1.6722391315371623E-17,2.095564605510786E7,3.6385317457643396E-4,1.6722391315371626E-17,-4.173684156047248,1528.1153821878083,2.572614041632332E-16,2.5839796061548406E-18,0.005612353270091776,4.159197978297003,29999.729648545384,9.948274183885145E-10,4.572144629745149E-23,32.106536781678976,-1.6737121064219103E-36,3.53112503840046E-31,-5.43150632018671E-4,0.0,0.0,6.718855644083851E-19,-249.5518786978202,994.8499456931677,8.906955988978784E-4,629.6749724712581,411.8398344310773,1.348410059730731E-17,0.04291519917328334,-0.002549723025805986,-0.0,0.0,-0.0,0.07048001885414124,2.1895077228546143,41.543212890625,4.159197978297003
0.14000000059604645,2.0955646010824222E7,213.9357950155091,1.9393945218958662E-17,2.0955646011916257E7,4.221537666069253E-4,1.9393945218958665E-17,-4.494723043042152,1528.1158082354316,2.7704885873136996E-16,2.781704814604135E-18,0.006047860494583423,4.479122537334378,29999.686456941068,1.1542297058450743E-9,5.302586274469337E-23,32.10653691424228,-4.853141298556641E-20,-2.4772814005971703E-25,-5.849315327433624E-4,0.0,0.0,6.718855644083851E-19,-268.7473522400627,994.8501311961204,8.906970125517322E-4,629.676206673106,411.8399880170785,1.3420111706210726E-17,0.042926639520044114,-0.002746601056852261,-0.0,0.0,0.0,0.0704992488026619,2.190706729888916,41.5545539855957,4.479122537334378
0.15000000596046448,2.0955645964271802E7,229.21695522762496,2.2263374788214556E-17,2.0955645965525415E7,4.8481234955488617E-4,2.2263374788214562E-17,-4.815759961804207,1528.1162341677452,2.968373595497211E-16,2.980596850638439E-18,0.006483953081510803,4.799045127193852,29999.64006609842,1.3255473742500636E-9,6.087130003919566E-23,32.106537056624646,9.706282597094573E-20,5.308475021414498E-25,-6.267124453834352E-4,0.0,0.0,6.718855644083851E-19,-287.94270763163115,994.8503304393948,8.906985309180302E-4,629.6775322955069,411.84015297932433,1.3541389727725564E-17,0.0429389622282043,-0.002943646489519745,-0.0,0.0,-0.0,0.07051992416381836,2.1919965744018555,41.566749572753906,4.799045127193852
0.1599999964237213,2.0955645914509024E7,244.4981196985236,2.5330682766327337E-17,2.0955645915935352E7,5.518348211239754E-4,2.5330682766327337E-17,-5.136794910696789,1528.1166599935689,3.166240367626255E-16,3.1777859588594825E-18,0.006920639843623846,5.118965746238009,29999.59047603607,1.5087965489394586E-9,6.9257765688419E-23,32.10653720882603,-8.239816952405714E-36,1.4124500153520166E-30,-6.684933699550137E-4,0.0,0.0,6.718855644083851E-19,-307.1379447742806,994.8505434229027,8.907001539965735E-4,629.6789493383969,411.8403293177486,1.3189932011525365E-17,0.04295216647532815,-0.003140871445670187,-0.0,0.0,0.0,0.07054204493761063,2.1933772563934326,41.57979965209961,5.118965746238009
0.17000000178813934,2.0955645861535907E7,259.77928842718416,2.859585539412555E-17,2.0955645863146108E7,6.23227167125151E-4,2.859585539412556E-17,-5.457827887962147,1528.1170857217137,3.3641087422857516E-16,3.375256105441026E-18,0.007357929586624282,5.4388843927082755,29999.53768679127,1.7039935961584636E-9,7.818522208047204E-23,32.10653737084633,-4.3774033777897275E-36,7.062250076744592E-31,-7.10274306474465E-4,0.0,0.0,6.718855644083851E-19,-326.33306356249653,994.8507701464754,8.907018817865832E-4,629.6804578012134,411.8405170322191,1.3571781053775225E-17,0.04296625138548187,-0.003338288028392345,-0.0,0.0,0.0,0.0705656185746193,2.1948485374450684,41.59370040893555,5.4388843927082755
0.18000000715255737,2.095564580535247E7,275.0604614126739,3.2058899314095616E-17,2.0955645807157677E7,6.98995461107188E-4,3.205889931409562E-17,-5.778858891721598,1528.1175113609813,3.561983094727173E-16,3.573444930618843E-18,0.0077958311071192775,5.758801064725106,29999.481698360294,1.9111551220513244E-9,8.765368738505459E-23,32.10653754268553,4.85314129851535E-20,3.185084957754679E-25,-7.52055254958395E-4,0.0,0.0,6.718855644083851E-19,-345.5280638835064,994.8510106101195,8.907037142886474E-4,629.6820576845946,411.84071612274903,1.3451323292398836E-17,0.04298121602936925,-0.0035359083208150155,-0.0,0.0,-0.0,0.07059063762426376,2.196410655975342,41.60845947265625,5.758801064725106
0.1899999976158142,2.0955645745958738E7,290.3416386541479,3.571981859275567E-17,2.0955645747970093E7,7.791458648966909E-4,3.571981859275568E-17,-6.099887919975732,1528.1179369201645,3.759858736638694E-16,3.77188372569319E-18,0.008234353191939329,6.078715760288209,29999.42251077667,2.1302979741378257E-9,9.766317272929061E-23,32.10653772434355,-9.784786804551795E-36,1.4124500153421586E-30,-7.938362154236514E-4,0.0,0.0,6.718855644083851E-19,-364.72294561729257,994.8512648136817,8.907056515021664E-4,629.6837489881499,411.8409265892196,1.3358596927633285E-17,0.04299705942476992,-0.0037337443849310334,-0.0,0.0,-0.0,0.07061709463596344,2.198063611984253,41.62406539916992,6.078715760288209
0.20000000298023224,2.0955645683354717E7,305.6228201508494,3.957861095223828E-17,2.0955645685583364E7,8.636846281433463E-4,3.9578610952238286E-17,-6.420914970604625,1528.1183624080452,3.95772767406276E-16,3.9697732247731895E-18,0.008673504617456139,6.398628477276737,29999.360124047846,2.361439240069977E-9,1.0821367189432807E-22,32.10653791582036,-1.029977705076854E-35,1.412450015338497E-30,-8.356171878873213E-4,0.0,0.0,6.718855644083851E-19,-383.91770863660423,994.8515327571195,8.907076934274193E-4,629.685531712263,411.8411484316043,1.3737316800499006E-17,0.04301378053669637,-0.0039318082604273465,-0.0,0.0,-0.0,0.07064500451087952,2.1998074054718018,41.640525817871094,6.398628477276737
0.20999999344348907,2.095564561754044E7,320.90400590210913,4.3635275297281325E-17,2.0955645619997527E7,9.526180878651758E-4,4.363527529728134E-17,-6.7419400413680775,1528.1187878333956,4.155594002083765E-16,4.167523073528925E-18,0.009113294150264755,6.71853921344954,29999.294538211077,2.604596246388692E-9,1.1930518189522495E-22,32.10653811711585,-1.0814767445089349E-35,1.4124500153346478E-30,-8.773981723667316E-4,0.0,0.0,6.718855644083851E-19,-403.11235280697235,994.8518144402619,8.907098400637411E-4,629.687405856501,411.8413816497711,1.3743321896047974E-17,0.04303137827781478,-0.004130111963526871,-0.0,0.0,-0.0,0.0706743448972702,2.201641798019409,41.657833099365234,6.71853921344954
0.2199999988079071,2.0955645548515923E7,336.18519590734564,4.78898037411301E-17,2.0955645551212586E7,0.0010459526687327525,4.78898037411301E-17,-7.062963129905845,1528.119213204976,4.3534582834535446E-16,4.3651896917277406E-18,0.009553730544682457,7.038447966445383,29999.22575327009,2.8597865593009175E-9,1.3093768117860736E-22,32.10653832823001,-1.1329757987730682E-35,1.4124500153306109E-30,-9.19179168879449E-4,0.0,0.0,6.718855644083851E-19,-422.30687798672295,994.8521098630818,8.907120914115902E-4,629.6893714214192,411.84162624370674,1.379825705811979E-17,0.043049851508634836,-0.004328667485837629,-0.0,0.0,-0.0,0.07070513069629669,2.2035670280456543,41.67599105834961,7.038447966445383
0.23000000417232513,2.0955645476281185E7,351.46639016606497,5.2342198094860986E-17,2.0955645479228564E7,0.0011436948834102623,5.234219809486098E-17,-7.383984233737896,1528.1196385315354,4.551318195665806E-16,4.5625409806605574E-18,0.009994822545249879,7.358354733783225,29999.153769247234,3.127027985612166E-9,1.4311117470687585E-22,32.10653854916276,-4.7378994715647765E-35,5.649800061305545E-30,-9.609601774432792E-4,0.0,0.0,6.718855644083851E-19,-441.50128402699346,994.852419025471,8.907144474708448E-4,629.6914284070745,411.8418822133321,1.3657824040462658E-17,0.043069199037949965,-0.004527486793214484,-0.0,0.0,-0.0,0.07073735445737839,2.205583095550537,41.69499588012695,7.358354733783225
0.23999999463558197,2.0955645400836244E7,366.74758867786056,5.699244889791384E-17,2.0955645404045496E7,0.0012458513311912611,5.699244889791384E-17,-7.705003350264672,1528.1200638218104,4.749187113413001E-16,4.7609145688135945E-18,0.010436578881956163,7.6782595128624616,29999.078586179763,3.406338568996509E-9,1.5582563662463438E-22,32.106538779914,-2.4719479037710944E-35,2.824900030643947E-30,-0.0010027411980762665,0.0,0.0,6.718855644083851E-19,-460.69557077174767,994.852741927257,8.907169082409234E-4,629.6935768131294,411.8421495585149,1.3558367587764079E-17,0.043089419623184425,-0.004726581824630845,-0.0,0.0,0.0,0.07077100872993469,2.2076897621154785,41.714847564697266,7.6782595128624616
0.25,2.0955645322181117E7,382.0287914424133,6.184056086610434E-17,2.095564532566338E7,0.0013524286994766044,6.184056086610435E-17,-8.026020476767364,1528.1204890845252,4.947036653430485E-16,4.957472296267843E-18,0.010879008273876953,7.998162300963202,29999.000204063952,3.6977365940374917E-9,1.6908107983725368E-22,32.106539020483716,-2.5749461015573167E-35,2.824900030634746E-30,-0.0010445222307966953,0.0,0.0,6.718855644083851E-19,-479.8897380577921,994.8530785684427,8.90719473722613E-4,629.6958166404494,411.8424282792686,1.378043879206637E-17,0.043110511970635285,-0.0049259644910594775,-0.0,0.0,0.0,0.0708060935139656,2.2098875045776367,41.73554229736328,7.998162300963202
0.25999999046325684,2.0955645240315836E7,397.3099984594911,6.688652954571119E-17,2.0955645244082246E7,0.0014634337618986137,6.688652954571119E-17,-8.347035610408193,1528.1209143283907,5.144893381880438E-16,5.154870953072958E-18,0.011322119425536415,8.318063095246554,29998.918622929603,4.001240581099355E-9,1.8287749217975327E-22,32.106539270871856,-2.6779443291866975E-35,2.82490003062517E-30,-0.0010863032756230865,0.0,0.0,6.718855644083851E-19,-499.08378571479324,994.8534289488866,8.907221439156342E-4,629.6981478889758,411.84271837548755,1.3510646479279853E-17,0.04313247473601021,-0.005125646674368813,-0.0,0.0,0.0,0.07084261626005173,2.2121758460998535,41.757083892822266,8.318063095246554
0.27000001072883606,2.095564515524041E7,412.591209728949,7.213035335554073E-17,2.0955645159302123E7,0.0015788733795147891,7.213035335554074E-17,-8.668048748230719,1528.121339562104,5.342750013865598E-16,5.3523822306022685E-18,0.01176592102895361,8.63796189275494,29998.833842806518,4.3168692895908506E-9,1.9721486934155607E-22,32.1065395310783,-2.78094258670547E-35,2.824900030615218E-30,-0.0011280843325741994,0.0,0.0,6.718855644083851E-19,-518.2777135652965,994.8537930684465,8.907249188197342E-4,629.7005705586813,411.84301984706605,1.3280880326793474E-17,0.04315530652474592,-0.005325640226228038,-0.0,0.0,0.0,0.07088056206703186,2.214554786682129,41.77946853637695,8.63796189275494
0.2800000011920929,2.0955645066954866E7,427.87242525072884,7.757202094586415E-17,2.0955645071323015E7,0.0016987545002393745,7.757202094586415E-17,-8.989059887160135,1528.1217647943486,5.540589112150321E-16,5.548262593641318E-18,0.012210421761596143,8.957858690412376,29998.745863698423,4.644641716411101E-9,2.120931803039854E-22,32.10653980110304,-2.8839408741604474E-35,2.8249000306048906E-30,-0.0011698654016690305,0.0,0.0,6.718855644083851E-19,-537.4715214247426,994.8541709270916,8.907277984355415E-4,629.7030846503152,411.84333269399104,1.3711812928910181E-17,0.04317900589236124,-0.005525956967024918,-0.0,0.0,-0.0,0.0709199383854866,2.217024803161621,41.80269241333008,8.957858690412376
0.28999999165534973,2.095564497545922E7,443.15364502485926,8.321153761125848E-17,2.095564498014496E7,0.0018230841586728275,8.32115376112585E-17,-9.310069024003585,1528.122190033792,5.7384377449602E-16,5.7452190603286285E-18,0.012655630285470659,9.277753485024807,29998.65468564257,4.984577095483365E-9,2.275124395568112E-22,32.106540080945976,-5.973878383198068E-35,5.649800061188374E-30,-0.0012116464829268134,0.0,0.0,6.718855644083851E-19,-556.6652091014884,994.8545625246464,8.907307827626166E-4,629.7056901637022,411.8436569161304,1.3923549901257336E-17,0.043203571345001045,-0.0057266086847988775,-0.0,0.0,0.0,0.07096073776483536,2.219585418701172,41.82675552368164,9.277753485024807
0.30000001192092896,2.0955644880753495E7,458.4348690514556,8.904891199626536E-17,2.095564488576796E7,0.0019518694759881328,8.904891199626539E-17,-9.63107615545051,1528.122615289088,5.936313612898656E-16,5.945021893795535E-18,0.013101555248487108,9.59764627328043,29998.560308642685,5.336694897444251E-9,2.4347267074958912E-22,32.106540370607085,-6.179875078138429E-35,5.649800061166219E-30,-0.0012534275763670195,0.0,0.0,6.718855644083851E-19,-575.8587763968259,994.8549678610793,8.907338718016463E-4,629.7083870996577,411.84399251347116,1.388984000174941E-17,0.04322900133972573,-0.005927607134183319,-0.0,0.0,-0.0,0.07100295275449753,2.2222368717193604,41.85165786743164,9.59764627328043
0.3100000023841858,2.0955644782837704E7,473.7160973307197,9.508414913191113E-17,2.0955644788192037E7,0.002085117659646585,9.508414913191113E-17,-9.952081278072963,1528.1230405688732,6.134172510081056E-16,6.143250715557528E-18,0.013548205282185009,9.917537051750037,29998.46273272112,5.701014828866651E-9,2.599738876524945E-22,32.1065406700863,9.706282596619723E-20,1.097090077008444E-24,-0.0012952086820093554,0.0,0.0,6.718855644083851E-19,-595.0522231050022,994.8553869362779,8.907370655527342E-4,629.7111754584959,411.8443394859342,1.3924698936114E-17,0.043255294285067,-0.006128964035365337,-0.0,0.0,0.0,0.07104659080505371,2.2249789237976074,41.87739562988281,9.917537051750037
0.3199999928474426,2.095564468171187E7,488.9973298629394,1.0131723400512011E-16,2.0955644687417217E7,0.0022228360033409444,1.0131723400512011E-16,-10.273084388325982,1528.1234658817693,6.332003135642762E-16,6.338775656296818E-18,0.013995589001960827,10.237425816887363,29998.361957900226,6.077556832104357E-9,2.770160492327092E-22,32.10654097938355,9.706282596579076E-20,1.132480060410378E-24,-0.001336989799873763,0.0,0.0,6.718855644083851E-19,-614.2455490132418,994.855819750129,8.907403640160135E-4,629.7140552405639,411.84469783344025,1.3332184549365532E-17,0.04328244854144511,-0.006330691073057028,-0.0,0.0,0.0,0.07109164446592331,2.2278120517730713,41.90397262573242,10.237425816887363
0.33000001311302185,2.095564457737602E7,504.27856664848883,1.0774814374661888E-16,2.0955644583443526E7,0.0023650318869385956,1.0774814374661891E-16,-10.594085482547925,1528.123891236381,6.529832996482698E-16,6.534347630197978E-18,0.01444371500638586,10.55731256502944,29998.257984209806,6.4663410851366804E-9,2.9459909297792245E-22,32.10654129849877,9.70628259653713E-20,1.1678757039818107E-24,-0.0013787709299804196,0.0,0.0,6.718855644083851E-19,-633.4387539017664,994.8562663024873,8.907437671914019E-4,629.7170264460289,411.8450675558839,1.3865737745510155E-17,0.043310462421653956,-0.0065327998954819175,-0.0,0.0,-0.0,0.07113810628652573,2.2307357788085938,41.93137741088867,10.55731256502944
0.3400000035762787,2.0955644469830167E7,519.5598076878282,1.143769008611883E-16,2.0955644476270977E7,0.0025117127760267977,1.1437690086118832E-16,-10.91508455696087,1528.1243166412958,6.727684505198414E-16,6.732208128430174E-18,0.014892591877888373,10.877197292396987,29998.150811661035,6.867388000325151E-9,3.127230804355807E-22,32.10654162743189,1.9412565192987816E-19,2.4065257664797538E-24,-0.0014205520723497393,0.0,0.0,6.718855644083851E-19,-652.6318375438192,994.8567265932865,8.907472750794543E-4,629.7200890756208,411.84544865322533,1.4137928041556244E-17,0.04333933419128633,-0.006735302113374759,-0.0,0.0,0.0,0.07118598371744156,2.233750104904175,41.959617614746094,10.877197292396987
0.3499999940395355,2.095564435907433E7,534.8410529815035,1.2120350725310565E-16,2.095564436589958E7,0.00266288622231059,1.2120350725310565E-16,-11.236081607670968,1528.1247421050837,6.9255370646023055E-16,6.930297670747604E-18,0.015342228180934605,11.197079995094759,29998.04044026509,7.280718225501471E-9,3.3138801682885427E-22,32.10654196618289,1.941256519289878E-19,2.4773057956043612E-24,-0.0014623332270023682,0.0,0.0,6.718855644083851E-19,-671.8247997056856,994.85720062246,8.90750887680755E-4,629.7232431301042,411.8458411254255,1.373691820653469E-17,0.04336906206926707,-0.006938209298997912,-0.0,0.0,0.0,0.07123526930809021,2.2368555068969727,41.98868942260742,11.197079995094759
0.36000001430511475,2.0955644245108537E7,550.122302530146,1.282279596858574E-16,2.0955644252329376E7,0.0028185598624759223,1.2822795968585743E-16,-11.557076630668844,1528.1251676362965,7.123383667411276E-16,7.127915774431417E-18,0.015792632460437165,11.516960669111965,29997.926870059222,7.706352640859185E-9,3.5059389332573875E-22,32.106542314751664,1.9412565192807159E-19,2.5480914953728106E-24,-0.001504114393959188,0.0,0.0,6.718855644083851E-19,-691.0176401467179,994.8576883898288,8.907546049950627E-4,629.7264886095295,411.8462449723523,1.418832052739755E-17,0.04339964422841238,-0.007141532985173313,-0.0,0.0,0.0,0.07128596305847168,2.240051507949829,42.018585205078125,11.516960669111965
0.3700000047683716,2.09556441279328E7,565.4035563344728,1.354502711716151E-16,2.0955644135560375E7,0.002978741419042308,1.3545027117161512E-16,-11.878069621829994,1528.1255932434678,7.321240365113388E-16,7.326667840929483E-18,0.016243813245165644,11.836839310322643,29997.810101058334,8.144312361285008E-9,3.703407455209938E-22,32.10654267313815,-1.524370726559133E-34,1.1299600121980182E-29,-0.0015458955732413123,0.0,0.0,6.718855644083851E-19,-710.2103586193587,994.858189895309,8.90758427022896E-4,629.7298255146184,411.84666019395297,1.4343597157855056E-17,0.04343107879583906,-0.007345284664326856,-0.0,0.0,-0.0,0.07133805006742477,2.2433383464813232,42.049312591552734,11.836839310322643
0.3799999952316284,2.0955644007547148E7,580.684814395286,1.4287043303954436E-16,2.0955644015592594E7,0.003143438699567014,1.4287043303954439E-16,-12.1990605769152,1528.126018935112,7.51908369433291E-16,7.524207792336867E-18,0.01669577904297177,12.156715914486096,29997.690133277327,8.594618734182995E-9,3.906285497253826E-22,32.10654304134232,-1.5655701623671446E-34,1.129960012192385E-29,-0.00158767676487009,0.0,0.0,6.718855644083851E-19,-729.4029548691658,994.8587051388162,8.907623537648011E-4,629.7332538461243,411.8470867901749,1.3757228871116411E-17,0.04346336385354139,-0.0075494757875518475,-0.0,0.0,0.0,0.07139153778553009,2.246715784072876,42.08086395263672,12.156715914486096
0.38999998569488525,2.0955643883951593E7,595.9660767134728,1.5048842370245855E-16,2.0955643892426055E7,0.0033126595964176886,1.5048842370245858E-16,-12.520049491570939,1528.1264447197238,7.716888146007141E-16,7.717984989052507E-18,0.017148538343517906,12.476590477247287,29997.566966738552,9.057293338852909E-9,4.1145724693497648E-22,32.106543419364094,-1.606769610370965E-34,1.1299600121866017E-29,-0.0016294579688670985,0.0,0.0,6.718855644083851E-19,-748.5954286348372,994.8592341202337,8.907663852211101E-4,629.7367736046214,411.8475247609391,1.40902363490065E-17,0.04349649743893832,-0.007754117763687354,-0.0,0.0,-0.0,0.07144642621278763,2.2501842975616455,42.11323547363281,12.476590477247287
0.4000000059604645,2.0955643757146165E7,611.2473432900055,1.5830424523846496E-16,2.0955643766060784E7,0.003486412086886048,1.5830424523846494E-16,-12.841036361329815,1528.1268706057792,7.914739339003612E-16,7.916561591473201E-18,0.01760209961577594,12.796462994137265,29997.440601468086,9.532357986801101E-9,4.32826842850698E-22,32.10654380720341,-1.6479690705920975E-34,1.1299600121806682E-29,-0.0016712391852541503,0.0,0.0,6.718855644083851E-19,-767.7877796482359,994.8597768394279,8.907705213920598E-4,629.7403847906078,411.8479741061532,1.453432791075025E-17,0.04353047754541314,-0.00795922195841297,-0.0,0.0,-0.0,0.0715027004480362,2.2537434101104736,42.14643096923828,12.796462994137265
0.4099999964237213,2.0955643627130874E7,626.5286141259404,1.6631791688906765E-16,2.09556436364968E7,0.003664704232960503,1.6631791688906765E-16,-13.162021181610994,1528.1272966017327,8.112600560785155E-16,8.116266626473714E-18,0.01805647130916416,13.11633346057364,29997.311037484556,1.0019834721118876E-8,4.547373901011902E-22,32.106544204860185,-1.6891685430522745E-34,1.1299600121745845E-29,-0.0017130204140532895,0.0,0.0,6.718855644083851E-19,-786.9800076344185,994.860333296297,8.907747622781605E-4,629.7440874048285,411.84843482575127,1.464356520415954E-17,0.043565302122843576,-0.008164799693359636,-0.0,0.0,-0.0,0.07156036049127579,2.2573931217193604,42.180442810058594,13.11633346057364
0.41999998688697815,2.0955643493905745E7,641.809889222419,1.7452944346735745E-16,2.0955643503734127E7,0.003847544181098783,1.745294434673575E-16,-13.483003947720649,1528.127722716018,8.310449953630675E-16,8.314914609456988E-18,0.018511661851500896,13.436201871860971,29997.178274810314,1.0519745815860853E-8,4.771889018662108E-22,32.10654461233437,-1.7303680277734513E-34,1.1299600121683505E-29,-0.001754801655286787,0.0,0.0,6.718855644083851E-19,-806.1721123116583,994.8609034907223,8.907791078798297E-4,629.7478814479546,411.84890691965444,1.3926282869951722E-17,0.043600969078190555,-0.008370862245238348,-0.0,0.0,0.0,0.071619413793087,2.261133909225464,42.215274810791016,13.436201871860971
0.4300000071525574,2.0955643357470807E7,657.0911685806666,1.8293880298383994E-16,2.0955643367772777E7,0.004034940161204759,1.8293880298383994E-16,-13.803984654852412,1528.128148957049,8.508264104090153E-16,8.51016448982569E-18,0.01896767964991403,13.756068223191258,29997.04231346026,1.10321137732475E-8,5.001813180438427E-22,32.106545029625906,-1.7715675247778152E-34,1.1299600121619665E-29,-0.0017965829089771502,0.0,0.0,6.718855644083851E-19,-825.3640933914755,994.861487422617,8.907835581977544E-4,629.7517669209006,411.8493903878101,1.4225907780746175E-17,0.04363747627604617,-0.00857742084498484,-0.0,0.0,-0.0,0.07167984545230865,2.264965295791626,42.250919342041016,13.756068223191258
0.4399999976158142,2.0955643217826065E7,672.3724522019927,1.9154598924828536E-16,2.0955643228612773E7,0.00422690048833374,1.915459892482854E-16,-14.12496329808784,1528.128575333217,8.706099636687842E-16,8.70767902127558E-18,0.019424533091068362,14.075932509644392,29996.903153456748,1.1556961328327697E-8,5.2371462173015385E-22,32.10654545673474,-1.812767034087775E-34,1.1299600121554319E-29,-0.0018383641751471087,0.0,0.0,6.718855644083851E-19,-844.5559505786636,994.862085091861,8.907881132324084E-4,629.7557438244017,411.84988523013914,1.415549774741184E-17,0.043674821539245345,-0.008784486676922646,-0.0,0.0,-0.0,0.07174165546894073,2.268887519836426,42.287376403808594,14.075932509644392
0.44999998807907104,2.0955643074971545E7,687.6537400877905,2.00351007149512E-16,2.0955643086254135E7,0.004423433560646117,2.0035100714951204E-16,-14.445939872396881,1528.129001852891,8.903933939856322E-16,8.905197355170026E-18,0.019882230536845527,14.395794726188624,29996.7607948184,1.2094311443383734E-8,5.477888263134361E-22,32.106545893660815,-5.561899667177914E-34,3.389880036446241E-29,-0.0018801454538196285,0.0,0.0,6.718855644083851E-19,-863.7476835713175,994.8626964983504,8.907927729844147E-4,629.7598121593319,411.8503914465759,1.418715210982699E-17,0.043713002649436346,-0.008992070877943065,-0.0,0.0,-0.0,0.07180483639240265,2.272900342941284,42.32464599609375,14.395794726188624
0.46000000834465027,2.095564292890727E7,702.9350322395368,2.0935384654804606E-16,2.0955642940696884E7,0.0046245478594073575,2.093538465480461E-16,-14.766914372638352,1528.1294285244187,9.101752547349301E-16,9.101273181792027E-18,0.020340780330255718,14.715654867681051,29996.615237567574,1.2644187307931353E-8,5.724039040929384E-22,32.10654634040405,-7.5806643588610515E-34,4.5198400485676494E-29,-0.0019219267450178977,0.0,0.0,6.718855644083851E-19,-882.9392920608631,994.8633216419644,8.907975374543034E-4,629.7639719264905,411.8509090370412,1.483905028287461E-17,0.04375201734768593,-0.009200184536702419,-0.0,0.0,-0.0,0.071869395673275,2.2770042419433594,42.36272430419922,14.715654867681051
0.4699999988079071,2.0955642779633265E7,718.2163286587919,2.185545119320735E-16,2.095564279194104E7,0.004830251949670128,2.185545119320735E-16,-15.087886793560429,1528.1298553561242,9.299560308222693E-16,9.296391728421885E-18,0.020800190787706972,15.035512928868089,29996.46648172289,1.320661234058481E-8,5.975598673625566E-22,32.106546796964395,-3.8727312721574765E-34,2.2599200242698549E-29,-0.0019637080487653353,0.0,0.0,6.718855644083851E-19,-902.1307757320853,994.8639605225975,8.908024066427534E-4,629.7682231268153,411.8514380014693,1.406385244100551E-17,0.04379186333507714,-0.009408838692838078,-0.0,0.0,0.0,0.07193531841039658,2.281198740005493,42.401611328125,15.035512928868089
0.47999998927116394,2.095564262714954E7,733.4976293471989,2.279529787079565E-16,2.0955642639986634E7,0.005040554480501669,2.2795297870795657E-16,-15.408857129801136,1528.130282356309,9.497347202341841E-16,9.489551310028927E-18,0.02126047020605378,15.355368904385994,29996.31452731788,1.3781610189678585E-8,6.232566489027397E-22,32.10654726334175,-3.955130389679416E-34,2.2599200242555832E-29,-0.002005489365085587,0.0,0.0,6.718855644083851E-19,-921.3221342631597,994.8646131400801,8.90807380549987E-4,629.7725657608527,411.8519783397417,1.4434545860330103E-17,0.04383253827335029,-0.009618044336201807,-0.0,0.0,-0.0,0.0720026046037674,2.2854838371276855,42.44129943847656,15.355368904385994
0.49000000953674316,2.0955642471456125E7,748.7789343064841,2.3754924429571413E-16,2.095564248483367E7,0.0052554641814595016,2.375492442957142E-16,-15.729825375888858,1528.1307095332502,9.695194344638264E-16,9.688863754916549E-18,0.021721626855775868,15.675222788761321,29996.159374352545,1.436920472363152E-8,6.494942416829745E-22,32.10654773953612,-4.037529532043415E-34,2.2599200242410128E-29,-0.0020472706940025255,0.0,0.0,6.718855644083851E-19,-940.5133673256793,994.8652794943856,8.90812459177349E-4,629.7769998301364,411.8525300518587,1.43913979054157E-17,0.043874039785429225,-0.009827812406110178,-0.0,0.0,-0.0,0.07207124680280685,2.2898600101470947,42.481788635253906,15.675222788761321
0.5,2.095564231255304E7,764.0602435384563,2.4734334037056123E-16,2.095564232648218E7,0.005474989866229407,2.473433403705613E-16,-16.050791526242833,1528.1311368952013,9.893005866741189E-16,9.884742567843033E-18,0.022183668983934073,15.995074576411476,29996.001022864133,1.4969420040893584E-8,6.762727323319398E-22,32.10654822554737,-4.119928699296983E-34,2.259920024226141E-29,-0.0020890520355402466,0.0,0.0,6.718855644083851E-19,-959.7044745846886,994.8659595853271,8.908176425249957E-4,629.7815253351705,411.8530931376884,1.4464241651299923E-17,0.04391636545618744,-0.010038153790616873,-0.0,0.0,0.0,0.07214125245809555,2.2943267822265625,42.52307891845703,15.995074576411476
0.5099999904632568,2.09556421504403E7,779.3415570450069,2.573352565895761E-16,2.0955642164932176E7,0.005699140430692751,2.573352565895761E-16,-16.371755575173676,1528.131564450392,1.0090814483343675E-15,1.0080459566603442E-17,0.02264660481507983,16.314924261645192,29995.839472860098,1.5582280464661758E-8,7.035920925951036E-22,32.1065487213755,-4.2023278914880775E-34,2.2599200242109692E-29,-0.002130833389723075,0.0,0.0,6.718855644083851E-19,-978.8954556987115,994.8666534128449,8.908229305940851E-4,629.7861422773407,411.85366759720466,1.3522505988611989E-17,0.04395951283293904,-0.010249079325798015,-0.0,0.0,0.0,0.0722125992178917,2.298884391784668,42.56516647338867,16.314924261645192
0.5199999809265137,2.0955641985117935E7,794.6228748281092,2.675249727098807E-16,2.09556420001837E7,0.005927924853722288,2.6752497270988073E-16,-16.692717516883917,1528.1319922070268,1.0288627076178456E-15,1.0276703279579605E-17,0.023110442546480345,16.634771838663124,29995.674724385142,1.620781054505587E-8,7.314522671505041E-22,32.106549227020366,-4.284727108665103E-34,2.2599200241954964E-29,-0.0021726147565755585,0.0,0.0,6.718855644083851E-19,-998.0863103197875,994.8673609767192,8.908283233845861E-4,629.7908506570028,411.8542534302493,1.4407122438553393E-17,0.04400347942621822,-0.010460599795062215,-0.0,0.0,-0.0,0.07228530198335648,2.303532838821411,42.60805130004883,16.634771838663124
0.5299999713897705,2.0955641816585958E7,809.9041968898186,2.779125054716147E-16,2.0955641832236752E7,0.006161352193998937,2.7791250547161473E-16,-17.013677345468505,1528.1324201732853,1.0486450376778121E-15,1.0474147221729309E-17,0.02357519035198394,16.95461730155826,29995.50677743554,1.6846035050415284E-8,7.598533017936353E-22,32.10654974248199,-4.367126350876901E-34,2.2599200241797242E-29,-0.0022143961361224675,0.0,0.0,6.718855644083851E-19,-1017.2770380934957,994.868082276937,8.908338208980805E-4,629.7956504759277,411.854850636836,1.4861258866606055E-17,0.044048262710239046,-0.010672725928471759,-0.0,0.0,0.0,0.0723593458533287,2.308271884918213,42.65172576904297,16.95461730155826
0.5400000214576721,2.0955641644844394E7,825.1855232322722,2.8849787332364833E-16,2.0955641661091365E7,0.006399431593081317,2.884978733236484E-16,-17.334635054915356,1528.132848357321,1.0684279562070158E-15,1.0672309454054623E-17,0.02404085637951896,17.274460644316584,29995.335632048547,1.7496978975691492E-8,7.887952469924058E-22,32.106550267760234,-1.941256519071682E-19,-3.822113402553231E-24,-0.002256177528388798,0.0,0.0,6.718855644083851E-19,-1036.467638658995,994.8688173133093,8.908394231348366E-4,629.8005417347474,411.85545921683274,1.425269058776522E-17,0.04409386012372821,-0.010885468402090483,-0.0,0.0,0.0,0.07243473082780838,2.3131017684936523,42.69619369506836,17.274460644316584
0.550000011920929,2.095564146989326E7,840.4668538576883,2.9928106009794025E-16,2.0955641486747544E7,0.0066421722740415134,2.9928106009794025E-16,-17.655590639105903,1528.1332767672632,1.0882097671899365E-15,1.0869494335811865E-17,0.024507448751321145,17.59430186081752,29995.161288227886,1.8160667538718135E-8,8.182780585675374E-22,32.10655080285511,-1.9412565190576169E-19,-3.892893855792987E-24,-0.0022979589333997647,0.0,0.0,6.718855644083851E-19,-1055.6581116490513,994.8695660857902,8.908451300962477E-4,629.805524435084,411.8560791702269,1.4983133539132616E-17,0.04414026907042172,-0.011098837837343271,-0.0,0.0,0.0,0.0725114494562149,2.3180224895477295,42.7414436340332,17.59430186081752
0.5600000023841858,2.0955641291732587E7,855.7481887683666,3.102620769852537E-16,2.095564130920533E7,0.006889583540669264,3.1026207698525377E-16,-17.97654409181564,1528.133705411213,1.107992363654819E-15,1.1067595276509394E-17,0.024974975562342027,17.914140944834568,29994.983746014535,1.883712617803518E-8,8.48301767143207E-22,32.10655134776648,0.0,0.0,-0.0023397403511808074,0.0,0.0,6.718855644083851E-19,-1074.848456690074,994.8703285941735,8.908509417825189E-4,629.8105985775289,411.85671049687346,1.4619018787278524E-17,0.04418748691986704,-0.011312844800400583,-0.0,0.0,-0.0,0.07258949428796768,2.3230340480804443,42.78748321533203,17.914140944834568
0.5699999928474426,2.095564111036239E7,871.0295279666876,3.2144089747153444E-16,2.0955641128464736E7,0.007141674777130902,3.214408974715345E-16,-18.29749540671467,1528.1341342972466,1.1277733635713963E-15,1.1264230633600395E-17,0.02544344488343216,18.233977890035774,29994.80300541967,1.9526380551956494E-8,8.788663002536172E-22,32.10655190249432,0.0,0.0,-0.002381521781757586,0.0,0.0,6.718855644083851E-19,-1094.0386734021465,994.8711048383805,8.908568581948568E-4,629.8157641635564,411.85735319673313,1.4376313985792706E-17,0.044235511007939494,-0.011527499801575367,-0.0,0.0,0.0,0.07266887277364731,2.3281362056732178,42.83430480957031,18.233977890035774
0.5799999833106995,2.0955640925782684E7,886.3108714551122,3.328175283640071E-16,2.0955640944525775E7,0.007398455449106223,3.328175283640071E-16,-18.61844457736829,1528.1345634334125,1.147554070831436E-15,1.1460704692991373E-17,0.02591286475588416,18.553812689984365,29994.619066458195,2.022845654167823E-8,9.099716765387014E-22,32.106552467038576,-1.9412565190138833E-19,-4.105190147082977E-24,-0.0024233032251559806,0.0,0.0,6.718855644083851E-19,-1113.228761399062,994.8718948183152,8.908628793343745E-4,629.8210211945661,411.8580072697535,1.4914566846172704E-17,0.04428433863757958,-0.01174281329474427,-0.0,0.0,0.0,0.07274957001209259,2.333329200744629,42.88190460205078,18.553812689984365
0.5899999737739563,2.09556407379935E7,901.5922192361821,3.443919854550318E-16,2.0955640757388487E7,0.0076599351023105555,3.443919854550319E-16,-18.939391597237524,1528.134992827733,1.167338509074976E-15,1.1661041495244516E-17,0.026383243195525447,18.873645338139276,29994.431929171085,2.0943380247237985E-8,9.416179392055587E-22,32.10655304139913,0.0,0.0,-0.0024650846814020886,0.0,0.0,6.718855644083851E-19,-1132.4187202883566,994.8726985337702,8.908690052013604E-4,629.8263696712457,411.8586727157895,1.4949928486962847E-17,0.04433396707949866,-0.011958795676785748,-0.0,0.0,0.0,0.07283158600330353,2.3386130332946777,42.93028259277344,18.873645338139276
0.6000000238418579,2.0955640546994857E7,916.873571312519,3.561642699628381E-16,2.0955640567052875E7,0.007926123361812643,3.561642699628382E-16,-19.260336459679724,1528.1354224882016,1.1871202308084012E-15,1.1858793953621743E-17,0.026854588190671866,19.193475827855714,29994.24159355834,2.167117798564989E-8,9.73805091613987E-22,32.10655362557598,1.9412565189834113E-19,4.246841645759519E-24,-0.0025068661505222322,0.0,0.0,6.718855644083851E-19,-1151.6085496713429,994.8735159847125,8.908752357974733E-4,629.8318095954863,411.8593495348417,1.5129791860945364E-17,0.04438439357271182,-0.012175457287034432,-0.0,0.0,0.0,0.07291491329669952,2.3439877033233643,42.979434967041016,19.193475827855714
0.6100000143051147,2.0955640352786776E7,932.1549276868238,3.6813438582951705E-16,2.0955640373518974E7,0.008197029932830446,3.6813438582951715E-16,-19.581279157949126,1528.1358524227853,1.20690124588009E-15,1.2055972329690628E-17,0.02732690770099085,19.51330415238577,29994.048059657216,2.2411876293080443E-8,1.0065331445717126E-21,32.10655421956901,1.9412565189677884E-19,4.317667427856092E-24,-0.002548647632542945,0.0,0.0,6.718855644083851E-19,-1170.7982491431462,994.8743471709492,8.90881571123179E-4,629.8373409681457,411.86003772677833,1.4773686713673618E-17,0.04443561532536921,-0.012392808406759933,-0.0,0.0,-0.0,0.07299954444169998,2.3494532108306885,43.029361724853516,19.51330415238577
0.6200000047683716,2.0955640155369278E7,947.4362883618776,3.803023033996423E-16,2.09556401767868E7,0.00847266460073115,3.803023033996424E-16,-19.902219685197466,1528.1362826394225,1.2266816494135298E-15,1.2252672166408338E-17,0.027800209658183524,19.833130304878996,29993.85132748261,2.316550192484862E-8,1.0398020170264415E-21,32.10655482337818,1.941256518951916E-19,4.388448033451346E-24,-0.00259042912749098,0.0,0.0,6.718855644083851E-19,-1189.9878182927398,994.8751920923828,8.908880111797052E-4,629.8429637907539,411.860737291547,1.455338005233451E-17,0.044487629515305854,-0.012610859258658867,-0.0,0.0,0.0,0.0730854868888855,2.3550093173980713,43.080055236816406,19.833130304878996
0.6299999952316284,2.0955639954742387E7,962.7176533405404,3.926680183166831E-16,2.0955639976856373E7,0.008753037228871108,3.926680183166832E-16,-20.22315803447453,1528.136713146023,1.2464629533113752E-15,1.2450405792142923E-17,0.02827450196666685,20.15295427838296,29993.651397056878,2.3932081849519996E-8,1.0736116970972453E-21,32.106555437003415,-1.0382240321930689E-33,4.5198400480109426E-29,-0.0026322106353933086,0.0,0.0,6.718855644083851E-19,-1209.1772567029777,994.8760507488829,8.90894555968063E-4,629.8486780646595,411.86144822906886,1.518873319712281E-17,0.044540433290775235,-0.012829620006368978,-0.0,0.0,0.0,0.07317272573709488,2.360656261444092,43.13151550292969,20.15295427838296
0.6399999856948853,2.0955639750906125E7,977.9990226257514,4.052315569779869E-16,2.0955639773727715E7,0.009038157759732712,4.052315569779869E-16,-20.544094198728768,1528.1371439504685,1.2662459916442434E-15,1.2650007709430853E-17,0.02874979250107251,20.47277606584388,29993.448268398643,2.4711643252015187E-8,1.1079622569892854E-21,32.106556060444674,1.941256518919398E-19,4.530009310522426E-24,-0.002673992156277115,0.0,0.0,6.718855644083851E-19,-1228.3665639506328,994.8769231403347,8.909012054894147E-4,629.854483791351,411.86217053927834,1.4551059833697765E-17,0.044594023771105246,-0.013049100754001206,-0.0,0.0,0.0,0.07326126098632812,2.36639404296875,43.183738708496094,20.47277606584388
0.6499999761581421,2.0955639543860506E7,993.2803962205282,4.1799290708986484E-16,2.0955639567400854E7,0.00932803621549283,4.1799290708986494E-16,-20.86502817080789,1528.1375750606112,1.2860272884473273E-15,1.2848002391555653E-17,0.029226089107156412,20.792595660107203,29993.241941537708,2.5504213535164045E-8,1.1428536631212755E-21,32.106556693701854,1.941256518902752E-19,4.600789982090708E-24,-0.0027157736901698023,0.0,0.0,6.718855644083851E-19,-1247.555739606432,994.877809266575,8.909079597445835E-4,629.860380972028,411.86290422207014,1.5521337135746374E-17,0.044648398047403504,-0.013269311545690608,-0.0,0.0,-0.0,0.07335108518600464,2.372222661972046,43.236724853515625,20.792595660107203
0.6600000262260437,2.095563933360556E7,1008.5617741279673,4.309520702554028E-16,2.09556393578758E7,0.00962268269552169,4.309520702554028E-16,-21.185959943459466,1528.1380064842745,1.305805369978918E-15,1.3042916541032658E-17,0.029703399602026073,21.11241305391819,29993.03241648525,2.6309820312867356E-8,1.1782859199082359E-21,32.10655733677493,-3.262991280487343E-33,1.3559520143684023E-28,-0.002757555237098983,0.0,0.0,6.718855644083851E-19,-1266.7447832350913,994.8787091275198,8.909148187350317E-4,629.866369608456,411.8636492774051,1.44360148377538E-17,0.044703553183173865,-0.013490262365164625,-0.0,0.0,0.0,0.07344219833612442,2.3781418800354004,43.29046630859375,21.11241305391819
0.6700000166893005,2.0955639120141312E7,1023.8431563512424,4.441090209267024E-16,2.0955639145152602E7,0.009922107377065004,4.441090209267025E-16,-21.50688950933153,1528.138438229252,1.325584016778778E-15,1.3238531147943548E-17,0.03018173177186687,21.432228239922576,29992.819693285972,2.7128491411961853E-8,1.2142589575309233E-21,32.106557989663735,-2.2082873595532276E-33,9.039680095709432E-29,-0.0027993367970924857,0.0,0.0,6.718855644083851E-19,-1285.9336943953547,994.8796227229407,8.909217824611524E-4,629.8724497014745,411.8644057051251,1.499910007910172E-17,0.04475948621510291,-0.013711963135333221,-0.0,0.0,-0.0,0.07353458553552628,2.3841521739959717,43.344966888427734,21.432228239922576
0.6800000071525574,2.095563890346778E7,1039.1245428936058,4.574637699999481E-16,2.0955638929231253E7,0.01022632051558503,4.574637699999481E-16,-21.827816860973186,1528.1388703033076,1.3453625828979334E-15,1.3434200719694307E-17,0.030661093374670555,21.752041210667098,29992.60377193615,2.7960254873152874E-8,1.2507728058140367E-21,32.10655865236832,3.882513037702542E-19,9.626219060577236E-24,-0.002841118370178352,0.0,0.0,6.718855644083851E-19,-1305.122472640026,994.8805500528167,8.909288509249522E-4,629.878621253339,411.8651735052439,1.4971655551237488E-17,0.04481619415356775,-0.01393442371789184,-0.0,0.0,-0.0,0.0736282542347908,2.3902530670166016,43.40021896362305,21.752041210667098
0.6899999976158142,2.095563868358498E7,1054.4059337583867,4.710162928966886E-16,2.095563871011177E7,0.01053533244476057,4.710162928966885E-16,-22.14874199083524,1528.1393027141755,1.3651419983370538E-15,1.3630855719354993E-17,0.031141492139553122,22.0718519586002,29992.384652454406,2.8805138951014325E-8,1.2878273975899312E-21,32.106559324888615,3.8825130376671854E-19,9.767780580954823E-24,-0.0028828999563848333,0.0,0.0,6.718855644083851E-19,-1324.311117516012,994.8814911170302,8.909360241277345E-4,629.8848842656992,411.8659526776961,1.5109954949581656E-17,0.04487367398345842,-0.014157653912948808,-0.0,0.0,-0.0,0.0737231895327568,2.396444797515869,43.45621871948242,22.0718519586002
0.699999988079071,2.0955638460492942E7,1069.687328948992,4.847666140562708E-16,2.0955638487794213E7,0.010849153574099546,4.847666140562708E-16,-22.4696648912708,1528.1397354695591,1.3849223868039553E-15,1.3828620323125633E-17,0.031622935759933614,22.391660476072584,29992.162334896624,2.9663172107461152E-8,1.3254227997132799E-21,32.10656000722446,-2.3071669392940805E-33,9.039680095462473E-29,-0.002924681555740394,0.0,0.0,6.718855644083851E-19,-1343.4996285643551,994.8824459153034,8.909433020696121E-4,629.8912387391723,411.86674322228373,1.5421953965486147E-17,0.04493192266489334,-0.014381663458669999,-0.0,0.0,0.0,0.07381938397884369,2.4027273654937744,43.51296615600586,22.391660476072584
0.7099999785423279,2.0955638234191686E7,1084.9687284689053,4.987147375138891E-16,2.0955638262278575E7,0.011167794390303243,4.987147375138892E-16,-22.7905855545359,1528.1401685771316,1.4047022789214795E-15,1.402602562817751E-17,0.03210543190513017,22.71146675533787,29991.936819259077,3.053438301547954E-8,1.363559023251318E-21,32.106560699375834,1.941256518797456E-19,5.0254744769280735E-24,-0.002966463168273706,0.0,0.0,6.718855644083851E-19,-1362.6880053202722,994.8834144476133,8.909506847526756E-4,629.8976846761103,411.8675451390207,1.510547637187063E-17,0.04499093713368517,-0.014606462030934804,-0.0,0.0,-0.0,0.07391685247421265,2.4091005325317383,43.570457458496094,22.71146675533787
0.7200000286102295,2.0955638004681237E7,1100.2501323216866,5.128606717969418E-16,2.0955638033564884E7,0.011491265456697874,5.128606717969418E-16,-23.111503972790135,1528.1406020445354,1.4244850400795143E-15,1.4226437504635235E-17,0.03258898820921873,23.031270788553176,29991.708105567843,3.1418800557572726E-8,1.4022360915541183E-21,32.10656140134269,3.882513037558008E-19,1.0192510608174371E-23,-0.0030082447940136523,0.0,0.0,6.718855644083851E-19,-1381.8762473131906,994.8843967138087,8.909581721780698E-4,629.9042220780467,411.868358427815,1.577750996297531E-17,0.045050714302210956,-0.01483205924302039,-0.0,0.0,-0.0,0.07401556521654129,2.415564775466919,43.62868881225586,23.031270788553176
0.7300000190734863,2.095563777196161E7,1115.531540510972,5.272044117872072E-16,2.095563780165316E7,0.011819577412552462,5.272044117872073E-16,-23.43242013809727,1528.1410358793817,1.4442617446380426E-15,1.4420930798587734E-17,0.03307361227808164,23.351072567779806,29991.476193845272,3.2316453823896E-8,1.44145399066313E-21,32.106562113124966,-2.4060466125918812E-33,9.039680095204697E-29,-0.0030500264329893223,0.0,0.0,6.718855644083851E-19,-1401.0643540667884,994.885392713754,8.90965764347089E-4,629.9108509466533,411.86918308858793,1.5811213605741917E-17,0.04511125106000971,-0.015058464645296553,-0.0,0.0,0.0,0.07411552965641022,2.422119617462158,43.687660217285156,23.351072567779806
0.7400000095367432,2.0955637536032837E7,1130.8129530404747,5.417459438962844E-16,2.0955637566543438E7,0.012152740973533582,5.417459438962845E-16,-23.75333404242589,1528.141470089251,1.4640432726910633E-15,1.4620386095969542E-17,0.03355931168395066,23.67087208498383,29991.241084121168,3.322737211350015E-8,1.481212683461584E-21,32.10656283472254,0.0,0.0,-0.0030918080852300168,0.0,0.0,6.718855644083851E-19,-1420.2523250990298,994.8864024472808,8.909734612608131E-4,629.9175712834224,411.87001912123435,1.5177684100429476E-17,0.04517254427448363,-0.015285687724942001,-0.0,0.0,0.0,0.07421674579381943,2.4287655353546143,43.74736404418945,23.67087208498383
0.75,2.0955637296894938E7,1146.0943699139816,5.564852717053855E-16,2.095563732823573E7,0.01249076693011375,5.564852717053856E-16,-24.074245677650016,1528.1419046816916,1.4838222118126423E-15,1.4817391468574216E-17,0.03404609396927233,23.990669332036745,29991.002776414156,3.41515849299798E-8,1.5215121797774423E-21,32.106563566135364,-2.4719664470718647E-33,9.039680095026839E-29,-0.0031335897507652377,0.0,0.0,6.718855644083851E-19,-1439.4401599222047,994.8874259142682,8.909812629207154E-4,629.9243830901969,411.8708665256887,1.4708069165393284E-17,0.045234590791526426,-0.01551373790567583,-0.0,0.0,0.0,0.07431919872760773,2.435502052307129,43.80780029296875,23.990669332036745
0.7599999904632568,2.0955637054547932E7,1161.3757911353568,5.714223763373126E-16,2.0955637086730056E7,0.012833666149617784,5.714223763373127E-16,-24.395155035549756,1528.142339664221,1.5035994751692747E-15,1.5012860586377172E-17,0.034533966644434255,24.31046430071609,29990.761270739138,3.508912198706855E-8,1.562352428034581E-21,32.10656430736341,-2.504926380066103E-33,9.039680094936104E-29,-0.0031753714296246967,0.0,0.0,6.718855644083851E-19,-1458.6278580429655,994.8884631146107,8.909891693284183E-4,629.9312863689579,411.8717253018987,1.5284428385266573E-17,0.04529738743620909,-0.015742624547508213,-0.0,0.0,-0.0,0.07442288845777512,2.4423294067382812,43.86896514892578,24.31046430071609
0.7699999809265137,2.0955636808991846E7,1176.6572167085387,5.86557256905446E-16,2.0955636842026453E7,0.013181449572812198,5.865572569054461E-16,-24.716062107811936,1528.1427750443243,1.5233759947189482E-15,1.5207725916558474E-17,0.03502293718708298,24.630256982706126,29990.516567137092,3.6040013199313845E-8,1.6037334258462427E-21,32.106565058406545,-2.5378863235945808E-33,9.039680094844175E-29,-0.003217153121838313,0.0,0.0,6.718855644083851E-19,-1477.8154189623676,994.8895140480905,8.90997180484721E-4,629.9382811209753,411.8725954497196,1.5179542780168163E-17,0.04536093101350682,-0.01597235694650889,-0.0,0.0,-0.0,0.074527807533741,2.4492475986480713,43.93085479736328,24.630256982706126
0.7799999713897705,2.09556365602267E7,1191.93864663754,6.018899031937406E-16,2.0955636594124928E7,0.013534128214587327,6.018899031937406E-16,-25.036966886030743,1528.1432108294546,1.5431545739640172E-15,1.5404791476340502E-17,0.03551301304417035,24.95004736959841,29990.268665611744,3.70042886839422E-8,1.6456551453181511E-21,32.106565819264766,-2.5708462776810495E-33,9.039680094751038E-29,-0.003258934827436202,0.0,0.0,6.718855644083851E-19,-1497.0028421759046,994.8905787146489,8.910052963916696E-4,629.945367348615,411.87347696913884,1.5262881667370952E-17,0.045425218308831755,-0.01620294433458971,-0.0,0.0,-0.0,0.07463394850492477,2.456256628036499,43.99346923828125,24.95004736959841
0.7900000214576721,2.0955636308252517E7,1207.2200809264482,6.174203347715363E-16,2.0955636343025513E7,0.013891713166003683,6.174203347715364E-16,-25.35786936170836,1528.143647027033,1.5629326795739714E-15,1.5601524455716365E-17,0.036004201630134534,25.269835452892504,29990.01756619662,3.798197876645414E-8,1.6881176399941288E-21,32.106566589937955,-2.603806242349429E-33,9.0396800946567E-29,-0.003300716546448689,0.0,0.0,6.718855644083851E-19,-1516.1901271735503,994.8916571140987,8.910135170503624E-4,629.9525450534233,411.87436986003803,1.5542655612415997E-17,0.0454902460888303,-0.016434395879308217,-0.0,0.0,0.0,0.07474130392074585,2.4633564949035645,44.056800842285156,25.269835452892504
0.800000011920929,2.095563605306932E7,1222.5015195794247,6.331485637861202E-16,2.0955636088728223E7,0.014254215590653985,6.331485637861202E-16,-25.67876952625563,1528.1440836444478,1.5827103926775422E-15,1.5798006509512306E-17,0.03649651032599053,25.589621223996588,29989.763268906623,3.8973113970677676E-8,1.731120943125515E-21,32.10656737042606,-2.6367662176237924E-33,9.03968009456116E-29,-0.003342498278906296,0.0,0.0,6.718855644083851E-19,-1535.3772734397953,994.8927492463324,8.910218424625362E-4,629.9598142375111,411.87527412236494,1.5101798725288875E-17,0.04555601110194382,-0.01666672068368516,-0.0,0.0,0.0,0.07484988123178482,2.4705471992492676,44.120849609375,25.589621223996588
0.8100000023841858,2.095563579467713E7,1237.7829626007046,6.490745430086415E-16,2.0955635831233088E7,0.014621646726254767,6.490745430086415E-16,-25.99966737099267,1528.1445206890548,1.6024869512248234E-15,1.59934761194771E-17,0.03698994648001231,25.909404674228107,29989.505773771554,3.997772502311991E-8,1.774664925621084E-21,32.10656816072903,-2.6697262035283757E-33,9.039680094464419E-29,-0.003384280024839752,0.0,0.0,6.718855644083851E-19,-1554.5642804536865,994.8938551111778,8.910302726294691E-4,629.9671749025969,411.8761897560146,1.484808620023004E-17,0.04562251007912846,-0.016899927786040044,-0.0,0.0,-0.0,0.0749596655368805,2.4778285026550293,44.185611724853516,25.909404674228107
0.8199999928474426,2.0955635533075977E7,1253.0644099945966,6.651983116507184E-16,2.0955635570540138E7,0.014994017883509514,6.651983116507185E-16,-26.320562887149542,1528.1449581681775,1.6222690486421047E-15,1.619462724907077E-17,0.03748451740886966,26.229185794814406,29989.245080821216,4.099584284985879E-8,1.8187496947310108E-21,32.10656896084674,-2.702686200087572E-33,9.039680094366475E-29,-0.003426061784279985,0.0,0.0,6.718855644083851E-19,-1573.7511476888644,994.8949747084621,8.910388075524663E-4,629.9746270504302,411.8771167608817,1.6692325051020374E-17,0.045689739734473406,-0.017134026159841893,-0.0,0.0,-0.0,0.07507065683603287,2.485200881958008,44.25108337402344,26.229185794814406
0.8299999833106995,2.0955635268265884E7,1268.3458617654821,6.815199167073295E-16,2.095563530664939E7,0.015371340447018156,6.815199167073297E-16,-26.641456065866905,1528.1453960891058,1.6420492802709442E-15,1.6394055782496687E-17,0.037980230394899735,26.548964576893393,29988.981190074235,4.2027498579029926E-8,1.8633753789868198E-21,32.10656977077915,-5.4712924146518553E-33,1.8079360188534664E-28,-0.0034678435572581164,0.0,0.0,6.718855644083851E-19,-1592.9378746136035,994.8961080380599,8.91047447233228E-4,629.9821706831127,411.8780551369009,1.5899473389305297E-17,0.045757696765827985,-0.01736902471357738,-0.0,0.0,-0.0,0.07518284022808075,2.492664098739624,44.317264556884766,26.548964576893393
0.8399999737739563,2.0955635000246868E7,1283.627317917816,6.98039311749427E-16,2.0955635039560862E7,0.01575362587300333,6.980393117494272E-16,-26.962346898196653,1528.145834459097,1.6618316574391267E-15,1.6595773595620794E-17,0.03847709268951765,26.868741011514235,29988.714101545513,4.3072723534609846E-8,1.908541851485548E-21,32.10657059052621,-2.768606225268156E-33,9.039680094166985E-29,-0.003509625343805478,0.0,0.0,6.718855644083851E-19,-1612.124460690854,994.8972550998614,8.910561916736047E-4,629.9898058028855,411.87900488402016,1.6270032718078882E-17,0.04582637785545403,-0.017604932290633833,-0.0,0.0,0.0,0.07529621571302414,2.500217914581299,44.38414764404297,26.868741011514235
0.8500000238418579,2.0955634729018953E7,1298.9087784561248,7.147565146197832E-16,2.095563476927457E7,0.01614088569112937,7.147565146197832E-16,-27.28323537510257,1528.1462732853747,1.6816074901767701E-15,1.6791091272040994E-17,0.03897511150889638,27.188515089637914,29988.443815253675,4.413154924138946E-8,1.954249161053305E-21,32.10657142008786,-2.801566253939115E-33,9.039680094065438E-29,-0.00355140714395359,0.0,0.0,6.718855644083851E-19,-1631.3109053782748,994.8984158937401,8.910650408753523E-4,629.9975324119143,411.87996600217406,1.5870594813320005E-17,0.04589577967068347,-0.017841757669199664,-0.0,0.0,0.0,0.07541078329086304,2.5078628063201904,44.45172882080078,27.188515089637914
