time,feVelocity_ft_s_X,feVelocity_ft_s_Y,feVelocity_ft_s_Z,altitudeMsl_ft,longitude_deg,latitude_deg,localGravity_ft_s2,eulerAngle_deg_Yaw,eulerAngle_deg_Pitch,eulerAngle_deg_Roll,bodyAngularRateWrtEi_deg_s_Roll,bodyAngularRateWrtEi_deg_s_Pitch,bodyAngularRateWrtEi_deg_s_Yaw,altitudeRateWrtMsl_ft_min,speedOfSound_ft_s,airDensity_slug_ft3,ambientPressure_lbf_ft2,ambientTemperature_dgR,aero_bodyForce_lbf_X,aero_bodyForce_lbf_Y,aero_bodyForce_lbf_Z,aero_bodyMoment_ftlbf_L,aero_bodyMoment_ftlbf_M,aero_bodyMoment_ftlbf_N,mach,trueAirspeed_nmi_h
0.0,1414.200033,1414.200033,0.0,30013.0,-75.674444,36.019167,32.12727444817824,45.0,-0.736595403,-0.170574478,0.0,0.0,0.0,0.0,994.792244,8.90259E-4,629.293264,411.7921263,-12422.37685,-12.84352829,-20369.97601,-4.44E-8,23058.80632,-14.53887256,2.010450804,1184.956264
0.1,1414.187073,1414.218416,-0.027434584,30013.00137,-75.67396594,36.01955366,32.12727602848737,45.00053414,-0.735809643,-0.170820418,-2.2803720246174E-4,-5.678011749738301E-7,1.4152057539711E-4,1.646075048,994.7922381,8.90259E-4,629.2932249,411.7921214,-12422.41872,-13.83244688,-20370.04426,-0.770805953,23058.88483,-12.52968391,2.010454671,1184.958536
0.2,1414.174203,1414.23724,-0.054882019,30013.00549,-75.67348787,36.01994032,32.1272777888317,45.00109813,-0.735023841,-0.171112537,-8.708958485976E-4,-1.0084057194287999E-6,5.786873730812999E-4,3.292921147,994.7922204,8.90259E-4,629.2931073,411.7921068,-12422.46934,-14.72268125,-20370.12692,-1.319093984,23058.97951,-10.78179573,2.01045894,1184.961031
0.3,1414.16137,1414.255952,-0.082338671,30013.01235,-75.67300979,36.02032697,32.127279529176064,45.00171462,-0.734237815,-0.171478397,-0.0016386592940718,9.74028251721E-7,0.0011631043241138999,4.940320273,994.792191,8.90259E-4,629.2929114,411.7920824,-12422.51805,-15.0319834,-20370.17622,-1.331484813,23059.06735,-10.2582457,2.01046318,1184.963495
0.4,1414.148508,1414.27462,-0.109805917,30013.02196,-75.6725317,36.02071362,32.12728125952044,45.00238973,-0.733451363,-0.171915387,-0.002234535401007,3.9133017407379E-6,0.00171887338539,6.588355036,994.7921497,8.90258E-4,629.292637,411.7920482,-12422.56486,-14.71912786,-20370.23921,-0.868665378,23059.14982,-11.0088565,2.010467392,1184.965928
0.5,1414.135557,1414.293301,-0.137282531,30013.03431,-75.67205361,36.02110027,32.12728298986481,45.00311258,-0.732664397,-0.172395158,-0.0024579889411077,8.365183808898E-6,0.0020970255301758,8.236951886,994.7920966,8.90258E-4,629.2922841,411.7920043,-12422.60976,-13.9184164,-20370.30023,-0.114172052,23059.22638,-12.72682081,2.010471576,1184.968331
0.6,1414.122482,1414.312034,-0.164770405,30013.04941,-75.6715755,36.02148691,32.127284710207654,45.00385967,-0.731876901,-0.172874575,-0.0022230762451044,1.2490479933834E-5,0.0022001579332992,9.886224323,994.7920318,8.90257E-4,629.2918528,411.7919506,-12422.65276,-12.88935894,-20370.37398,0.684874492,23059.29959,-14.86029244,2.010475732,1184.970703
0.7,1414.109276,1414.330824,-0.192269238,30013.06726,-75.67109739,36.02187355,32.12728642055205,45.00460231,-0.731089038,-0.173309733,-0.0015928226704614,1.6329297161205E-5,0.0020110818609063,11.5361543,994.7919551,8.90257E-4,629.2913429,411.7918871,-12422.69387,-11.9353383,-20370.42835,1.290412381,23059.37004,-16.7837457,2.010479859,1184.973045
0.8,1414.095963,1414.349647,-0.219777741,30013.08787,-75.67061927,36.02226019,32.127288120896466,45.00531501,-0.730300844,-0.173668973,-7.44845133669E-4,2.0397297506628E-5,0.0016157409822666001,13.18666449,994.7918666,8.90256E-4,629.2907545,411.7918139,-12422.73309,-11.31615028,-20370.49579,1.538271686,23059.43641,-17.97700507,2.010483959,1184.975356
0.9,1414.082587,1414.368458,-0.247296788,30013.11122,-75.67014113,36.02264682,32.12728981123935,45.00598232,-0.729512427,-0.173941374,9.224620501593E-5,2.349126960033E-5,0.0011287268564061002,14.83780728,994.7917663,8.90255E-4,629.2900875,411.7917308,-12422.77041,-11.17915789,-20370.55945,1.377800713,23059.50067,-18.16171911,2.010488031,1184.977637
1.0,1414.069202,1414.387206,-0.274825576,30013.13733,-75.669663,36.02303345,32.1272914915838,45.00660239,-0.728723872,-0.174138744,7.104676659612E-4,2.5954988119388998E-5,6.932789321073E-4,16.48953456,994.7916542,8.90254E-4,629.2893418,411.791638,-12422.80585,-11.52678463,-20370.61946,0.877081679,23059.56253,-17.36053769,2.010492076,1184.979887
1.1,1414.05585,1414.405847,-0.302363588,30013.16619,-75.66918485,36.02342007,32.12729317192669,45.00718649,-0.727935223,-0.174291057,9.682986737697E-4,2.7731157284292E-5,4.239887683962E-4,18.14181526,994.7915302,8.90253E-4,629.2885176,411.7915354,-12422.83939,-12.22666377,-20370.67585,0.19487609,23059.62198,-15.86835754,2.010496093,1184.982107
1.2,1414.042556,1414.424357,-0.329909696,30013.1978,-75.66870669,36.02380669,32.12729483226962,45.00775486,-0.727146447,-0.174437108,8.365183808898E-4,2.9278143331143E-5,3.8330876494197E-4,19.79458178,994.7913944,8.90252E-4,629.2876147,411.7914229,-12422.87105,-13.05844747,-20370.72894,-0.470446643,23059.6783,-14.15009311,2.010500082,1184.984296
1.3,1414.029319,1414.442737,-0.35746362,30013.23217,-75.66822852,36.02419331,32.12729649261409,45.0083305,-0.726357511,-0.174613353,3.8789242730301E-4,3.0424058921403E-5,5.6264455481766E-4,21.4478172,994.7912468,8.90251E-4,629.2866331,411.7913007,-12422.90081,-13.78154787,-20370.77867,-0.939140191,23059.73165,-12.69890052,2.010504044,1184.986455
1.4,1414.016114,1414.461012,-0.385022419,30013.26929,-75.66775035,36.02457993,32.12729814295703,45.00893252,-0.725568293,-0.174844186,-2.1886987773966E-4,3.3116960558514E-5,8.938141604027999E-4,23.10134516,994.7910873,8.9025E-4,629.2855728,411.7911687,-12422.92867,-14.20344531,-20370.81036,-1.098747148,23059.77944,-11.89715671,2.010507978,1184.988584
1.5,1414.002904,1414.479219,-0.41258855,30013.30917,-75.66727217,36.02496654,32.12729978329998,45.00957116,-0.724778736,-0.175136239,-7.964113352307E-4,3.5065017061956E-5,0.0012776958831398999,24.75531298,994.790916,8.90249E-4,629.2844338,411.7910269,-12422.95465,-14.22955803,-20370.8545,-0.930433306,23059.82449,-11.91852984,2.010511885,1184.990683
1.6,1413.989647,1414.4974,-0.440159695,30013.35181,-75.66679398,36.02535314,32.12730142364294,45.01024561,-0.723988841,-0.175478013,-0.0011802930579677998,3.7872510258093E-5,0.0015928226704614,26.4095817,994.7907329,8.90247E-4,629.283216,411.7908753,-12422.97873,-13.88220369,-20370.88013,-0.50735017,23059.86499,-12.69531209,2.010515766,1184.992752
1.7,1413.97631,1414.515588,-0.467738259,30013.3972,-75.66631578,36.02573975,32.127303043985926,45.01094506,-0.72319864,-0.175844535,-0.0012776958831398999,3.9476792084457E-5,0.0017647100090004,28.06429552,994.7905379,8.90246E-4,629.2819195,411.7907139,-12423.00093,-13.2856936,-20370.91771,0.032453699,23059.90379,-13.95520143,2.010519619,1184.994791
1.8,1413.96288,1414.533798,-0.495322607,30013.44536,-75.66583757,36.02612635,32.127304664330445,45.01165244,-0.72240826,-0.176205397,-0.0010714310768931,4.0909186572281995E-5,0.0017532508530978,29.71935642,994.7903311,8.90244E-4,629.2805442,411.7905426,-12423.02124,-12.6242225,-20370.95212,0.529118978,23059.93924,-15.31211071,2.010523445,1184.9968
1.9,1413.94936,1414.552025,-0.522912214,30013.49627,-75.66535935,36.02651294,32.12730626467346,45.01234963,-0.721617773,-0.176533673,-6.474423084969E-4,4.2169693721568E-5,0.0015699043586561998,31.37473286,994.7901124,8.90243E-4,629.2790901,411.7903616,-12423.03967,-12.08627166,-20370.98332,0.846925902,23059.97142,-16.38188176,2.010527244,1184.998778
2.0,1413.935772,1414.570247,-0.550506244,30013.54994,-75.66488113,36.02689953,32.12730786501646,45.01302258,-0.720827226,-0.1768132,-1.2834254610912001E-4,4.3487496650367E-5,0.0012776958831398999,33.03037466,994.7898819,8.90241E-4,629.2775572,411.7901708,-12423.05621,-11.81196717,-20371.01154,0.910123953,23059.99988,-16.88871297,2.010531017,1185.000727
2.1,1413.922149,1414.588432,-0.578104549,30013.60637,-75.66440289,36.02728612,32.12730945535795,45.01366489,-0.720036657,-0.177042314,3.3116960558514E-4,4.4518820681601E-5,9.682986737697E-4,34.68627297,994.7896395,8.90239E-4,629.2759456,411.7899701,-12423.07086,-11.85778593,-20371.03637,0.719459705,23060.02544,-16.73368337,2.010534762,1185.002646
2.2,1413.908522,1414.606549,-0.605706239,30013.66556,-75.66392465,36.02767271,32.12731104570098,45.01427905,-0.719246073,-0.177233271,6.130648407891E-4,4.5492848933322E-5,7.276563998151E-4,36.34237434,994.7893853,8.90237E-4,629.274255,411.7897596,-12423.08363,-12.18711512,-20371.05807,0.346224841,23060.0476,-16.00901647,2.010538482,1185.004536
2.3,1413.894916,1414.624574,-0.633310955,30013.72751,-75.6634464,36.02805929,32.12731261604402,45.01487503,-0.718455457,-0.177407839,6.474423084969E-4,4.6237694066991E-5,6.130648407891E-4,37.99865731,994.7891192,8.90235E-4,629.2724857,411.7895393,-12423.09452,-12.68735849,-20371.07651,-0.092808351,23060.0666,-14.9582202,2.010542175,1185.006395
2.4,1413.881339,1414.642498,-0.660918152,30013.79222,-75.66296814,36.02844587,32.127314176387095,45.01546703,-0.717664781,-0.177590573,4.5435553153809E-4,4.6810651862121E-5,6.474423084969E-4,39.65508913,994.7888413,8.90233E-4,629.2706375,411.7893092,-12423.10353,-13.2068611,-20371.09173,-0.471226406,23060.08239,-13.89718414,2.010545841,1185.008225
2.5,1413.867784,1414.660328,-0.688527117,30013.8597,-75.66248988,36.02883244,32.12731573673016,45.01606915,-0.716874006,-0.177801814,9.854874076236E-5,4.7440905436763997E-5,8.078704911333001E-4,41.31162703,994.7885514,8.90231E-4,629.2687105,411.7890693,-12423.11065,-13.59992398,-20371.10389,-0.688792059,23060.09465,-13.12110821,2.010549481,1185.010025
2.6,1413.854231,1414.678085,-0.71613792,30013.92993,-75.6620116,36.02921901,32.12731728707169,45.01669153,-0.716083124,-0.178052372,-3.0710537818968E-4,4.7727384334329E-5,0.0010427831871365999,42.9682752,994.7882498,8.90229E-4,629.2667046,411.7888195,-12423.1159,-13.76680919,-20371.11274,-0.697348866,23060.10388,-12.82409684,2.010553095,1185.011796
2.7,1413.840655,1414.695794,-0.74374993,30014.00292,-75.66153332,36.02960558,32.12731882741478,45.01733782,-0.715292131,-0.178341251,-6.417127305455999E-4,4.7956567452380996E-5,0.0012776958831398999,44.62499578,994.7879363,8.90226E-4,629.2646199,411.78856,-12423.11927,-13.67800277,-20371.11844,-0.510299358,23060.10977,-13.05275876,2.010556683,1185.013537
2.8,1413.82703,1414.71348,-0.771362747,30014.07868,-75.66105502,36.02999214,32.12732035775789,45.01800464,-0.714501053,-0.178656817,-8.250592249871999E-4,4.812845479092E-5,0.0014438536437276,46.28176484,994.7876109,8.90224E-4,629.2624563,411.7882906,-12423.12076,-13.37717247,-20371.12103,-0.194319772,23060.11223,-13.70434262,2.010560245,1185.015249
2.9,1413.813339,1414.731161,-0.798976199,30014.1572,-75.66057672,36.0303787,32.12732187809947,45.01868305,-0.713709929,-0.178980833,-8.078704911333001E-4,4.812845479092E-5,0.0015011494232406,47.93857197,994.7872736,8.90221E-4,629.2602138,411.7880114,-12423.12037,-12.96358922,-20371.12039,0.153124561,23060.11154,-14.56631095,2.010563781,1185.016931
3.0,1413.79958,1414.74884,-0.826589556,30014.23847,-75.66009841,36.03076525,32.12732339844259,45.01936145,-0.712918806,-0.17929402,-6.130648407891E-4,4.812845479092E-5,0.0014438536437276,49.59537337,994.7869245,8.90218E-4,629.2578925,411.7877224,-12423.11811,-12.56042198,-20371.11667,0.433128024,23060.10736,-15.38359485,2.010567291,1185.018584
3.1,1413.785759,1414.76651,-0.854202779,30014.32251,-75.6596201,36.0311518,32.127324898784195,45.02002901,-0.712127734,-0.179581492,-3.1111608275559E-4,4.7784680113841996E-5,0.0012948846169938,51.25216675,994.7865636,8.90216E-4,629.2554924,411.7874235,-12423.11398,-12.27876278,-20371.10957,0.572899044,23060.10035,-15.93255486,2.010570776,1185.020208
3.2,1413.771894,1414.784152,-0.881815175,30014.40932,-75.65914177,36.03153835,32.1273263991258,45.02067857,-0.711336746,-0.179836571,1.1631043241139E-5,4.7269018098225004E-5,0.0010943493886983,52.90891049,994.7861907,8.90213E-4,629.2530134,411.7871149,-12423.10797,-12.18768639,-20371.11551,0.544020451,23060.08945,-16.08070632,2.010574235,1185.021803
3.3,1413.758007,1414.801747,-0.909425521,30014.49888,-75.65866344,36.03192489,32.127327889468965,45.02130843,-0.710545859,-0.180062025,2.6241467016954E-4,4.7039834980173E-5,9.052733163054E-4,54.56553128,994.785806,8.9021E-4,629.2504555,411.7867964,-12423.10009,-12.29820739,-20371.0862,0.367026367,23060.07579,-15.81671591,2.010577668,1185.023368
3.4,1413.744116,1414.819275,-0.93703449,30014.5912,-75.6581851,36.03231143,32.1273293698106,45.02192234,-0.709755076,-0.180268608,3.7757918699067E-4,4.6180398287478E-5,7.792226013768E-4,56.2220694,994.7854095,8.90207E-4,629.2478188,411.7864681,-12423.09034,-12.56455129,-20371.0857,0.102053012,23060.0586,-15.24452835,2.010581076,1185.024905
3.5,1413.730233,1414.836725,-0.964640649,30014.68628,-75.65770675,36.03269797,32.12733084015225,45.02252812,-0.708964388,-0.180471474,3.3518031015105E-4,4.5435553153809E-5,7.44845133669E-4,57.87843892,994.7850011,8.90204E-4,629.2451033,411.78613,-12423.07872,-12.9010971,-20371.06606,-0.170818847,23060.03823,-14.54588138,2.010584459,1185.026412
3.6,1413.71636,1414.854096,-0.992243622,30014.78413,-75.65722839,36.0330845,32.127332300493904,45.02313511,-0.708173775,-0.180685646,1.5928226704614E-4,4.4748003799653E-5,8.02140913182E-4,59.53461732,994.7845808,8.90201E-4,629.2423089,411.785782,-12423.06524,-13.20911799,-20371.04337,-0.375276047,23060.01437,-13.92408093,2.010587816,1185.02789
3.7,1413.702487,1414.871396,-1.019842732,30014.88473,-75.65675002,36.03347103,32.12733376083557,45.02375155,-0.707383195,-0.180921861,-9.16732472208E-5,4.4175046004523E-5,9.281916281106001E-4,61.19056391,994.7841487,8.90197E-4,629.2394357,411.7854243,-12423.04988,-13.40516674,-20371.01775,-0.459687498,23059.98678,-13.5459284,2.010591149,1185.029339
3.8,1413.6886,1414.88864,-1.047437578,30014.9881,-75.65627164,36.03385755,32.12733521117878,45.02438231,-0.706592619,-0.181183905,-3.4148284589748E-4,4.3716679768419E-5,0.0010828902327957,62.84625466,994.7837047,8.90194E-4,629.2364837,411.7850567,-12423.03266,-13.44310261,-20370.98917,-0.409587305,23059.95553,-13.49816615,2.010594456,1185.03076
3.9,1413.674683,1414.905845,-1.075029109,30015.09422,-75.65579326,36.03424408,32.12733664152048,45.02502781,-0.705802058,-0.181468084,-5.208186357731699E-4,4.239887683962E-5,0.0012204001036269,64.50174656,994.7832489,8.9019E-4,629.2334529,411.7846794,-12423.01358,-13.32411899,-20370.97293,-0.248931756,23059.9219,-13.76932981,2.010597739,1185.032152
4.0,1413.660721,1414.923026,-1.102616527,30015.2031,-75.65531487,36.03463059,32.12733807186064,45.02568424,-0.705011635,-0.181764809,-5.844169510326E-4,4.0680003454229995E-5,0.0012948846169938,66.15699164,994.7827813,8.90187E-4,629.2303434,411.7842922,-12422.99265,-13.09288213,-20370.93727,-0.030576718,23059.88575,-14.26028136,2.010600997,1185.033515
4.1,1413.646707,1414.940189,-1.130198289,30015.31474,-75.65483647,36.03501711,32.12733949220236,45.02634492,-0.704221346,-0.182061696,-5.2482934033908E-4,3.9362200525431004E-5,0.0013006141949451,67.81189736,994.7823017,8.90183E-4,629.2271551,411.7838952,-12422.96985,-12.82189023,-20370.89884,0.180545727,23059.84555,-14.81825716,2.01060423,1185.034849
4.2,1413.632641,1414.957335,-1.157776465,30015.42914,-75.65435806,36.03540361,32.12734091254408,45.0270024,-0.703431275,-0.182347217,-3.6554707329294E-4,3.6612003108807E-5,0.0012318592595295,69.46658792,994.7818104,8.90179E-4,629.223888,411.7834884,-12422.94519,-12.58927141,-20370.87234,0.326354669,23059.80388,-15.28327605,2.010607438,1185.036155
4.3,1413.618531,1414.974455,-1.185347761,30015.5463,-75.65387965,36.03579012,32.12734231288582,45.02765054,-0.702641467,-0.182613832,-1.5870930925101001E-4,3.4549355046339E-5,0.0011172677005035,71.12086564,994.7813072,8.90176E-4,629.2205422,411.7830718,-12422.91868,-12.45667472,-20370.82725,0.371238833,23059.75797,-15.53308902,2.010610622,1185.037432
4.4,1413.604391,1414.991536,-1.212911827,30015.66621,-75.65340122,36.03617662,32.12734371322757,45.02828614,-0.701851879,-0.182859789,3.4606650825852E-5,3.2945073219975E-5,9.912169855749E-4,72.77470961,994.7807921,8.90172E-4,629.2171176,411.7826454,-12422.89031,-12.45338431,-20370.77947,0.310255278,23059.70788,-15.51432605,2.010613781,1185.03868
4.5,1413.590234,1415.008567,-1.240468171,30015.78888,-75.65292279,36.03656312,32.12734509356933,45.02890963,-0.70106247,-0.183089179,1.6214705602179E-4,3.1684566070689004E-5,8.823550045002E-4,74.42809025,994.7802652,8.90168E-4,629.2136144,411.7822092,-12422.86008,-12.57060341,-20370.72891,0.168221519,23059.65378,-15.25211908,2.010616917,1185.0399
4.6,1413.57607,1415.025536,-1.268016304,30015.9143,-75.65244435,36.03694961,32.12734647390956,45.02952464,-0.700273197,-0.183310362,1.9365973475393998E-4,3.0710537818968E-5,8.250592249871999E-4,76.08097821,994.7797265,8.90164E-4,629.2100325,411.7817632,-12422.82799,-12.76673585,-20370.67554,-0.009391965,23059.59579,-14.83733657,2.010620027,1185.041092
4.7,1413.561903,1415.042438,-1.295556616,30016.04248,-75.6519659,36.0373361,32.127347844251354,45.03013678,-0.699484029,-0.18353333,1.2776958831399E-4,2.9335439110656002E-5,8.250592249871999E-4,77.73339699,994.7791759,8.90159E-4,629.206372,411.7813074,-12422.79406,-12.98137967,-20370.63487,-0.170627094,23059.53472,-14.39642744,2.010623114,1185.042256
4.8,1413.547733,1415.059276,-1.323090372,30016.17342,-75.65148745,36.03772259,32.12734920459161,45.03075193,-0.698695064,-0.183766812,-9.682986737697E-6,2.6413354355493E-5,8.823550045002E-4,79.3854223,994.7786135,8.90155E-4,629.2026328,411.7808418,-12422.75829,-13.15349764,-20370.59001,-0.271950857,23059.47264,-14.05363697,2.010626177,1185.043391
4.9,1413.533551,1415.076058,-1.350615621,30016.3071,-75.65100898,36.03810907,32.1273505649334,45.03137458,-0.697906397,-0.184015944,-1.7532508530977998E-4,2.3319382261791E-5,9.682986737697E-4,81.03693725,994.7780393,8.90151E-4,629.1988151,411.7803664,-12422.72067,-13.23840879,-20370.52591,-0.28970303,23059.40776,-13.89673865,2.010629216,1185.044498
5.0,1413.519348,1415.092793,-1.378130618,30016.44354,-75.65053051,36.03849555,32.127351905273684,45.0320067,-0.697117971,-0.184281112,-3.2085636527279997E-4,2.0912959522245E-5,0.0010657014989418,82.68783708,994.7774533,8.90146E-4,629.1949187,411.7798813,-12422.6812,-13.21897256,-20370.4593,-0.225186934,23059.33836,-13.95534525,2.010632231,1185.045577
5.1,1413.505113,1415.109492,-1.405637518,30016.58273,-75.65005203,36.03888202,32.12735324561552,45.03264736,-0.696329823,-0.184558198,-4.068000345423E-4,1.7303325412926E-5,0.0011401860123087,84.33825107,994.7768555,8.90142E-4,629.1909439,411.7793863,-12422.63989,-13.10829358,-20370.40481,-0.102451817,23059.26714,-14.19702417,2.010635223,1185.046628
5.2,1413.490839,1415.126162,-1.433134468,30016.72467,-75.64957354,36.0392685,32.12735457595581,45.03329323,-0.695541993,-0.184840062,-4.1367552808386E-4,1.3636395524094E-5,0.0011688339020652,85.98806806,994.7762458,8.90137E-4,629.1868905,411.7788816,-12422.59674,-12.94382815,-20370.34724,0.040089537,23059.19264,-14.54094233,2.01063819,1185.047651
5.3,1413.476523,1415.142807,-1.460620821,30016.86935,-75.64909505,36.03965496,32.127355896297665,45.03393968,-0.694754544,-0.185118746,-3.4549355046339E-4,1.0084057194287999E-5,0.0011516451682113001,87.63724924,994.7756243,8.90132E-4,629.1827586,411.7783671,-12422.55175,-12.77517025,-20370.27069,0.161391262,23059.11481,-14.88393584,2.010641135,1185.048646
5.4,1413.462167,1415.159424,-1.48809505,30017.01679,-75.64861654,36.04004142,32.127357206637996,45.03458214,-0.693967421,-0.185387747,-2.2631832907635E-4,7.2765639981510005E-6,0.001088619810747,89.28570298,994.7749911,8.90128E-4,629.1785483,411.7778428,-12422.50491,-12.64937907,-20370.19173,0.229360467,23059.03231,-15.13075227,2.010644055,1185.049613
5.5,1413.447779,1415.176007,-1.515556731,30017.16697,-75.64813803,36.04042788,32.12735850697833,45.03521737,-0.693180565,-0.185643712,-9.339212060619001E-5,5.1107835325596E-6,0.0010084057194288001,90.93340387,994.774346,8.90123E-4,629.1742595,411.7773088,-12422.45624,-12.59810416,-20370.11022,0.229102166,23058.94542,-15.21995669,2.010646953,1185.050552
5.6,1413.433366,1415.192546,-1.543006569,30017.3199,-75.64765951,36.04081434,32.12735979731869,45.03584429,-0.692393899,-0.185887135,1.6501184499743998E-5,4.6065806728452E-6,9.281916281106001E-4,92.58039414,994.7736891,8.90118E-4,629.1698924,411.776765,-12422.40572,-12.62994855,-20370.04269,0.165781469,23058.89794,-15.13846973,2.010649827,1185.051464
5.7,1413.418938,1415.209035,-1.570446619,30017.47557,-75.64718098,36.04120079,32.12736108765904,45.03646409,-0.691607259,-0.186121932,7.391155557176999E-5,4.0622707674717E-6,8.708958485976E-4,94.22679715,994.7730205,8.90113E-4,629.1654469,411.7762114,-12422.35336,-12.72979958,-20369.97247,0.061673383,23058.80133,-14.92153462,2.010652678,1185.052348
5.8,1413.404499,1415.225467,-1.597876806,30017.63399,-75.64670244,36.04158724,32.12736236799941,45.03707972,-0.690820804,-0.186354101,6.760901982534E-5,8.995437383541001E-7,8.479775367924E-4,95.87260838,994.77234,8.90107E-4,629.1609231,411.7756481,-12422.29919,-12.86479233,-20369.9133,-0.051282875,23058.70524,-14.63938784,2.010655507,1185.053204
5.9,1413.390051,1415.241843,-1.62529628,30017.79515,-75.6462239,36.04197368,32.12736363833979,45.03769499,-0.69003473,-0.186589898,3.8560059612249E-6,-2.6585241694032E-6,8.59436692695E-4,97.51777679,994.7716478,8.90102E-4,629.156321,411.775075,-12422.2432,-12.99475685,-20369.85048,-0.141067566,23058.65218,-14.37512284,2.010658312,1185.054033
6.0,1413.375591,1415.258163,-1.652704719,30017.95905,-75.64574535,36.04236012,32.12736489868018,45.03831339,-0.68924891,-0.186834085,-9.511099399157999E-5,-5.5061244111992995E-6,9.052733163054E-4,99.16228315,994.7709438,8.90097E-4,629.1516407,411.7744922,-12422.18537,-13.08391403,-20369.78562,-0.184486568,23058.54865,-14.20068064,2.010661094,1185.054834
6.1,1413.361113,1415.274436,-1.680101495,30018.12569,-75.64526679,36.04274655,32.12736614902059,45.03893718,-0.688463379,-0.187088717,-1.9881635491011E-4,-7.44845133669E-6,9.625690958183999E-4,100.8060897,994.7702281,8.90091E-4,629.1468821,411.7738996,-12422.12571,-13.11048027,-20369.70191,-0.172946972,23058.48665,-14.15768703,2.010663854,1185.055608
6.2,1413.34661,1415.290666,-1.707488015,30018.29507,-75.64478822,36.04313298,32.127367389361005,45.03956684,-0.68767806,-0.187352774,-2.7788453063805E-4,-1.1344564343574E-5,0.0010198648753314,102.4492809,994.7695005,8.90086E-4,629.1420454,411.7732973,-12422.06524,-13.07167097,-20369.63018,-0.113747662,23058.37819,-14.2481953,2.010666591,1185.056355
6.3,1413.332077,1415.306861,-1.734862399,30018.46719,-75.64430965,36.04351941,32.12736862970143,45.04020109,-0.686893217,-0.187622675,-3.1226199834585004E-4,-1.7360621192439E-5,0.0010542423430392,104.0917439,994.7687612,8.9008E-4,629.1371305,411.7726853,-12422.00196,-12.9830564,-20369.55384,-0.026878763,23058.26975,-14.43702366,2.010669306,1185.057074
6.4,1413.31751,1415.323025,-1.762222153,30018.64204,-75.64383106,36.04390583,32.12736985004188,45.04083734,-0.686109,-0.187893459,-2.9564622228707996E-4,-2.3777748497894998E-5,0.0010599719209904998,105.7333292,994.7680102,8.90074E-4,629.1321374,411.7720635,-12421.93686,-12.87287038,-20369.45818,0.061484228,23058.1588,-14.66433634,2.010671998,1185.057766
6.5,1413.302909,1415.339157,-1.789567145,30018.81963,-75.64335247,36.04429225,32.12737107038079,45.04147255,-0.685325449,-0.188160272,-2.3548565379842999E-4,-3.0710537818968E-5,0.001031324031234,107.3740287,994.7672474,8.90069E-4,629.1270663,411.771432,-12421.86995,-12.77322893,-20369.3591,0.126699543,23058.04539,-14.86406442,2.010674668,1185.058431
6.6,1413.288276,1415.355254,-1.816895009,30018.99995,-75.64287387,36.04467867,32.12737228072125,45.04210407,-0.684542583,-0.1884197,-1.5240677350458E-4,-3.6783890447345995E-5,9.854874076236E-4,109.0137005,994.7664729,8.90063E-4,629.1219172,411.7707908,-12421.80121,-12.7109256,-20369.24163,0.152393408,23057.92755,-14.98273439,2.010677315,1185.059068
6.7,1413.273617,1415.371313,-1.844204288,30019.18301,-75.64239527,36.04506508,32.127373481061724,45.04273037,-0.683760272,-0.188670611,-7.047380880099001E-5,-4.1539440146925E-5,9.339212060619E-4,110.6522573,994.7656866,8.90057E-4,629.1166901,411.7701398,-12421.73066,-12.70039072,-20369.12222,0.134377073,23057.80418,-14.99335688,2.010679941,1185.059679
6.8,1413.258937,1415.387328,-1.871494626,30019.36879,-75.64191665,36.04545149,32.12737468140066,45.04335137,-0.682978398,-0.188914301,-1.2662367272373001E-5,-4.5263665815269994E-5,8.823550045002E-4,112.2896776,994.7648886,8.90051E-4,629.1113851,411.7694792,-12421.65829,-12.74060795,-20369.00065,0.080913002,23057.67577,-14.90094229,2.010682544,1185.060263
6.9,1413.244241,1415.403293,-1.898766265,30019.55731,-75.64143803,36.04583789,32.12737586174117,45.04396835,-0.682196869,-0.189153951,7.563042895715999E-6,-4.8644116806537E-5,8.537071147437E-4,113.9259759,994.7640789,8.90044E-4,629.1060022,411.7688089,-12421.5841,-12.81654833,-20368.89245,0.009483177,23057.54312,-14.73872637,2.010685126,1185.06082
7.0,1413.229532,1415.419208,-1.92602134,30019.74855,-75.6409594,36.04622429,32.127377042080134,45.04458353,-0.681415682,-0.189393606,-1.2662367272373001E-5,-5.099324376657E-5,8.479775367924E-4,115.5612804,994.7632574,8.90038E-4,629.1005415,411.7681288,-12421.50811,-12.90438699,-20368.78169,-0.058744706,23057.45132,-14.5568543,2.010687686,1185.06135
7.1,1413.214808,1415.435072,-1.953259722,30019.94251,-75.64048076,36.04661068,32.127378212420645,45.04519932,-0.680634654,-0.189636984,-6.474423084968999E-5,-5.3399666506116E-5,8.651662706463E-4,117.1955833,994.7624243,8.90032E-4,629.0950031,411.7674391,-12421.4303,-12.97877241,-20368.68436,-0.105070978,23057.31013,-14.40717317,2.010690224,1185.061853
7.2,1413.200068,1415.450888,-1.980482083,30020.1392,-75.64000212,36.04699708,32.12737937275964,45.04581768,-0.679853986,-0.189886471,-1.3120733508477E-4,-5.844169510326E-5,8.995437383540999E-4,118.828925,994.7615795,8.90025E-4,629.0893869,411.7667397,-12421.35072,-13.01997757,-20368.58209,-0.118271353,23057.16976,-14.32873144,2.01069274,1185.06233
7.3,1413.185307,1415.46666,-2.007687696,30020.33861,-75.63952347,36.04738346,32.127380523098644,45.04643963,-0.679073913,-0.190142559,-1.9251381916368E-4,-6.531718864482E-5,9.339212060619E-4,120.4612617,994.760723,8.90019E-4,629.0836931,411.7660306,-12421.26934,-13.01895589,-20368.4754,-0.097148984,23057.02912,-14.33789928,2.010695235,1185.06278
7.4,1413.170521,1415.482394,-2.034874808,30020.54073,-75.63904481,36.04776985,32.1273816634392,45.04706496,-0.678294589,-0.190403847,-2.3204790702765002E-4,-7.333859777664E-5,9.625690958183999E-4,122.0924885,994.7598548,8.90012E-4,629.0779217,411.7653118,-12421.18618,-12.97905622,-20368.34902,-0.050127486,23056.88686,-14.4254967,2.010697709,1185.063204
7.5,1413.155708,1415.498091,-2.062042353,30020.74558,-75.63856614,36.04815622,32.12738280377822,45.04769247,-0.677516012,-0.190667574,-2.4006931615946998E-4,-7.964113352307E-5,9.74028251721E-4,123.7225412,994.7589749,8.90006E-4,629.0720727,411.7645834,-12421.10121,-12.91416878,-20368.22027,0.007808838,23056.78513,-14.56125856,2.010700161,1185.063601
7.6,1413.140864,1415.513754,-2.089190195,30020.95314,-75.63808746,36.0485426,32.12738392411726,45.04832032,-0.676737921,-0.190930488,-2.1657804655914E-4,-8.422479588411E-5,9.682986737697E-4,125.3514117,994.7580833,8.89999E-4,629.0661462,411.7638453,-12421.01444,-12.84408324,-20368.09053,0.059766238,23056.63093,-14.70382008,2.010702592,1185.063972
7.7,1413.125992,1415.529382,-2.116316889,30021.16342,-75.63760878,36.04892897,32.12738504445631,45.04894659,-0.6759603,-0.191189779,-1.7016846515361E-4,-8.880845824515E-5,9.453803619645E-4,126.9790134,994.7571801,8.89992E-4,629.0601422,411.7630976,-12420.92587,-12.78855585,-20367.9576,0.09176611,23056.47393,-14.81299457,2.010705003,1185.064316
7.8,1413.111094,1415.544973,-2.143423598,30021.3764,-75.63713009,36.04931534,32.12738615479537,45.04956985,-0.67518325,-0.191443836,-1.1516451682112998E-4,-9.511099399157999E-5,9.110028942567E-4,128.6054159,994.7562653,8.89985E-4,629.0540609,411.7623402,-12420.83553,-12.76182835,-20367.82069,0.096414534,23056.31582,-14.86086637,2.010707392,1185.064634
7.9,1413.096173,1415.560523,-2.170508898,30021.5921,-75.63665139,36.0497017,32.12738725513444,45.05018951,-0.674406836,-0.191692594,-6.760901982534E-5,-1.0198648753314E-4,8.766254265489E-4,130.2305339,994.7553388,8.89978E-4,629.0479023,411.7615732,-12420.74341,-12.769086,-20367.69646,0.07446252,23056.15504,-14.83862552,2.01070976,1185.064926
8.0,1413.081233,1415.576029,-2.197571825,30021.81051,-75.63617268,36.05008806,32.12738834547352,45.05080588,-0.673631147,-0.191937445,-3.9763270982022003E-5,-1.088619810747E-4,8.479775367924E-4,131.8543095,994.7544007,8.89971E-4,629.0416664,411.7607966,-12420.6495,-12.80569383,-20367.53715,0.033984669,23055.99163,-14.75755967,2.010712107,1185.065192
8.1,1413.066276,1415.591489,-2.224612922,30022.03161,-75.63569397,36.05047441,32.12738943581262,45.0514201,-0.672856172,-0.192180739,-3.7586031360528E-5,-1.1631043241139E-4,8.307888029385E-4,133.4767753,994.7534509,8.89963E-4,629.0353533,411.7600103,-12420.55481,-12.85921515,-20367.40638,-0.012399618,23055.82567,-14.64446952,2.010714434,1185.065432
8.2,1413.051304,1415.606902,-2.251629677,30022.25543,-75.63521525,36.05086076,32.12739051615171,45.05203367,-0.672081943,-0.192425061,-5.958761069352E-5,-1.2318592595295E-4,8.307888029385E-4,135.0977806,994.7524896,8.89956E-4,629.0289631,411.7592145,-12420.45735,-12.91344627,-20367.24116,-0.051380729,23055.6558,-14.53301803,2.01071674,1185.065646
8.3,1413.036314,1415.62227,-2.27862198,30022.48194,-75.63473652,36.05124711,32.127391576490844,45.05264807,-0.671308268,-0.192672497,-9.797578296723E-5,-1.2719663051886E-4,8.479775367924E-4,136.7173188,994.7515166,8.89949E-4,629.0224959,411.758409,-12420.35809,-12.95319441,-20367.09119,-0.072686483,23055.52299,-14.45391887,2.010719025,1185.065834
8.4,1413.021306,1415.637593,-2.305592125,30022.71115,-75.63425778,36.05163345,32.12739263682997,45.05326432,-0.670534941,-0.19292409,-1.4037465980685E-4,-1.3120733508477E-4,8.708958485976E-4,138.3355275,994.7505321,8.89941E-4,629.0159517,411.7575939,-12420.25706,-12.96841883,-20366.95428,-0.071726593,23055.34171,-14.42660411,2.010721291,1185.065996
8.5,1413.006276,1415.652876,-2.332540077,30022.94306,-75.63377904,36.05201979,32.127393697167555,45.05388276,-0.669762138,-0.19317963,-1.7475212751464999E-4,-1.375098708312E-4,8.880845824515E-4,139.9524046,994.749536,8.89934E-4,629.0093305,411.7567693,-12420.15427,-12.95663362,-20366.8128,-0.050422848,23055.16066,-14.45469087,2.010723536,1185.066132
8.6,1412.991223,1415.668121,-2.359464917,30023.17766,-75.63330029,36.05240612,32.12739473750671,45.05450298,-0.668990053,-0.193437808,-1.9194086136855E-4,-1.4553127996301998E-4,9.052733163054E-4,141.567895,994.7485283,8.89926E-4,629.0026326,411.7559351,-12420.04973,-12.92303432,-20366.66731,-0.016209427,23054.97864,-14.52615269,2.01072576,1185.066243
8.7,1412.976144,1415.683329,-2.386366664,30023.41495,-75.63282153,36.05279245,32.127395767845876,45.05512398,-0.668218712,-0.193696654,-1.8793015680264E-4,-1.5240677350458E-4,9.052733163054E-4,143.1819998,994.747509,8.89918E-4,628.9958578,411.7550913,-12419.94341,-12.87848306,-20366.51969,0.020458201,23054.8368,-14.61781489,2.010727965,1185.066328
8.8,1412.961039,1415.698502,-2.413244351,30023.65493,-75.63234276,36.05317878,32.12739679818351,45.05574453,-0.667447922,-0.193954143,-1.6558480279257E-4,-1.5641747807049002E-4,8.938141604027999E-4,144.7946611,994.7464782,8.8991E-4,628.9890063,411.7542379,-12419.83532,-12.8360713,-20366.3708,0.049217943,23054.68829,-14.70261511,2.01073015,1185.066388
8.9,1412.945909,1415.713637,-2.440098916,30023.8976,-75.63186399,36.0535651,32.12739781852269,45.0563635,-0.666677561,-0.194208752,-1.3235325067502998E-4,-1.6214705602179E-4,8.766254265489E-4,146.405935,994.7454359,8.89902E-4,628.9820782,411.753375,-12419.72547,-12.80731975,-20366.21851,0.062677986,23054.49254,-14.75743618,2.010732315,1185.066422
9.0,1412.930756,1415.728735,-2.466930087,30024.14295,-75.63138521,36.05395142,32.127398828860336,45.05698018,-0.665907892,-0.194459851,-9.797578296723E-5,-1.7016846515361E-4,8.479775367924E-4,148.0158052,994.744382,8.89894E-4,628.9750735,411.7525025,-12419.61389,-12.79909826,-20366.06131,0.058243367,23054.29779,-14.76917864,2.01073446,1185.066431
9.1,1412.915583,1415.743791,-2.493737088,30024.39098,-75.63090642,36.05433773,32.12739982919956,45.05759444,-0.665138966,-0.19470781,-7.161972439125001E-5,-1.7647100090004E-4,8.250592249871999E-4,149.6242253,994.7433166,8.89886E-4,628.9679923,411.7516205,-12419.50054,-12.81206601,-20365.9024,0.038476823,23054.14238,-14.73769375,2.010736585,1185.066414
9.2,1412.900392,1415.758805,-2.520519602,30024.6417,-75.63042762,36.05472404,32.127400819537236,45.0582067,-0.664370769,-0.19495382,-6.0160568488649994E-5,-1.8449241003186E-4,8.078704911333001E-4,151.2311761,994.7422397,8.89878E-4,628.9608347,411.750729,-12419.38545,-12.84095178,-20365.7553,0.010010064,23053.94124,-14.67483603,2.010738691,1185.066373
9.3,1412.885183,1415.773775,-2.547276178,30024.89509,-75.62994882,36.05511035,32.12740180987491,45.05881784,-0.6636035,-0.195199504,-6.531718864482E-5,-1.948056503442E-4,8.02140913182E-4,152.8365707,994.7411513,8.8987E-4,628.9536007,411.749828,-12419.26961,-12.87645931,-20365.58807,-0.018610558,23053.73969,-14.60028693,2.010740778,1185.066306
9.4,1412.869958,1415.788702,-2.574006243,30025.15115,-75.62947001,36.05549665,32.127402790214155,45.05942883,-0.662837152,-0.195446431,-8.422479588411E-5,-2.0282705947602E-4,8.078704911333001E-4,154.4403746,994.7400514,8.89861E-4,628.9462905,411.7489174,-12419.15103,-12.90814762,-20365.41913,-0.039426664,23053.57751,-14.53548107,2.010742845,1185.066213
9.5,1412.854714,1415.803586,-2.600708192,30025.40989,-75.62899119,36.05588294,32.12740376055187,45.06004054,-0.662071542,-0.195695688,-1.1058085446009E-4,-2.1027551081271E-4,8.193296470359E-4,156.0424915,994.73894,8.89853E-4,628.938904,411.7479974,-12419.0307,-12.92741317,-20365.23194,-0.047249416,23053.36595,-14.49757238,2.010744893,1185.066096
9.6,1412.839451,1415.818429,-2.627381992,30025.67129,-75.62851236,36.05626923,32.127404720889594,45.06065343,-0.661306745,-0.195947612,-1.3636395524094E-4,-2.1886987773966E-4,8.307888029385E-4,157.6429195,994.7378172,8.89844E-4,628.9314414,411.7470678,-12418.90863,-12.92974117,-20365.05724,-0.040872553,23053.15237,-14.4949761,2.010746921,1185.065954
9.7,1412.824166,1415.833233,-2.654027098,30025.93536,-75.62803353,36.05665552,32.12740567122733,45.06126753,-0.660542845,-0.196201754,-1.5355268909484E-4,-2.2803720246174E-4,8.422479588411E-4,159.2416259,994.7366829,8.89836E-4,628.9239028,411.7461288,-12418.78483,-12.91565368,-20364.86287,-0.023124662,23052.93745,-14.52566196,2.010748931,1185.065787
9.8,1412.80886,1415.848,-2.680641804,30026.2021,-75.62755469,36.05704181,32.12740661156508,45.06188239,-0.659779861,-0.196457061,-1.5870930925101001E-4,-2.3720452718382E-4,8.422479588411E-4,160.8385082,994.7355372,8.89827E-4,628.9162882,411.7451803,-12418.65929,-12.8901891,-20364.68197,2.19464E-4,23052.71847,-14.57852581,2.010750922,1185.065596
9.9,1412.79353,1415.862731,-2.70722551,30026.47149,-75.62707584,36.05742809,32.12740755190283,45.06249729,-0.659017817,-0.196712213,-1.5068790011918997E-4,-2.463718519059E-4,8.422479588411E-4,162.4335306,994.73438,8.89818E-4,628.9085978,411.7442224,-12418.53203,-12.86116719,-20364.46622,0.022264834,23052.49666,-14.63711696,2.010752893,1185.065379
10.0,1412.778177,1415.877425,-2.733779329,30026.74354,-75.62659698,36.05781436,32.12740848224059,45.06311145,-0.658256453,-0.196966011,-1.3292620847015998E-4,-2.5210142985720004E-4,8.307888029385E-4,164.0267598,994.7332115,8.89809E-4,628.9008316,411.743255,-12418.40301,-12.83681106,-20364.28221,0.036989617,23052.31093,-14.68465207,2.010754847,1185.065138
10.1,1412.762802,1415.892081,-2.760302892,30027.01824,-75.62611812,36.05820063,32.12740940257837,45.06372423,-0.657495705,-0.197217698,-1.1000789666495999E-4,-2.5897692339875997E-4,8.136000690846E-4,165.6181735,994.7320315,8.898E-4,628.8929897,411.7422781,-12418.27227,-12.8234353,-20364.09444,0.040855362,23052.07891,-14.70863802,2.010756781,1185.064873
10.2,1412.747406,1415.906699,-2.786797619,30027.2956,-75.62563925,36.0585869,32.12741031291617,45.06433533,-0.656735783,-0.197467141,-8.938141604028E-5,-2.6814424812084E-4,7.964113352307E-4,167.2078572,994.7308401,8.89791E-4,628.8850723,411.7412919,-12418.13983,-12.82383603,-20363.91798,0.03359476,23051.84741,-14.70407293,2.010758697,1185.064583
10.3,1412.731992,1415.921276,-2.813261884,30027.5756,-75.62516037,36.05897316,32.12741122325396,45.06494481,-0.655976834,-0.197714814,-7.620338675229E-5,-2.7673861504779E-4,7.792226013768E-4,168.7957131,994.7296374,8.89782E-4,628.8770793,411.7402962,-12418.00567,-12.8367774,-20363.72327,0.018055146,23051.65675,-14.67422783,2.010760595,1185.064268
10.4,1412.716559,1415.935813,-2.839695604,30027.85825,-75.62468149,36.05935942,32.127412113591774,45.06555309,-0.655218656,-0.197961629,-7.276563998150999E-5,-2.8533298197474E-4,7.734930234254999E-4,170.3817362,994.7284233,8.89773E-4,628.8690109,411.7392911,-12417.86978,-12.85763504,-20363.52602,-8.33805E-4,23051.41728,-14.62915668,2.010762474,1185.063929
10.5,1412.70111,1415.950309,-2.866098509,30028.14354,-75.6242026,36.05974568,32.127413003928055,45.06616077,-0.654461307,-0.198208644,-8.021409131819999E-5,-2.922084755163E-4,7.677634454742E-4,171.9659106,994.7271978,8.89764E-4,628.8608672,411.7382766,-12417.73317,-12.87993233,-20363.32645,-0.017582641,23051.21864,-14.58239464,2.010764335,1185.063566
10.6,1412.685642,1415.964763,-2.892470538,30028.43147,-75.6237237,36.06013193,32.127413884265884,45.06676846,-0.653704677,-0.198456764,-9.453803619645001E-5,-3.0022988464812E-4,7.734930234254999E-4,173.5482323,994.7259611,8.89754E-4,628.8526483,411.7372528,-12417.59386,-12.89727597,-20363.12378,-0.027703126,23050.97243,-14.54691704,2.010766178,1185.063179
10.7,1412.670157,1415.979178,-2.918811894,30028.72203,-75.62324479,36.06051817,32.127414754603734,45.06737663,-0.652948959,-0.198706495,-1.1115381225522E-4,-3.093972093702E-4,7.792226013768E-4,175.1287137,994.724713,8.89745E-4,628.8443542,411.7362196,-12417.45285,-12.90512325,-20362.93365,-0.028881782,23050.76924,-14.53161436,2.010768003,1185.062767
10.8,1412.654652,1415.993554,-2.945122392,30029.01523,-75.62276588,36.06090442,32.12741561494005,45.06798546,-0.652194048,-0.198957839,-1.2605071492860002E-4,-3.1799157629715003E-4,7.849521793280999E-4,176.7073435,994.7234535,8.89735E-4,628.835985,411.735177,-12417.31014,-12.90190475,-20362.7406,-0.021458264,23050.51814,-14.53911267,2.01076981,1185.062332
10.9,1412.639127,1416.007892,-2.971401186,30029.31106,-75.62228696,36.06129065,32.12741647527792,45.06859483,-0.651440185,-0.199210329,-1.3349916626529E-4,-3.2945073219975E-4,7.906817572794E-4,178.2840712,994.7221828,8.89725E-4,628.8275409,411.734125,-12417.16574,-12.88923818,-20362.52702,-0.008131696,23050.26771,-14.56551821,2.010771599,1185.061873
11.0,1412.623581,1416.022193,-2.997646587,30029.60951,-75.62180803,36.06167689,32.12741731561427,45.06920438,-0.65068748,-0.199463193,-1.3292620847015998E-4,-3.4033693030722E-4,7.849521793280999E-4,179.8587952,994.7209008,8.89716E-4,628.8190219,411.7330637,-12417.01964,-12.87124195,-20362.31099,0.006954895,23050.05844,-14.6019643,2.010773371,1185.061389
11.1,1412.608014,1416.036458,-3.023857691,30029.91059,-75.6213291,36.06206312,32.12741815595215,45.0698136,-0.6499357,-0.199715592,-1.2490479933834E-4,-3.4950425502929997E-4,7.792226013768E-4,181.4314615,994.7196076,8.89706E-4,628.8104281,411.7319931,-12416.87183,-12.8532057,-20362.09354,0.019489348,23049.79815,-14.6374817,2.010775125,1185.060882
11.2,1412.592427,1416.050686,-3.050034477,30030.21428,-75.62085016,36.06244934,32.12741898628851,45.07042202,-0.649184912,-0.199966855,-1.1115381225522E-4,-3.5981749534164E-4,7.734930234254999E-4,183.0020686,994.7183031,8.89696E-4,628.8017597,411.7309132,-12416.72234,-12.84003533,-20361.87223,0.026179715,23049.537,-14.66215867,2.010776861,1185.060352
11.3,1412.576819,1416.064877,-3.076175874,30030.52059,-75.62037121,36.06283556,32.127419816626414,45.07102932,-0.64843523,-0.200216658,-9.682986737696999E-5,-3.7127665124424E-4,7.620338675228999E-4,184.5705525,994.7169873,8.89686E-4,628.7930167,411.729824,-12416.57117,-12.83492017,-20361.64756,0.025607784,23049.27396,-14.66984506,2.01077858,1185.059797
11.4,1412.561193,1416.07903,-3.10228051,30030.82951,-75.61989225,36.06322178,32.127420626962795,45.07163539,-0.647686703,-0.200465083,-8.479775367924E-5,-3.8273580714684E-4,7.44845133669E-4,186.1368306,994.7156603,8.89676E-4,628.7841992,411.7287255,-12416.41831,-12.83857633,-20361.40407,0.018471217,23049.00809,-14.65954101,2.010780282,1185.059219
11.5,1412.545549,1416.093144,-3.128348724,30031.14105,-75.61941329,36.06360799,32.12742143729919,45.07224038,-0.646939092,-0.200712567,-7.849521793281E-5,-3.9018425848353E-4,7.391155557177E-4,187.7009234,994.7143221,8.89666E-4,628.7753074,411.7276177,-12416.26475,-12.84923243,-20361.1765,0.007243042,23048.77832,-14.63534462,2.010781967,1185.058618
11.6,1412.529887,1416.107219,-3.15438141,30031.45518,-75.61893432,36.0639942,32.12742223763559,45.07284461,-0.646192332,-0.200959756,-7.906817572794E-5,-3.9992454100074E-4,7.333859777664E-4,189.2628846,994.7129728,8.89655E-4,628.7663413,411.7265006,-12416.10852,-12.86330652,-20360.96083,-0.004660247,23048.50306,-14.60486863,2.010783634,1185.057993
11.7,1412.514208,1416.121255,-3.180377872,30031.77192,-75.61845534,36.0643804,32.127423027972014,45.07344849,-0.645446636,-0.201207305,-8.59436692695E-5,-4.1138369690333997E-4,7.333859777664E-4,190.8226723,994.7116122,8.89645E-4,628.7573011,411.7253743,-12415.95062,-12.87653469,-20360.72519,-0.013886591,23048.22742,-14.57691793,2.010785285,1185.057345
11.8,1412.498512,1416.135251,-3.206337481,30032.09126,-75.61797635,36.0647666,32.12742380830998,45.07405238,-0.644702068,-0.201455703,-9.568395178671E-5,-4.2112397942055E-4,7.333859777664E-4,192.3802489,994.7102405,8.89634E-4,628.7481868,411.7242388,-12415.79106,-12.88520513,-20360.48745,-0.018072211,23047.99238,-14.55894172,2.010786918,1185.056673
11.9,1412.482799,1416.14921,-3.232259569,30032.41319,-75.61749736,36.0651528,32.12742458864641,45.07465651,-0.643958409,-0.201705142,-1.0599719209905E-4,-4.3086426193776E-4,7.333859777664E-4,193.9355741,994.7088577,8.89624E-4,628.7389987,411.723094,-12415.62981,-12.88714712,-20360.24781,-0.016432755,23047.70745,-14.55506003,2.010788535,1185.055979
12.0,1412.467066,1416.163132,-3.258144679,30032.73771,-75.61701836,36.06553899,32.12742534898287,45.07526091,-0.643215784,-0.201955493,-1.1344564343574E-4,-4.411775022501E-4,7.391155557177E-4,195.4886807,994.7074637,8.89613E-4,628.7297367,411.72194,-12415.46691,-12.88221806,-20360.02007,-0.009859144,23047.46715,-14.56517141,2.010790135,1185.055261
12.1,1412.451315,1416.177017,-3.283992664,30033.06482,-75.61653936,36.06592517,32.12742610931933,45.07586544,-0.642474068,-0.202206359,-1.1631043241139E-4,-4.4862595358678996E-4,7.391155557177E-4,197.0395598,994.7060586,8.89603E-4,628.7204009,411.7207769,-12415.30233,-12.87219176,-20359.79233,-5.42248E-4,23047.21805,-14.58530679,2.010791719,1185.054521
12.2,1412.435544,1416.190866,-3.30980529,30033.39451,-75.61606034,36.06631135,32.12742685965426,45.07646982,-0.641733093,-0.202457211,-1.1344564343574E-4,-4.5779327830887E-4,7.333859777664E-4,198.5883174,994.7046424,8.89592E-4,628.7109916,411.7196045,-12415.1361,-12.86012357,-20359.56101,0.008728267,23046.92267,-14.60901304,2.010793286,1185.053757
12.3,1412.419754,1416.204679,-3.335582385,30033.72677,-75.61558132,36.06669753,32.127427609990725,45.07707372,-0.640993172,-0.202707542,-1.0599719209905E-4,-4.6867947641634E-4,7.276563998151E-4,200.1349431,994.7032151,8.89581E-4,628.7015088,411.718423,-12414.96923,-12.84940709,-20359.34103,0.015382408,23046.67312,-14.62931859,2.010794837,1185.052971
12.4,1412.403945,1416.218455,-3.361321904,30034.06162,-75.6151023,36.0670837,32.12742834032723,45.07767686,-0.640254303,-0.202957004,-9.682986737696999E-5,-4.7956567452380996E-4,7.161972439125E-4,201.6793142,994.7017767,8.8957E-4,628.6919526,411.7172323,-12414.79971,-12.84280774,-20359.08663,0.017771548,23046.37523,-14.64071418,2.010796372,1185.052162
12.5,1412.388118,1416.232195,-3.387024433,30034.39904,-75.61462326,36.06746987,32.12742907066372,45.07827911,-0.639516683,-0.203205497,-8.766254265488999E-5,-4.9331666160693E-4,7.104676659612E-4,203.221466,994.7003274,8.89559E-4,628.682323,411.7160324,-12414.62855,-12.84174192,-20358.85932,0.015545889,23046.07853,-14.64057593,2.01079789,1185.05133
12.6,1412.372273,1416.245898,-3.412687156,30034.73902,-75.61414422,36.06785604,32.12742979100023,45.07888045,-0.638780427,-0.203453175,-8.078704911333E-5,-5.0592173309979E-4,6.990085100585999E-4,204.7612294,994.6988669,8.89548E-4,628.6726204,411.7148235,-12414.45575,-12.84598466,-20358.59808,0.009673344,23045.82258,-14.62968467,2.010799393,1185.050475
12.7,1412.356412,1416.259564,-3.438310012,30035.08157,-75.61366517,36.0682422,32.12743050133522,45.07948104,-0.638045337,-0.203700387,-7.849521793281E-5,-5.179538467975199E-4,6.932789321073E-4,206.2986007,994.6973955,8.89537E-4,628.6628446,411.7136054,-12414.28131,-12.85385459,-20358.35046,0.002049378,23045.51772,-14.61173068,2.010800879,1185.049598
12.8,1412.340534,1416.273192,-3.463891652,30035.42668,-75.61318612,36.06862835,32.127431201671754,45.08008112,-0.637311557,-0.203947561,-8.021409131819999E-5,-5.317048338806399E-4,6.87549354156E-4,207.8334991,994.695913,8.89525E-4,628.6529959,411.7123782,-12414.10524,-12.86278893,-20358.08341,-0.005079475,23045.21158,-14.59209022,2.01080235,1185.048699
12.9,1412.324639,1416.286783,-3.489430735,30035.77435,-75.61270706,36.06901451,32.1274319020083,45.08068094,-0.636579122,-0.204195086,-8.537071147437E-5,-5.443099053735E-4,6.87549354156E-4,209.3658441,994.6944196,8.89514E-4,628.6430744,411.7111419,-12413.92753,-12.87012032,-20357.81362,-0.009770223,23044.94754,-14.57621447,2.010803805,1185.047777
13.0,1412.308728,1416.300336,-3.514926537,30036.12457,-75.61222799,36.06940065,32.12743259234331,45.0812807,-0.635847766,-0.204443202,-9.224620501593E-5,-5.5347723009558E-4,6.87549354156E-4,210.8955922,994.6929152,8.89503E-4,628.6330802,411.7098965,-12413.74817,-12.8738243,-20357.52841,-0.010905748,23044.62885,-14.56809843,2.010805244,1185.046833
13.1,1412.292799,1416.313854,-3.540380829,30036.47734,-75.61174891,36.0697868,32.12743327267988,45.0818805,-0.635117429,-0.204691945,-9.797578296723E-5,-5.649363859981801E-4,6.87549354156E-4,212.4228497,994.6913999,8.89491E-4,628.6230135,411.7086421,-12413.56719,-12.87303337,-20357.27092,-0.008435845,23044.31015,-14.56929053,2.010806668,1185.045867
13.2,1412.276853,1416.327335,-3.565792601,30036.83264,-75.61126983,36.07017293,32.127433943014914,45.08248031,-0.634388295,-0.204941156,-1.0141352973801E-4,-5.786873730812999E-4,6.87549354156E-4,213.9475561,994.6898736,8.89479E-4,628.6128743,411.7073787,-12413.38659,-12.86819125,-20356.99367,-0.003314559,23043.99091,-14.57863445,2.010808077,1185.044879
13.3,1412.260889,1416.34078,-3.591161425,30037.19049,-75.61079074,36.07055907,32.12743461334997,45.08308,-0.633660478,-0.205190533,-1.0141352973801E-4,-5.901465289838999E-4,6.87549354156E-4,215.4696855,994.6883364,8.89468E-4,628.6026627,411.7061062,-12413.20238,-12.86083218,-20356.71376,0.002840913,23043.71367,-14.59278789,2.010809469,1185.043868
13.4,1412.244907,1416.354191,-3.616487764,30037.55087,-75.61031164,36.0709452,32.12743526368657,45.08367937,-0.632933764,-0.205439733,-9.797578296723E-5,-6.016056848865E-4,6.818197762047E-4,216.9892658,994.6867884,8.89456E-4,628.592379,411.7048247,-12413.01655,-12.8530734,-20356.44879,0.008244353,23043.42993,-14.60735163,2.010810847,1185.042836
13.5,1412.228908,1416.367566,-3.641771766,30037.91379,-75.60983254,36.07133132,32.12743591402164,45.08427821,-0.632207991,-0.205688466,-9.224620501593E-5,-6.073352628378E-4,6.760901982534E-4,218.5063059,994.6852294,8.89444E-4,628.5820232,411.7035342,-12412.82909,-12.84698475,-20356.182,0.011454288,23043.09647,-14.61811855,2.01081221,1185.041781
13.6,1412.212891,1416.380906,-3.667014027,30038.27923,-75.60935343,36.07171744,32.12743655435672,45.08487639,-0.631483252,-0.205936569,-8.59436692695E-5,-6.187944187404E-4,6.703606203021E-4,220.0208416,994.6836596,8.89432E-4,628.5715955,411.7022347,-12412.64004,-12.84401805,-20355.92801,0.011739589,23042.80602,-14.6222542,2.010813557,1185.040705
13.7,1412.196858,1416.39421,-3.692215069,30038.64719,-75.60887431,36.07210356,32.1274371946918,45.08547384,-0.630759599,-0.206184049,-8.021409131819999E-5,-6.30253574643E-4,6.589014643995E-4,221.5329042,994.682079,8.8942E-4,628.5610959,411.7009262,-12412.44939,-12.84465051,-20355.65367,0.009244575,23042.47138,-14.61897698,2.01081489,1185.039608
13.8,1412.180808,1416.407479,-3.717374128,30039.01767,-75.60839519,36.07248967,32.12743781502845,45.08607061,-0.630037326,-0.206431062,-7.677634454742E-5,-6.474423084969E-4,6.531718864481999E-4,223.0424477,994.6804876,8.89408E-4,628.5505247,411.6996088,-12412.25716,-12.84832496,-20355.39152,0.004864051,23042.18106,-14.60960506,2.010816208,1185.038489
13.9,1412.164743,1416.420711,-3.742490086,30039.39066,-75.60791606,36.07287578,32.12743843536356,45.08666682,-0.629316397,-0.206677861,-7.620338675229E-5,-6.589014643995E-4,6.474423084969E-4,224.5494052,994.6788853,8.89396E-4,628.5398818,411.6982825,-12412.06432,-12.85368151,-20355.11081,-4.63E-5,23041.84284,-14.59707908,2.010817512,1185.037348
14.0,1412.148662,1416.433907,-3.767560986,30039.76617,-75.60743692,36.07326188,32.12743904569868,45.08726264,-0.628596954,-0.206924719,-7.792226013768E-5,-6.760901982534E-4,6.474423084969E-4,226.0536591,994.6772723,8.89384E-4,628.5291675,411.6969472,-12411.86891,-12.85899496,-20354.82641,-0.004082896,23041.5489,-14.58495158,2.0108188,1185.036185
14.1,1412.132564,1416.447068,-3.792585741,30040.14417,-75.60695778,36.07364798,32.12743964603382,45.08785821,-0.627878832,-0.207171852,-8.193296470359E-5,-6.87549354156E-4,6.474423084969E-4,227.5551444,994.6756485,8.89371E-4,628.5183819,411.6956031,-12411.67189,-12.86267988,-20354.52599,-0.006194169,23041.20182,-14.57643876,2.010820074,1185.035002
14.2,1412.116451,1416.460193,-3.817564702,30040.52468,-75.60647863,36.07403408,32.12744024636896,45.08845364,-0.62716202,-0.20741936,-8.537071147437E-5,-6.990085100585999E-4,6.417127305455999E-4,229.0538821,994.674014,8.89359E-4,628.507525,411.69425,-12411.47329,-12.8637204,-20354.2375,-0.005934432,23040.85467,-14.5734973,2.010821334,1185.033797
14.3,1412.100322,1416.473283,-3.842496079,30040.90769,-75.60599947,36.07442017,32.12744082670412,45.08904896,-0.626446629,-0.207667214,-8.880845824515E-5,-7.161972439125E-4,6.417127305455999E-4,230.5497647,994.6723687,8.89346E-4,628.4965972,411.692888,-12411.27312,-12.86190932,-20353.93043,-0.00355759,23040.54977,-14.57638455,2.01082258,1185.032571
14.4,1412.084176,1416.486338,-3.867381193,30041.29318,-75.60552031,36.07480625,32.127441407039285,45.08964413,-0.62573247,-0.207915268,-8.938141604028E-5,-7.276563998151E-4,6.417127305455999E-4,232.0428716,994.6707127,8.89334E-4,628.4855984,411.6915173,-12411.07135,-12.8578454,-20353.63813,1.24106E-4,23040.19391,-14.58373774,2.010823811,1185.031324
14.5,1412.068014,1416.49936,-3.89221915,30041.68116,-75.60504113,36.07519234,32.12744198737291,45.09023903,-0.625019637,-0.208163311,-8.823550045002E-5,-7.391155557177E-4,6.359831525943001E-4,233.533149,994.6690461,8.89321E-4,628.4745288,411.6901376,-12410.86803,-12.85270716,-20353.34201,0.003987962,23039.8377,-14.59304453,2.010825028,1185.030055
14.6,1412.051836,1416.512346,-3.917009484,30042.07162,-75.60456196,36.07557841,32.1274425477081,45.09083354,-0.624308179,-0.20841113,-8.537071147437E-5,-7.563042895716001E-4,6.30253574643E-4,235.020569,994.6673688,8.89308E-4,628.4633887,411.6887492,-12410.66313,-12.8478828,-20353.044,0.006951562,23039.52218,-14.6014419,2.010826232,1185.028766
14.7,1412.035642,1416.525299,-3.941751912,30042.46456,-75.60408277,36.07596448,32.127443108043295,45.09142753,-0.623597888,-0.208658569,-8.136000690845999E-5,-7.620338675228999E-4,6.245239966917001E-4,236.5051147,994.6656809,8.89295E-4,628.452178,411.6873519,-12410.45765,-12.84456968,-20352.7286,0.008256874,23039.20148,-14.6065402,2.010827421,1185.027456
14.8,1412.019432,1416.538217,-3.966448496,30042.85997,-75.60360358,36.07635055,32.127443658378496,45.09202094,-0.622888688,-0.208905568,-7.677634454742E-5,-7.792226013768E-4,6.187944187404E-4,237.9869098,994.6639823,8.89282E-4,628.4408969,411.6859458,-12410.24962,-12.84345649,-20352.44207,0.007669978,23038.83367,-14.60701863,2.010828597,1185.026125
14.9,1412.003206,1416.551101,-3.991099184,30043.25785,-75.60312438,36.07673662,32.127444198712176,45.09261375,-0.622180698,-0.209152173,-7.391155557176999E-5,-7.906817572794E-4,6.130648407891E-4,239.465951,994.6622731,8.89269E-4,628.4295456,411.684531,-12410.04004,-12.84456972,-20352.15291,0.00548949,23038.50813,-14.60296219,2.010829759,1185.024774
15.0,1411.986965,1416.56395,-4.015703869,30043.65819,-75.60264518,36.07712268,32.12744472904741,45.09320601,-0.621474094,-0.209398515,-7.219268218637999E-5,-8.02140913182E-4,6.073352628378E-4,240.9422321,994.6605534,8.89256E-4,628.4181243,411.6831074,-12409.82892,-12.84731604,-20351.85877,0.002440489,23038.1398,-14.59569588,2.010830908,1185.023402
15.1,1411.97071,1416.576765,-4.04026033,30044.06099,-75.60216596,36.07750873,32.127445259381105,45.09379783,-0.620769038,-0.209644766,-7.219268218637999E-5,-8.193296470359E-4,6.073352628378E-4,242.4156198,994.658823,8.89243E-4,628.4066329,411.6816751,-12409.61626,-12.85069304,-20351.5464,-5.6576E-4,23037.81313,-14.58732761,2.010832043,1185.02201
15.2,1411.954439,1416.589545,-4.064767891,30044.46624,-75.60168675,36.07789478,32.12744577971635,45.0943893,-0.620065453,-0.209891091,-7.333859777664E-5,-8.365183808898E-4,6.016056848865E-4,243.8860735,994.6570822,8.8923E-4,628.3950718,411.680234,-12409.40205,-12.85359773,-20351.23107,-0.002698556,23037.4395,-14.58012761,2.010833164,1185.020597
15.3,1411.938154,1416.602291,-4.08922545,30044.87394,-75.60120752,36.07828083,32.127446290050074,45.0949805,-0.61936351,-0.210137601,-7.563042895716E-5,-8.537071147437E-4,6.016056848865E-4,245.353527,994.6553308,8.89217E-4,628.383441,411.6787843,-12409.18731,-12.85513982,-20350.91209,-0.003434417,23037.06537,-14.57586927,2.010834273,1185.019163
15.4,1411.921854,1416.615003,-4.113632252,30045.28408,-75.60072829,36.07866687,32.12744679038534,45.0955715,-0.618663088,-0.210384327,-7.792226013768E-5,-8.651662706463E-4,5.958761069352E-4,246.8179351,994.6535689,8.89203E-4,628.3717406,411.6773258,-12408.97002,-12.85487319,-20350.59288,-0.002670338,23036.72857,-14.57536753,2.010835368,1185.01771
15.5,1411.905538,1416.627681,-4.137986895,30045.69666,-75.60024905,36.0790529,32.127447290719076,45.09616229,-0.61796409,-0.210631216,-7.906817572794E-5,-8.823550045002E-4,5.958761069352E-4,248.2792137,994.6517966,8.8919E-4,628.3599709,411.6758587,-12408.7512,-12.85288589,-20350.25467,-7.33829E-4,23036.34516,-14.57833968,2.010836451,1185.016236
15.6,1411.889208,1416.640326,-4.162289608,30046.11168,-75.59976981,36.07943894,32.12744778105282,45.09675282,-0.617266619,-0.210878153,-7.906817572794E-5,-8.938141604027999E-4,5.901465289838999E-4,249.7373765,994.6500138,8.89176E-4,628.348132,411.674383,-12408.53086,-12.84973602,-20349.92921,0.001754231,23036.00524,-14.58356689,2.01083752,1185.014742
15.7,1411.872862,1416.652938,-4.186540581,30046.52912,-75.59929056,36.07982496,32.12744826138813,45.097343,-0.616570504,-0.211124998,-7.734930234255E-5,-9.052733163054E-4,5.901465289838999E-4,251.1924349,994.6482206,8.89162E-4,628.336224,411.6728986,-12408.30897,-12.8462621,-20349.60345,0.004060288,23035.61292,-14.58928748,2.010838577,1185.013228
15.8,1411.856502,1416.665517,-4.210739459,30046.94898,-75.5988113,36.08021099,32.127448731721906,45.09793277,-0.615875705,-0.211371627,-7.505747116203E-5,-9.224620501592999E-4,5.844169510326E-4,252.6443675,994.6464169,8.89149E-4,628.324247,411.6714055,-12408.08557,-12.84332952,-20349.2753,0.005559161,23035.26257,-14.59373656,2.01083962,1185.011695
15.9,1411.840127,1416.678062,-4.234888675,30047.37127,-75.59833203,36.08059701,32.127449202055686,45.09852205,-0.615182052,-0.211617962,-7.161972439125001E-5,-9.339212060619E-4,5.786873730812999E-4,254.0933205,994.6446029,8.89135E-4,628.3122014,411.6699039,-12407.86064,-12.84158872,-20348.96153,0.005894329,23034.90737,-14.59563178,2.010840652,1185.010141
16.0,1411.823738,1416.690575,-4.258988124,30047.79596,-75.59785276,36.08098302,32.12744966238947,45.09911081,-0.614489619,-0.211863994,-6.932789321073E-5,-9.453803619645E-4,5.729577951300001E-4,255.5392874,994.6427785,8.89121E-4,628.300087,411.6683937,-12407.63522,-12.84131072,-20348.64323,0.005059674,23034.55364,-14.59450757,2.010841671,1185.008568
16.1,1411.807334,1416.703054,-4.283037759,30048.22306,-75.59737348,36.08136903,32.12745011272327,45.09969906,-0.613798543,-0.212109776,-6.703606203021E-5,-9.568395178670999E-4,5.6780117497383E-4,256.9822655,994.6409437,8.89107E-4,628.2879042,411.666875,-12407.40729,-12.8423407,-20348.32281,0.003375228,23034.1514,-14.59073778,2.010842677,1185.006975
16.2,1411.790917,1416.7155,-4.307037746,30048.65257,-75.5968942,36.08175504,32.12745055305709,45.10028685,-0.613109085,-0.212355408,-6.646310423507999E-5,-9.74028251721E-4,5.632175126127901E-4,258.4222647,994.6390987,8.89093E-4,628.2756531,411.6653477,-12407.17788,-12.84417201,-20348.01295,0.001369016,23033.79737,-14.58543035,2.010843671,1185.005363
16.3,1411.774485,1416.727912,-4.330985524,30049.08447,-75.59641491,36.08214104,32.12745099339091,45.10087425,-0.612421293,-0.212601,-6.646310423507999E-5,-9.912169855749E-4,5.5977976584201E-4,259.8591314,994.6372433,8.89079E-4,628.2633338,411.6638119,-12406.94697,-12.84611313,-20347.66948,-3.77639E-4,23033.39421,-14.5800226,2.010844653,1185.003731
16.4,1411.75804,1416.740292,-4.354879841,30049.51876,-75.59593561,36.08252703,32.127451423724736,45.10146131,-0.611735267,-0.212846648,-6.760901982534E-5,-0.0010141352973801,5.5634201907123E-4,261.2927904,994.6353776,8.89065E-4,628.2509464,411.6622676,-12406.71458,-12.84749307,-20347.3221,-0.001402216,23032.99133,-14.57588598,2.010845623,1185.00208
16.5,1411.741581,1416.752639,-4.37871891,30049.95544,-75.59545631,36.08291303,32.12745184405858,45.10204809,-0.611050922,-0.213092402,-6.87549354156E-5,-0.0010255944532827001,5.5347723009558E-4,262.7231346,994.6335017,8.8905E-4,628.2384912,411.6607148,-12406.48069,-12.84784624,-20346.97453,-0.001471138,23032.62597,-14.57392371,2.01084658,1185.000409
16.6,1411.725108,1416.764954,-4.402502986,30050.3945,-75.594977,36.08329901,32.127452264392424,45.10263461,-0.610368146,-0.213338259,-6.990085100586E-5,-0.0010427831871365999,5.5061244111993E-4,264.1501792,994.6316156,8.89036E-4,628.2259682,411.6591535,-12406.2463,-12.84702599,-20346.62377,-6.38382E-4,23032.21441,-14.57436936,2.010847526,1184.998719
16.7,1411.708622,1416.777236,-4.426231509,30050.83594,-75.59449768,36.083685,32.127452674726285,45.10322084,-0.609687086,-0.213584167,-6.990085100586E-5,-0.0010599719209904998,5.4774765214428E-4,265.5738906,994.6297192,8.89022E-4,628.2133777,411.6575838,-12406.00945,-12.84522184,-20346.26959,7.97563E-4,23031.80217,-14.5767723,2.01084846,1184.99701
16.8,1411.692121,1416.789486,-4.449902305,30051.27975,-75.59401836,36.08407098,32.12745307506016,45.10380676,-0.609007671,-0.213830043,-6.932789321073E-5,-0.0010771606548444,5.443099053735E-4,266.9941383,994.6278127,8.89007E-4,628.2007198,411.6560056,-12405.77111,-12.84288116,-20345.89922,0.002392168,23031.42775,-14.58018147,2.010849382,1184.995283
