time,eiPosition_ft_X,eiPosition_ft_Y,eiPosition_ft_Z,gePosition_ft_X,gePosition_ft_Y,gePosition_ft_Z,eiVelocity_ft_s_X,eiVelocity_ft_s_Y,eiVelocity_ft_s_Z,feVelocity_ft_s_X,feVelocity_ft_s_Y,feVelocity_ft_s_Z,altitudeMsl_ft,longitude_deg,latitude_deg,localGravity_ft_s2,eulerAngle_deg_Yaw,eulerAngle_deg_Pitch,eulerAngle_deg_Roll,bodyAngularRateWrtEi_deg_s_Roll,bodyAngularRateWrtEi_deg_s_Pitch,bodyAngularRateWrtEi_deg_s_Yaw,altitudeRateWrtMsl_ft_min,speedOfSound_ft_s,airDensity_slug_ft3,ambientPressure_lbf_ft2,ambientTemperature_dgR,aero_bodyForce_lbf_X,aero_bodyForce_lbf_Y,aero_bodyForce_lbf_Z,aero_bodyMoment_ftlbf_L,aero_bodyMoment_ftlbf_M,aero_bodyMoment_ftlbf_N,mach,dynamicPressure_lbf_ft2,trueAirspeed_nmi_h,feVelocity_ft_s_Z
0.0,4198656.971324967,-1.6441345079899173E7,1.2254893471930198E7,4198656.971324967,-1.6441345079899173E7,1.2254893471930198E7,2363.3882094219844,1461.8686582343669,1143.8446668776717,1414.2135592798973,1414.213559279884,-5.989704732201062E-9,30013.000000004657,-75.6744444444,36.01916666700001,32.127095247805045,44.99999999999973,-0.7415762204654732,1.2723284412448022E-14,0.0023091692023798497,-0.007863520140565778,-0.00529529155266122,3.5938228393206373E-7,994.7929494644076,8.902613441041772E-4,629.2958646263055,411.7926461186908,-12420.20555985575,-0.170675027417205,-20193.82579523647,-0.2496104634031774,8.42902696604142E-4,2.4010063262580803,2.0104687213897705,1780.522705078125,1184.9676513671875,-5.989704732201062E-9
0.10000000149011612,4198893.309659709,-1.644119889118909E7,1.2255007855356487E7,4198773.41843502,-1.644122950956485E7,1.2255007855356488E7,2363.3783368616987,1461.9055862762798,1143.823966565666,1414.1949274048939,1414.2321909031184,-2.8950012165296357E-8,30013.00000000652,-75.67396693091975,36.019554583871994,32.12709562824889,45.00008400107723,-0.7415762178172812,-1.514853355132357E-4,-0.0018536470453910648,-0.007863449914610385,-0.0029410373544447965,1.7370007299177814E-6,994.7929494643996,8.902613441041168E-4,629.2958646262528,411.7926461186843,-12420.20555989372,-7.163519337192816,-20193.825970279777,-12.215470047212118,6.188388615555596E-4,47.14064904355162,2.0104687213897705,1780.522705078125,1184.9676513671875,-2.8950012165296357E-8
0.20000000298023224,4199129.646971167,-1.6441052698775806E7,1.2255122236738859E7,4198889.866430598,-1.6441113938099874E7,1.225512223673886E7,2363.367835846489,1461.942695642602,1143.8037217524145,1414.1768584338497,1414.2502591373398,-1.2993359632673673E-7,30013.000000016764,-75.67348940891729,36.01994249569669,32.12709600868933,45.00056209214023,-0.7415762086127928,-9.399143900952567E-4,-0.009066634124139241,-0.007863412548216766,0.002116637624085783,7.796015779604204E-6,994.7929494643556,8.902613441037814E-4,629.29586462596,411.79264611864784,-12420.205561938646,-9.588095150255016,-20193.826696388398,-11.443400711238333,1.0003552597481757E-4,60.47583964953847,2.0104687213897705,1780.522705078125,1184.9676513671875,-1.2993359632673673E-7
0.30000001192092896,4199365.983226657,-1.6440906502649913E7,1.225523661610098E7,4199006.315279066,-1.6440998365494836E7,1.225523661610098E7,2363.3573249047854,1461.9798073953668,1143.7834835766223,1414.1587973699957,1414.2683190033267,-3.644196340246708E-7,30013.00000003539,-75.67301187849141,36.02033040255427,32.1270963891264,45.00155350526802,-0.7415761868395508,-0.0023275754054737753,-0.012855304007162682,-0.007863519665569016,0.006802476749786908,2.186517804148025E-5,994.7929494642757,8.902613441031722E-4,629.2958646254282,411.7926461185816,-12420.205565864268,-6.672967235317524,-20193.827594419974,-1.7937036383209843,-2.5589114738977514E-4,39.007993123931136,2.0104687213897705,1780.522705078125,1184.9676513671875,-3.644196340246708E-7
0.4000000059604645,4199602.318454029,-1.644076030281951E7,1.225535099342258E7,4199122.765008326,-1.6440882791757846E7,1.2255350993422583E7,2363.3473387415197,1462.0167668987365,1143.7628639410916,1414.140264384411,1414.2868503006139,-7.147839369281428E-7,30013.000000089407,-75.67253433955743,36.02071830437585,32.127096769559984,45.00288359113378,-0.7415761478431214,-0.0037855685931383444,-0.010264921757411815,-0.007863701181747314,0.008597389517634769,4.288703621568857E-5,994.7929494640437,8.902613441014049E-4,629.2958646238852,411.7926461183895,-12420.20556809304,-0.6085408452806853,-20193.827761055083,9.357195904989707,1.080333095160313E-5,-1.584530813439938,2.0104687213897705,1780.522705078125,1184.9676513671875,-7.147839369281428E-7
0.5,4199838.652718284,-1.644061409930345E7,1.225546536865642E7,4199239.215683427,-1.6440767216907745E7,1.2255465368656421E7,2363.338055941471,1462.053522537603,1143.7417331561617,1414.1210991622797,1414.3060132697656,-1.1216176289963187E-6,30013.000000181608,-75.67205679191818,36.021106201001245,32.12709714998989,45.004211706655795,-0.7415761016046274,-0.004706839139473567,-0.002665852728688452,-0.007863769765651568,0.006833364903734486,6.729705773977912E-5,994.7929494636477,8.902613440983884E-4,629.2958646212521,411.79264611806167,-12420.205567391804,4.956737727107627,-20193.8274023694,15.123248563728135,3.811458664131351E-4,-37.06063531911683,2.0104687213897705,1780.522705078125,1184.9676513671875,-1.1216176289963187E-6
0.6000000238418579,4200074.986081195,-1.644046789211964E7,1.2255579741757592E7,4199355.667366189,-1.644065164096245E7,1.2255579741757594E7,2363.3292453736312,1462.0901411651407,1143.7202589519352,1414.1015090773426,1414.3256005025928,-1.5801490462763468E-6,30013.000000318512,-75.67157923538625,36.02149409227796,32.12709753041598,45.00523471702194,-0.7415760701351364,-0.004785609770348752,0.005693229853717393,-0.007863723777155137,0.002850168242257421,9.480894277658081E-5,994.7929494630597,8.902613440939093E-4,629.2958646173421,411.79264611757486,-12420.205566515075,7.05053199358238,-20193.827404909403,12.57900180401078,2.4013260917854495E-4,-48.66239467117033,2.0104687213897705,1780.522705078125,1184.9676513671875,-1.5801490462763468E-6
0.699999988079071,4200311.318567431,-1.6440321681275256E7,1.2255694112708133E7,4199472.120081331,-1.6440536063929137E7,1.2255694112708133E7,2363.3204388703753,1462.1267581928344,1143.69878115313,1414.081914273457,1414.345191909399,-2.1066609861009056E-6,30013.00000049919,-75.67110166988662,36.02188197814513,32.127097910838145,45.005847640902125,-0.7415760669993335,-0.004174192714202305,0.010437322058420627,-0.007863710595933122,-9.529037518291689E-4,1.2639965916605433E-4,994.7929494622836,8.902613440879974E-4,629.2958646121813,411.79264611693236,-12420.205566868037,4.912329312593618,-20193.827738642634,3.7914138679307663,-9.186171882902272E-5,-32.66651371964384,2.0104687213897705,1780.522705078125,1184.9676513671875,-2.1066609861009056E-6
0.800000011920929,4200547.650154679,-1.644017546676388E7,1.225580848152417E7,4199588.573806589,-1.6440420485801395E7,1.225580848152417E7,2363.31121250796,1462.1634962799906,1143.6776074385461,1414.06269520716,1414.3644071256124,-2.651286877153325E-6,30013.000000735745,-75.67062409548664,36.02226985865732,32.12709829125646,45.00617909486642,-0.7415760852610258,-0.003363986009519921,0.009528117387974268,-0.007863759222197135,-0.0025354339043695277,1.590772126291995E-4,994.7929494612675,8.902613440802585E-4,629.2958646054254,411.7926461160912,-12420.205566609779,0.1624358715946778,-20193.827693884286,-5.91754391794401,-4.0443268517265096E-5,-0.745256294256221,2.0104687213897705,1780.522705078125,1184.9676513671875,-2.651286877153325E-6
0.8999999761581421,4200783.98079047,-1.6440029248570375E7,1.225592284824372E7,4199705.028489543,-1.644030490656408E7,1.2255922848243723E7,2363.3014125269287,1462.200399948341,1143.6568493640136,1414.0439898728664,1414.3831082104152,-3.1365641461889027E-6,30013.000001023524,-75.67014651234506,36.02265773394343,32.12709867167105,45.00649607023528,-0.7415761061649412,-0.0028897243353746905,0.004157734862498586,-0.007863775726044518,-0.0012840091376994955,1.8819384877133416E-4,994.7929494600315,8.902613440708429E-4,629.2958645972061,411.7926461150679,-12420.205564849333,-4.338326057244067,-20193.82724619668,-11.254140511156974,2.566950824984815E-4,28.057499099678907,2.0104687213897705,1780.522705078125,1184.9676513671875,-3.1365641461889027E-6
1.0,4201020.310423555,-1.6439883026679955E7,1.2256037212903908E7,4199821.484078996,-1.6440189326202404E7,1.2256037212903908E7,2363.291209653037,1462.2374198088537,1143.6363830095686,1414.0256450643192,1414.4014483603464,-3.559486572157766E-6,30013.00000135135,-75.6696689206168,36.023045604129265,32.12709905208204,45.007044025132075,-0.7415761128338151,-0.003039223439911591,-0.0022263089627864068,-0.00786374433597405,0.0018108763826059542,2.1356919432946597E-4,994.7929494586234,8.902613440601172E-4,629.295864587843,411.79264611390215,-12420.205563383923,-6.176677297751643,-20193.82700297201,-9.84440233581363,3.5550761822378263E-4,38.467488756657254,2.0104687213897705,1780.522705078125,1184.9676513671875,-3.559486572157766E-6
1.100000023841858,4201256.639031253,-1.643973680108609E7,1.2256151575521132E7,4199937.940552316,-1.6440073744709834E7,1.2256151575521132E7,2363.2809712561816,1462.2744495530728,1143.6159417741353,1414.0073311026595,1414.419757194566,-3.989020569861168E-6,30013.000001727603,-75.66919132037039,36.02343346927046,32.12709943248951,45.007916130699975,-0.7415760960558919,-0.003726894760372146,-0.006023482376361465,-0.007863739323603621,0.004867416477115476,2.3934123419167008E-4,994.7929494570074,8.902613440478074E-4,629.295864577097,411.7926461125642,-12420.205563403306,-4.647238491726953,-20193.827125346277,-3.215636396900871,2.7106191919301637E-4,26.855418812718302,2.0104687213897705,1780.522705078125,1184.9676513671875,-3.989020569861168E-6
1.2000000476837158,4201492.966628296,-1.6439590571793089E7,1.2256265936084628E7,4200054.397924285,-1.6439958162090687E7,1.2256265936084628E7,2363.271040695509,1462.311389828809,1143.5952764668732,1413.9887398350706,1414.4383427797425,-4.483884367800783E-6,30013.00000214763,-75.66871371156088,36.02382132933041,32.12709981289338,45.0090194155292,-0.7415760566370023,-0.004582534223333624,-0.005441765688591658,-0.007863772522431171,0.006230700794445716,2.69033062068047E-4,994.7929494552033,8.902613440340647E-4,629.2958645651003,411.7926461110706,-12420.205563847681,-0.9484276524570512,-20193.82726648597,4.451331370275301,2.4177176601369865E-4,1.9328208329872485,2.0104687213897705,1780.522705078125,1184.9676513671875,-4.483884367800783E-6
1.2999999523162842,4201729.293254455,-1.6439444338812493E7,1.2256380294565469E7,4200170.85623472,-1.6439842578356495E7,1.2256380294565469E7,2363.2615537859797,1462.3482013379864,1143.5742885028694,1413.969749346173,1414.4573269621715,-5.063925755166565E-6,30013.000002622604,-75.66823609406757,36.024209184210946,32.12710019329358,45.01014558158177,-0.7415760071223834,-0.005184151450266145,-0.0012669768509896953,-0.00786378443611913,0.0053454896695197965,3.038355453099939E-4,994.7929494531633,8.902613440185252E-4,629.2958645515348,411.7926461093817,-12420.205563781048,2.675880217465939,-20193.827343669847,8.876010982944118,1.9388387954677455E-4,-21.323237910394237,2.0104687213897705,1780.522705078125,1184.9676513671875,-5.063925755166565E-6
1.399999976158142,4201965.61894992,-1.643929810215598E7,1.2256494650934417E7,4200287.315523864,-1.6439726993518956E7,1.2256494650934419E7,2363.2523879026703,1462.384919543325,1143.5530668852289,1413.9504696712806,1414.476599707848,-5.736338835049537E-6,30013.00000316929,-75.66775846776841,36.02459703381284,32.127100573689894,45.01109661882039,-0.7415759661889527,-0.005293034619531668,0.0038483293714082468,-0.007863766942728724,0.0029370204990907633,3.441803301029722E-4,994.7929494508152,8.902613440006387E-4,629.2958645359208,411.79264610743775,-12420.20556375836,4.267856008892121,-20193.827575902324,8.008504118222344,-4.307947892812081E-5,-30.479364236118805,2.0104687213897705,1780.522705078125,1184.9676513671875,-5.736338835049537E-6
1.5,4202201.943733175,-1.643915186182893E7,1.2256609005178E7,4200403.7758102445,-1.6439611407583438E7,1.2256609005178E7,2363.243256816094,1462.4216272447861,1143.531819380923,1413.9311577067842,1414.4959042022913,-6.492907573374396E-6,30013.000003776513,-75.66728083260713,36.0249848780903,32.12710095408239,45.01179109058999,-0.7415759459144289,-0.004963463111195861,0.007029580967552767,-0.007863772705326073,4.774568062449452E-4,3.8957445440246374E-4,994.7929494482071,8.90261343980772E-4,629.2958645185779,411.7926461052785,-12420.205564115711,3.1863744569970502,-20193.82789892671,2.8958654557740764,-3.1458100784220733E-4,-22.111478731187066,2.0104687213897705,1780.522705078125,1184.9676513671875,-6.492907573374396E-6
1.600000023841858,4202438.267593049,-1.6439005617828164E7,1.2256723357304258E7,4200520.237082743,-1.643949582054677E7,1.2256723357304258E7,2363.2338838650694,1462.4584045003849,1143.5107467954463,1413.9120617746219,1414.5149922313908,-7.28855764009495E-6,30013.00000447035,-75.66680318861734,36.02537271707049,32.12710133447093,45.01229555061952,-0.7415759439335715,-0.004481364111633144,0.006764633777305893,-0.007863814130888732,-6.944031066272697E-4,4.37313458405697E-4,994.792949445227,8.902613439580713E-4,629.2958644987611,411.79264610281126,-12420.205564006814,0.31065156633453767,-20193.827987484834,-3.2256264912641868,-3.548671411408577E-4,-2.6759366597908545,2.0104687213897705,1780.522705078125,1184.9676513671875,-7.28855764009495E-6
1.7000000476837158,4202674.590497736,-1.6438859370144513E7,1.2256837707336204E7,4200636.699309601,-1.6439380232399782E7,1.2256837707336204E7,2363.224150988204,1462.4952854959722,1143.4899347965363,1413.893287846157,1414.533757885812,-8.066889790825371E-6,30013.00000523869,-75.66632553589514,36.0257605508315,32.127101714855684,45.01277225255246,-0.7415759473959784,-0.0041839663910537336,0.0035754594778567438,-0.007863849160091427,-8.475680866246468E-5,4.8401338744952227E-4,994.7929494419269,8.902613439329334E-4,629.2958644768169,411.79264610007914,-12420.205562956675,-2.603014345443643,-20193.82779677714,-6.925912460400779,-1.9765867182286456E-4,16.07367582615355,2.0104687213897705,1780.522705078125,1184.9676513671875,-8.066889790825371E-6
1.7999999523162842,4202910.912414019,-1.643871311876841E7,1.2256952055297893E7,4200753.162457657,-1.64392646431329E7,1.2256952055297893E7,2363.214145420333,1462.5322450056956,1143.4693200508436,1413.8747576288545,1414.5522794419535,-8.812024702820054E-6,30013.000006087124,-75.6658478745409,36.02614837945478,32.1271020952367,45.01338066349819,-0.7415759423063805,-0.004271311467911092,-4.87283913098574E-4,-0.007863860746731401,0.0017798082597011568,5.287214821692032E-4,994.7929494382827,8.902613439051742E-4,629.2958644525843,411.7926460970621,-12420.205561696312,-3.9699339783865955,-20193.827601681176,-6.463280927978993,-6.0705260693794116E-5,24.04201668616369,2.0104687213897705,1780.522705078125,1184.9676513671875,-8.812024702820054E-6
1.899999976158142,4203147.233325161,-1.6438566863695046E7,1.2257066401201393E7,4200869.626510218,-1.6439149052741317E7,1.2257066401201395E7,2363.2040899115277,1462.5692185772934,1143.448740883175,1413.8562711958496,1414.5707567477957,-9.554733310324082E-6,30013.000007003546,-75.66537020460507,36.02653620298125,32.12710247561406,45.014191267432416,-0.7415759202419607,-0.004712785768853973,-0.0031237313103238623,-0.007863873797218285,0.0037496220386463983,5.732839986194449E-4,994.7929494343465,8.902613438751912E-4,629.2958644264103,411.7926460938034,-12420.20556092456,-3.2178558241868913,-20193.82754954528,-2.5445499800784432,-6.428344931919128E-6,18.086708525804053,2.0104687213897705,1780.522705078125,1184.9676513671875,-9.554733310324082E-6
2.0,4203383.553237889,-1.6438420604926411E7,1.2257180745041767E7,4200986.091474064,-1.6439033461227017E7,1.2257180745041767E7,2363.194207066543,1462.6061417971948,1143.4280357234327,1413.8376287392075,1414.5893895128916,-1.0334097055419988E-5,30013.00000799354,-75.66489252606698,36.026924021394066,32.12710285598773,45.01515707162414,-0.7415758814708591,-0.005288989874521255,-0.003059515679854062,-0.00786389672778367,0.004743741753903272,6.200458233251993E-4,994.7929494300945,8.902613438428009E-4,629.295864398135,411.7926460902831,-12420.205560394692,-0.9865677890461069,-20193.82755215153,2.326233429126225,2.767401747405529E-5,2.961904041656588,2.0104687213897705,1780.522705078125,1184.9676513671875,-1.0334097055419988E-5
2.0999999046325684,4203619.872175892,-1.6438274342469396E7,1.225729508680175E7,4201102.55737293,-1.6438917868596898E7,1.2257295086801752E7,2363.184598612503,1462.6429852258566,1143.4071307315944,1413.818738936329,1414.608268995149,-1.1172565109518473E-5,30013.00000906922,-75.66441483885463,36.027311834634666,32.12710323635759,45.016151953953255,-0.7415758350012326,-0.005731418014556795,-6.247391023511295E-4,-0.00786390878493282,0.004328768424168841,6.703539065711084E-4,994.7929494254741,8.902613438076075E-4,629.2958643674126,411.79264608645803,-12420.20555972013,1.351790389539693,-20193.82757052848,5.402709682855257,1.714672180241905E-5,-12.124716130474265,2.0104687213897705,1780.522705078125,1184.9676513671875,-1.1172565109518473E-5
2.200000047683716,4203856.190164835,-1.6438128076331466E7,1.225740942646265E7,4201219.024232533,-1.643880227485843E7,1.225740942646265E7,2363.175203452515,1462.6797665300883,1143.3860702591494,1413.7996566175832,1414.6273403731798,-1.2077776773367077E-5,30013.000010227785,-75.66393714288999,36.02769964263948,32.127103616723616,45.01704773427328,-0.741575793802381,-0.005873483096221735,0.0026006999707693006,-0.007863906198145889,0.002883074518553781,7.246666064020246E-4,994.7929494204981,8.902613437697019E-4,629.2958643343226,411.79264608233825,-12420.205559054337,2.5171543413264525,-20193.8276751349,5.212388498342863,-9.732962644193321E-5,-18.99378834081529,2.0104687213897705,1780.522705078125,1184.9676513671875,-1.2077776773367077E-5
2.299999952316284,4204092.507217925,-1.6437981806516489E7,1.225752376401481E7,4201335.492066124,-1.6438686680015482E7,1.225752376401481E7,2363.165848629389,1462.7165357443803,1143.3649798606123,1413.7805370344588,1414.6464484754938,-1.3041905845057045E-5,30013.000011483207,-75.6634594381328,36.028087445375796,32.12710399708573,45.01778392987353,-0.7415757665824824,-0.0057297313008758425,0.004780887560263124,-0.007863911598290547,0.0013027264267827744,7.825143507034227E-4,994.7929494151058,8.902613437286274E-4,629.2958642984663,411.79264607787405,-12420.20555851176,2.005818286425265,-20193.827831993436,2.2159755110345394,-2.4368921003770083E-4,-14.81855610804218,2.0104687213897705,1780.522705078125,1184.9676513671875,-1.3041905845057045E-5
2.4000000953674316,4204328.823329845,-1.6437835533022966E7,1.225763809946203E7,4201451.96086844,-1.643857108406656E7,1.225763809946203E7,2363.1563553842084,1462.7533445950144,1143.3439892950987,1413.7615406556974,1414.665432934638,-1.4037419532542117E-5,30013.000012842007,-75.66298172459892,36.02847524285638,32.12710437744394,45.018393154682066,-0.7415757524790124,-0.005468130760096994,0.004847789204375453,-0.007863934301844344,4.5877165576668744E-4,8.42245171952527E-4,994.7929494092696,8.902613436841712E-4,629.2958642596578,411.7926460730423,-12420.20555775069,0.27869808894153425,-20193.82789238687,-1.6541105123715327,-2.906624831666704E-4,-3.0724131556074474,2.0104687213897705,1780.522705078125,1184.9676513671875,-1.4037419532542117E-5
2.5,4204565.138481356,-1.6437689255845373E7,1.2257752432818204E7,4201568.4306202885,-1.6438455487006137E7,1.2257752432818204E7,2363.146636755487,1462.7902182566975,1143.323161676766,1413.7427455492261,1414.6842157433991,-1.5032278156468237E-5,30013.000014299527,-75.66250400234638,36.028863035128246,32.12710475779824,45.01897324155968,-0.7415757427683825,-0.005302171968491437,0.0029965634448126696,-0.007863958729755432,7.274896332839498E-4,9.019366893880942E-4,994.7929494030094,8.902613436364843E-4,629.2958642180294,411.7926460678595,-12420.205556532947,-1.5942363415253384,-20193.82781438709,-4.202984228033301,-2.2899144460097887E-4,9.04456106107913,2.0104687213897705,1780.522705078125,1184.9676513671875,-1.5032278156468237E-5
2.5999999046325684,4204801.452650989,-1.6437542974977538E7,1.225786676409885E7,4201684.9013002515,-1.643833988882803E7,1.225786676409885E7,2363.136734707256,1462.8271445961693,1143.3024665358587,1413.7241140497324,1414.702834555248,-1.601625149305619E-5,30013.000015852973,-75.66202627143991,36.029250822244094,32.12710513814878,45.01962703574144,-0.7415757269627572,-0.0053700807961769605,4.4147191540922355E-4,-0.007863974921652285,0.0018404263485042884,9.609750895833713E-4,994.7929493963371,8.902613435856595E-4,629.2958641736614,411.79264606233556,-12420.205555138176,-2.5810173512349444,-20193.827709736608,-4.192640768656899,-1.51244272274198E-4,14.919109017115002,2.0104687213897705,1780.522705078125,1184.9676513671875,-1.601625149305619E-5
2.700000047683716,4205037.765826647,-1.6437396690415991E7,1.2257981093312688E7,4201801.372896283,-1.6438224289528776E7,1.2257981093312688E7,2363.1267832579065,1462.8640848357918,1143.28180658924,1413.7055258538276,1414.7214096011335,-1.7006572988975677E-5,30013.00001750514,-75.66154853191597,36.02963860423335,32.127105518495505,45.0204060589074,-0.7415756984249948,-0.005668075305277321,-0.0013543141422432702,-0.007863990434075317,0.003100574826628181,0.0010203943793385406,994.7929493892409,8.902613435316049E-4,629.2958641264739,411.7926460564606,-12420.205553905269,-2.24330130352414,-20193.82766503061,-1.9087796427590775,-1.0713680239859968E-4,12.047869766944043,2.0104687213897705,1780.522705078125,1184.9676513671875,-1.7006572988975677E-5
2.799999952316284,4205274.078010848,-1.6437250402161509E7,1.225809542045782E7,4201917.8454109505,-1.6438108689109148E7,1.225809542045782E7,2363.11692570887,1462.9009975079314,1143.2610778167102,1413.6868523178825,1414.7400694343119,-1.8029531361207773E-5,30013.00001925323,-75.6610707837666,36.030026381089534,32.12710589883845,45.0212881809541,-0.7415756572671424,-0.006067962802716671,-0.0014996233496209876,-0.007864009246709498,0.003807354634167682,0.0010817718816724664,994.7929493817326,8.902613434744111E-4,629.2958640765462,411.7926460502445,-12420.205552795142,-0.909154366047769,-20193.827664523556,1.1609637882928774,-8.702407649252564E-5,2.945366132761236,2.0104687213897705,1780.522705078125,1184.9676513671875,-1.8029531361207773E-5
2.9000000953674316,4205510.389217485,-1.6437104110218152E7,1.2258209745524092E7,4202034.318858195,-1.643799308757321E7,1.2258209745524092E7,2363.1072358983797,1462.9378612428661,1143.2402266189622,1413.6680271489863,1414.7588802895668,-1.9103098679806862E-5,30013.00002111029,-75.6605930269495,36.030414152778164,32.127106279177546,45.02219768281602,-0.7415756100523272,-0.0064002867579302574,-9.607670702446826E-5,-0.007864023757488252,0.003637015030621205,0.0011461859207884117,994.7929493737564,8.90261343413653E-4,629.295864023507,411.792646043641,-12420.205551629919,0.5887581506394398,-20193.827688470927,3.2654508098513997,-9.961071555153467E-5,-6.768983718927846,2.0104687213897705,1780.522705078125,1184.9676513671875,-1.9103098679806862E-5
3.0,4205746.699462759,-1.643695781459065E7,1.2258324068499692E7,4202150.7932542665,-1.6437877484925695E7,1.2258324068499692E7,2363.097685751788,1462.9746841579185,1143.219273378173,1413.6490755440586,1414.777816976553,-2.0232389033481013E-5,30013.000023085624,-75.6601152614153,36.03080191925906,32.12710665951269,45.02305219288053,-0.7415755660668034,-0.006550762974281824,0.0019256640332991812,-0.007864031827935535,0.0027770182072397076,0.0012139433420088608,994.7929493652721,8.902613433490247E-4,629.2958639670893,411.7926460366169,-12420.205550413066,1.4200520326058843,-20193.82775303003,3.3687533714286952,-1.6300669449265115E-4,-11.758775406005546,2.0104687213897705,1780.522705078125,1184.9676513671875,-2.0232389033481013E-5
3.0999999046325684,4205983.008755848,-1.643681151528169E7,1.2258438389377873E7,4202267.26860839,-1.6437761881169293E7,1.2258438389377873E7,2363.08817166582,1463.011496226677,1143.198293307343,1413.6300905118449,1414.7967865529572,-2.1409365331237495E-5,30013.00002516806,-75.65963748713595,36.031189680509335,32.12710703984395,45.02380809784581,-0.7415755317485636,-0.006516234390732374,0.003401451791939135,-0.007864042634570068,0.0017684073063665838,0.0012845619198742497,994.7929493563277,8.902613432808924E-4,629.2958639076124,411.7926460292118,-12420.20554917245,1.2068202707495137,-20193.82783630662,1.633839736211985,-2.416442548565101E-4,-9.834405429975062,2.0104687213897705,1780.522705078125,1184.9676513671875,-2.1409365331237495E-5
3.200000047683716,4206219.317094418,-1.6436665212290643E7,1.2258552708160277E7,4202383.744918284,-1.6437646276303373E7,1.2258552708160277E7,2363.07857897275,1463.0483306309723,1143.1773696487664,1413.6111750005111,1414.8156861561617,-2.2614507088292157E-5,30013.000027367845,-75.65915970411825,36.03157743653442,32.12710742017127,45.024479958077045,-0.741575507003871,-0.006394221946303418,0.003590683909635813,-0.00786406133606849,0.0011736296156967976,0.0013568704252975294,994.7929493468794,8.902613432089206E-4,629.2958638447842,411.7926460213896,-12420.205547760219,0.17910016234077691,-20193.827869599238,-0.7970434389762292,-2.7160367244505323E-4,-2.796377787901134,2.0104687213897705,1780.522705078125,1184.9676513671875,-2.2614507088292157E-5
3.299999952316284,4206455.624466863,-1.6436518905614194E7,1.2258667024855256E7,4202500.222172389,-1.6437530670324625E7,1.2258667024855256E7,2363.068845351113,1463.0852054110944,1143.1565476395333,1413.5923849653857,1414.8344598851204,-2.3827200720916153E-5,30013.000029690564,-75.65868191239713,36.03196518736262,32.12710780049464,45.02512624306805,-0.7415754859271726,-0.00631900766175528,0.0025316802366792245,-0.007864082148130126,0.0012691025872534705,0.0014296320432549692,994.7929493369029,8.902613431329271E-4,629.295863778445,411.7926460131302,-12420.205546066378,-1.0164404040566801,-20193.82782782139,-2.529139641130999,-2.401197052677162E-4,4.978030109859464,2.0104687213897705,1780.522705078125,1184.9676513671875,-2.3827200720916153E-5
3.4000000953674316,4206691.930859333,-1.6436372595248371E7,1.2258781339472802E7,4202616.700356907,-1.6437415063229073E7,1.2258781339472804E7,2363.058988903218,1463.122115334726,1143.1358141334335,1413.5737041579102,1414.8531239829356,-2.50402091523938E-5,30013.000032137148,-75.65820411201426,36.0323529330278,32.127108180814126,45.025812810700806,-0.7415754608100669,-0.0063847734239949935,9.356510244906584E-4,-0.00786409973070074,0.0019265793587366431,0.001502412549143628,994.7929493263946,8.90261343052881E-4,629.2958637085682,411.79264600443037,-12420.205544209844,-1.712868513938767,-20193.827760059805,-2.6993684083434624,-1.8855292364605702E-4,9.191119512045473,2.0104687213897705,1780.522705078125,1184.9676513671875,-2.50402091523938E-5
3.5,4206928.236263204,-1.6436226281190721E7,1.2258895652019106E7,4202733.179463265,-1.6437299455014253E7,1.2258895652019106E7,2363.049089536519,1463.1590372808296,1143.1151111204172,1413.555060838549,1414.8717501313986,-2.6263653353453265E-5,30013.00003470294,-75.6577263029955,36.03274067355083,32.12710856112975,45.02657637515516,-0.7415754264468185,-0.0065989013997043156,-2.727180136596246E-4,-0.007864115923261557,0.0027269948419422815,0.0015758192012071959,994.7929493153742,8.902613429689349E-4,629.2958636352868,411.79264599530666,-12420.20554237076,-1.58697178189774,-20193.827717777047,-1.3863136458107774,-1.511417685833294E-4,7.947286630651458,2.0104687213897705,1780.522705078125,1184.9676513671875,-2.6263653353453265E-5
3.5999999046325684,4207164.540678906,-1.6436079963441407E7,1.2259009962493792E7,4202849.65949194,-1.6437183845680334E7,1.2259009962493792E7,2363.039238854494,1463.1959447406275,1143.0943721012313,1413.5363727626261,1414.8904205003457,-2.7515472879713343E-5,30013.000037387945,-75.6572484853393,36.03312840893044,32.127108941441506,45.027407780471755,-0.7415753825934726,-0.0068874674200556305,-4.802204879344E-4,-0.00786413253149747,0.0032196119153401846,0.0016509283727828006,994.7929493038417,8.902613428810875E-4,629.2958635585998,411.79264598575895,-12420.205540571693,-0.796972083137736,-20193.827708209854,0.5354480086502785,-1.3477570610120893E-4,2.5184350449501927,2.0104687213897705,1780.522705078125,1184.9676513671875,-2.7515472879713343E-5
3.700000047683716,4207400.844114409,-1.643593364200278E7,1.2259124270891009E7,4202966.140450952,-1.6437068235229671E7,1.2259124270891009E7,2363.0294891885665,1463.232822567751,1143.0735590861493,1413.5175929410702,1414.9091820291228,-2.8809679974983737E-5,30013.00004020147,-75.65677065902126,36.0335161391467,32.12710932174934,45.028261988039624,-0.7415753337771585,-0.007144239980946411,3.1633952634261333E-4,-0.007864147094426828,0.003169980880883473,0.0017285807984990242,994.7929492917574,8.902613427890361E-4,629.2958634782428,411.79264597575434,-12420.20553873848,0.15599683690227018,-20193.827724053106,1.956877466774793,-1.4424199252971448E-4,-3.6926601693394216,2.0104687213897705,1780.522705078125,1184.9676513671875,-2.8809679974983737E-5
3.799999952316284,4207637.146579793,-1.6435787316877795E7,1.225923857720337E7,4203082.62235043,-1.643695262366522E7,1.225923857720337E7,2363.019829511347,1463.2696739490937,1143.0526800826892,1413.498731270944,1414.9280248227515,-3.015070501533046E-5,30013.000043148175,-75.65629282401058,36.03390386417448,32.12710970205322,45.02908643314621,-0.741575286580133,-0.007291837852388924,0.0015751716551412269,-0.007864158891431295,0.002663442554553448,0.0018090423009198275,994.7929492791008,8.902613426926269E-4,629.2958633940816,411.79264596527605,-12420.205536844485,0.737239691553901,-20193.827764667738,2.1616927818122664,-1.8269648717250675E-4,-7.231270740441152,2.0104687213897705,1780.522705078125,1184.9676513671875,-3.015070501533046E-5
3.9000000953674316,4207873.448081271,-1.6435640988068286E7,1.2259352881426306E7,4203199.105196637,-1.6436837010988822E7,1.2259352881426308E7,2363.0101983532927,1463.3065166693111,1143.0317797192986,1413.4798429428486,1414.9468937410982,-3.153265242872294E-5,30013.000046241097,-75.65581498028817,36.0342915839982,32.1271100823531,45.029850361809494,-0.7415752457780178,-0.007320547813109257,0.002563021891090243,-0.007864171885013623,0.0020238420664902843,0.0018919591457233764,994.7929492658163,8.902613425914341E-4,629.2958633057445,411.7926459542779,-12420.20553486951,0.6722127008517528,-20193.827813394964,1.1719338146560807,-2.2958167392062023E-4,-6.470385704463082,2.0104687213897705,1780.522705078125,1184.9676513671875,-3.153265242872294E-5
4.0,4208109.748617949,-1.6435494655574035E7,1.2259467183560394E7,4203315.588988725,-1.6436721397200245E7,1.2259467183560394E7,2363.0005226668973,1463.343371867132,1143.010911028517,1413.4609935469043,1414.9657232617924,-3.29420398657021E-5,30013.00004945509,-75.65533712785648,36.034679298619764,32.12711046264905,45.03055912593591,-0.7415752117099358,-0.0072861879574033644,0.002773868834296662,-0.00786418882124005,0.0016117631310271405,0.001976522391942126,994.7929492520118,8.902613424862803E-4,629.2958632139496,411.79264594284916,-12420.205532754188,0.06697551782130733,-20193.82783510486,-0.3447931057151774,-2.5134642055490986E-4,-2.2932391763531546,2.0104687213897705,1780.522705078125,1184.9676513671875,-3.29420398657021E-5
4.099999904632568,4208346.048182811,-1.6435348319393054E7,1.2259581483610664E7,4203432.07371973,-1.643660578229752E7,1.2259581483610664E7,2362.99075871775,1463.3802522020314,1142.9901057591846,1413.4422223551655,1414.9844741585157,-3.436514077748143E-5,30013.00005281996,-75.65485926673651,36.03506700805616,32.12711084294099,45.031247329233615,-0.7415751805008315,-0.007272659225983218,0.0021785410227099667,-0.007864207572981863,0.0016249141505365013,0.0020619084466488857,994.7929492375592,8.9026134237619E-4,629.2958631178454,411.79264593088396,-12420.205530433193,-0.6909886589918721,-20193.82781438274,-1.5080922331419497,-2.372473645664286E-4,2.660482926971034,2.0104687213897705,1780.522705078125,1184.9676513671875,-3.436514077748143E-5
4.199999809265137,4208582.346766911,-1.6435201979522796E7,1.2259695781583546E7,4203548.559380757,-1.6436490166278085E7,1.2259695781583546E7,2362.9809126008913,1463.4171559140038,1142.9693594833934,1413.423523897389,1415.0031519013064,-3.579663200525829E-5,30013.000056330115,-75.6543813969551,36.03545471232918,32.12711122322897,45.031956855783186,-0.7415751466707242,-0.00734336024664574,0.0011883588138287308,-0.007864225303442648,0.002008707154589989,0.0021477979203154973,994.7929492224828,8.902613422613462E-4,629.2958630175916,411.7926459184022,-12420.20552796126,-1.1737554914071995,-20193.827772904413,-1.7256253067745857,-2.0566563034662977E-4,5.618721382038005,2.0104687213897705,1780.522705078125,1184.9676513671875,-3.579663200525829E-5
4.300000190734863,4208818.644364155,-1.643505563596154E7,1.2259810077483399E7,4203665.045965758,-1.6436374549140215E7,1.2259810077483399E7,2362.97103148229,1463.4540693556348,1142.9486379569696,1413.4048558232757,1415.021798797972,-3.7242361827338755E-5,30013.00005998183,-75.65390351853046,36.0358424114535,32.12711160351301,45.03271335395149,-0.7415751062703007,-0.0075090427003425145,3.838125293182734E-4,-0.00786424199099025,0.0025134790587506444,0.0022345417096403253,994.7929492067982,8.902613421418711E-4,629.295862913295,411.792645905417,-12420.205525433452,-1.149506355219957,-20193.827740396257,-0.9828912791190754,-1.782424697012175E-4,5.195191690811,2.0104687213897705,1780.522705078125,1184.9676513671875,-3.7242361827338755E-5
4.400000095367432,4209054.940974005,-1.6434909288709167E7,1.2259924371310536E7,4203781.533474249,-1.6436258930883799E7,1.2259924371310536E7,2362.961173520441,1463.4909756961388,1142.927898956182,1413.3861659092515,1415.040467013849,-3.8714203128620284E-5,30013.00006377697,-75.65342563146392,36.036230105430185,32.12711198379309,45.03351410022413,-0.7415750588413615,-0.0077277391318073705,1.8117196863976024E-4,-0.007864258235601029,0.002851265075952795,0.002322852187717217,994.7929491904976,8.902613420177028E-4,629.2958628049014,411.7926458919217,-12420.205522880351,-0.6868180290789975,-20193.827728331788,0.2121338102407902,-1.6496276293764822E-4,1.989727569330686,2.0104687213897705,1780.522705078125,1184.9676513671875,-3.8714203128620284E-5
4.5,4209291.236600885,-1.6434762937766997E7,1.226003866306169E7,4203898.021910702,-1.6436143311510155E7,1.226003866306169E7,2362.951375116566,1463.5278643994598,1142.9071160537526,1413.3674214662908,1415.0591891972335,-4.0222334632744605E-5,30013.000067718327,-75.65294773574186,36.03661779424799,32.127112364069234,45.0343325818383,-0.7415750073928153,-0.00793329771353604,6.246559155767375E-4,-0.007864273281801601,0.002856193894406856,0.0024133400779646763,994.7929491735689,8.902613418887514E-4,629.2958626923322,411.7926458779066,-12420.20552027611,-0.08458614178481305,-20193.82773587009,1.1617300167486788,-1.700124666967895E-4,-1.954469995994465,2.0104687213897705,1780.522705078125,1184.9676513671875,-4.0222334632744605E-5
4.599999904632568,4209527.5312509565,-1.6434616583136857E7,1.2260152952732319E7,4204014.5112813255,-1.6436027691021113E7,1.2260152952732319E7,2362.941633551801,1463.5647362497402,1142.8862912250438,1413.348624933516,1415.0779629073863,-4.1770363168325275E-5,30013.000071815215,-75.65246983134533,36.03700547789157,32.127112744341325,45.0351354817737,-0.7415749565202892,-0.00807391282158597,0.0014031646085637026,-0.0078642870235708,0.0025610994951415318,0.0025062217900995165,994.7929491559723,8.902613417547116E-4,629.295862575321,411.7926458633384,-12420.205517593535,0.3153122915205367,-20193.827759423446,1.3776657254066096,-1.927637895278167E-4,-4.417097701177582,2.0104687213897705,1780.522705078125,1184.9676513671875,-4.1770363168325275E-5
4.699999809265137,4209763.824928297,-1.6434470224819964E7,1.22602672403194E7,4204131.001590246,-1.6435912069417892E7,1.2260267240319401E7,2362.9319127442673,1463.6016016867377,1142.8654506684995,1413.3298087112814,1415.0967557800845,-4.335432049629162E-5,30013.000076073222,-75.65199191826174,36.0373931563505,32.12711312460942,45.03590149491212,-0.7415749097271478,-0.008138653670807228,0.002057913179266352,-0.007864301297605784,0.0021579664183103767,0.0026012592297774972,994.7929491376836,8.902613416154002E-4,629.295862453708,411.7926458481973,-12420.20551480927,0.3181604081332665,-20193.8277871563,0.8230899566961541,-2.2082980285631493E-4,-4.2244479874692935,2.0104687213897705,1780.522705078125,1184.9676513671875,-4.335432049629162E-5
4.800000190734863,4210000.117632638,-1.6434323862816283E7,1.2260381525823059E7,4204247.492837246,-1.6435796446700454E7,1.2260381525823059E7,2362.9221664729853,1463.6384740864814,1142.8446279432653,1413.3110143072643,1415.1155263589872,-4.4965015717934875E-5,30013.00008048769,-75.65151399649163,36.037780829625184,32.127113504873485,45.03663157105769,-0.741574867528767,-0.008158923320492848,0.0022474536824919466,-0.007864317572423092,0.0018763749424081278,0.0026979009430760925,994.792949118723,8.902613414709694E-4,629.2958623276261,411.79264583249983,-12420.205511886717,-0.03407270471323807,-20193.82779990111,-0.11685442985705355,-2.3573536236654036E-4,-1.7715947355888166,2.0104687213897705,1780.522705078125,1184.9676513671875,-4.4965015717934875E-5
4.900000095367432,4210236.409359703,-1.6434177497124616E7,1.2260495809246339E7,4204363.985018098,-1.6435680822867606E7,1.2260495809246339E7,2362.9123645605314,1463.6753621841178,1142.8238449587109,1413.2922688233098,1415.1342475791616,-4.659317016830755E-5,30013.000085067935,-75.6510360660477,36.038168497725835,32.12711388513351,45.03734596438056,-0.741574827433459,-0.0081867906235088,0.0019200525083168751,-0.00786433511371336,0.0018548520060477477,0.002795590210098453,994.7929490990502,8.902613413211149E-4,629.2958621968094,411.7926458162128,-12420.20550879573,-0.5113985550244611,-20193.827788266022,-0.8901292623146563,-2.297263272339478E-4,1.3635850397243532,2.0104687213897705,1780.522705078125,1184.9676513671875,-4.659317016830755E-5
5.0,4210472.700103684,-1.6434031127743324E7,1.2260610090593385E7,4204480.478127045,-1.6435565197917704E7,1.2260610090593386E7,2362.902507487172,1463.712265843014,1142.803101364467,1413.2735718299373,1415.1529198732585,-4.823488131933118E-5,30013.000089814886,-75.65055812694727,36.038556160666545,32.127114265389494,45.03807113342666,-0.7415747856229034,-0.00826448396243832,0.0013100441046900587,-0.007864352457999393,0.0020756949884662957,0.002894092879159871,994.7929490786614,8.902613411658063E-4,629.2958620612316,411.79264579933306,-12420.205505560029,-0.8411480262798194,-20193.827761988417,-1.0955271863685598,-2.1089113579364493E-4,3.4058059083529733,2.0104687213897705,1780.522705078125,1184.9676513671875,-4.823488131933118E-5
5.099999904632568,4210708.989860271,-1.6433884754671197E7,1.226072436986726E7,4204596.972159823,-1.6435449571849529E7,1.226072436986726E7,2362.8926227763677,1463.749177099215,1142.7823771756919,1413.2548986107363,1415.1715679281092,-4.989355079487723E-5,30013.000094714575,-75.65008017920314,36.03894381845759,32.127114645641505,45.038824711116604,-0.7415747391677868,-0.008402563509574051,7.794163283178036E-4,-0.007864369173070578,0.0023916701766959754,0.0029936130476926337,994.7929490576167,8.902613410055005E-4,629.2958619212914,411.7926457819102,-12420.20550223596,-0.8605372711560281,-20193.82773805809,-0.6837739740898965,-1.92256695299875E-4,3.366888303566709,2.0104687213897705,1780.522705078125,1184.9676513671875,-4.989355079487723E-5
5.199999809265137,4210945.278628553,-1.6433738377908008E7,1.2260838647068568E7,4204713.467115575,-1.6435333944662867E7,1.2260838647068568E7,2362.8827471059267,1463.7860853380066,1142.761645761568,1413.2362162264708,1415.1902246395393,-5.157699638402846E-5,30013.00009978749,-75.64960222281782,36.03933147110097,32.12711502588946,45.039606904744524,-0.7415746875281366,-0.008577656372226732,6.074811432312956E-4,-0.00786438535218224,0.00262005472086219,0.0030946197830417077,994.7929490358279,8.902613408395268E-4,629.2958617764033,411.7926457638713,-12420.205498839798,-0.5929537358598103,-20193.82772629415,0.05423532317614204,-1.8234683375339955E-4,1.495720364974995,2.0104687213897705,1780.522705078125,1184.9676513671875,-5.157699638402846E-5
5.300000190734863,4211181.566410853,-1.6433591997454477E7,1.226095292219555E7,4204829.962996672,-1.6435218316358436E7,1.226095292219555E7,2362.8729054118776,1463.82298334162,1142.7408890170932,1413.2175022813576,1415.2089123711523,-5.329241992058087E-5,30013.000105030835,-75.649124257784,36.03971911859066,32.1271154061334,45.04040229173068,-0.7415746326452055,-0.008748850898393981,8.484172676343314E-4,-0.007864400782108897,0.0026456345426241175,0.003197545195234852,994.7929490133071,8.902613406679775E-4,629.295861626648,411.7926457452264,-12420.205495366314,-0.21488416252308234,-20193.82772824976,0.6824783908011828,-1.8477328558219597E-4,-0.9922055983580158,2.0104687213897705,1780.522705078125,1184.9676513671875,-5.329241992058087E-5
5.400000095367432,4211417.853210824,-1.64334456133117E7,1.2261067195245484E7,4204946.459806815,-1.643510268693733E7,1.2261067195245486E7,2362.8630986483195,1463.8598708322302,1142.7201062504528,1413.198755917131,1415.2276319773623,-5.50426611880539E-5,30013.000110452995,-75.64864628409036,36.040106760917325,32.12711578637328,45.04118989514852,-0.7415745776870689,-0.008881806351983783,0.0013265188379243172,-0.007864415564175112,0.002475812505430322,0.003302559671283234,994.7929489900182,8.902613404905779E-4,629.2958614717858,411.7926457259457,-12420.205491795772,0.05656506855128506,-20193.827740844667,0.8721854057853503,-1.9839920787489973E-4,-2.6798506148168446,2.0104687213897705,1780.522705078125,1184.9676513671875,-5.50426611880539E-5
5.5,4211654.139031055,-1.6433299225480461E7,1.2261181466216432E7,4205062.957548643,-1.6434987056400333E7,1.2261181466216432E7,2362.8533058953954,1463.896753862854,1142.699312652464,1413.1799959215587,1415.2463646951305,-5.682519622496329E-5,30013.00011604,-75.64816830172879,36.04049439807435,32.127116166609085,45.04195517044758,-0.7415745251990011,-0.008966662023757298,0.0017566609551266897,-0.007864430615325909,0.002223174707379516,0.0034095117734977975,994.7929489660213,8.902613403077845E-4,629.2958613122147,411.7926457060787,-12420.20548811625,0.08588171714666969,-20193.827755993483,0.5684443639310691,-2.1558834487223066E-4,-2.7393533219894417,2.0104687213897705,1780.522705078125,1184.9676513671875,-5.682519622496329E-5
5.599999904632568,4211890.423871491,-1.6433152833960792E7,1.2261295735108364E7,4205179.456222149,-1.6434871424747478E7,1.2261295735108364E7,2362.843498101762,1463.93364084104,1142.6785293178034,1413.1612483869399,1415.2650844698005,-5.8633816593101074E-5,30013.00012181606,-75.64769031069922,36.0408820300616,32.12711654684083,45.04269719092875,-0.7415744757359114,-0.009020706817325882,0.0019109364994293226,-0.00786444672650077,0.002032908800036496,0.0035180289955860644,994.7929489412124,8.902613401188058E-4,629.2958611472443,411.7926456855395,-12420.20548429338,-0.11627610475777708,-20193.82776255849,-0.009985541978749572,-2.2570048531633802E-4,-1.316606781549883,2.0104687213897705,1780.522705078125,1184.9676513671875,-5.8633816593101074E-5
5.699999809265137,4212126.707729469,-1.6433006438751962E7,1.226141000192315E7,4205295.955824721,-1.6434755791978033E7,1.226141000192315E7,2362.833654733675,1463.9705377105174,1142.65777115572,1413.14253175669,1415.2837728867753,-6.046216674349125E-5,30013.000127770007,-75.64721231100943,36.041269656885284,32.12711692706847,45.043427660285005,-0.7415744277332615,-0.009076030201284656,0.0017360184811106767,-0.007864463663963208,0.002000481743772068,0.003627730004609475,994.7929489156394,8.90261339924007E-4,629.2958609771931,411.79264566436774,-12420.205480318156,-0.41485626443746015,-20193.82775470875,-0.5192825014160377,-2.2344472745317034E-4,0.6544340464261116,2.0104687213897705,1780.522705078125,1184.9676513671875,-6.046216674349125E-5
5.800000190734863,4212362.990601171,-1.6432860039852899E7,1.2261524266663494E7,4205412.45635259,-1.6434640158090932E7,1.2261524266663494E7,2362.8237739820356,1464.0074449963172,1142.6370394788669,1413.123847656925,1415.3024283248224,-6.230734732071141E-5,30013.00013391208,-75.64673430267074,36.041657278554574,32.127117307292046,45.044163181862814,-0.7415743785746507,-0.009160495923439607,0.0013629824884051544,-0.007864480670829547,0.0021252957817224083,0.003738440839242685,994.7929488892585,8.902613397230536E-4,629.2958608017693,411.7926456425271,-12420.20547619768,-0.6372835078563466,-20193.827736876454,-0.6907521868829617,-2.1232791550573893E-4,2.044609534191457,2.0104687213897705,1780.522705078125,1184.9676513671875,-6.230734732071141E-5
5.900000095367432,4212599.272483538,-1.6432713637262762E7,1.2261638529331554E7,4205528.957802746,-1.6434524523085326E7,1.2261638529331554E7,2362.813871695313,1464.044358112624,1142.6163227785987,1413.1051818537912,1415.3210649981,-6.41712842934794E-5,30013.00014023669,-75.64625628569213,36.04204489507675,32.12711768751154,45.04491571635648,-0.7415743261263242,-0.00928309047896124,0.0010160256739352052,-0.007864497327766293,0.002321525928635023,0.003850277057608764,994.7929488620935,8.902613395161276E-4,629.2958606211317,411.79264562003726,-12420.20547196185,-0.6711756444271602,-20193.82771879952,-0.4683523253290205,-2.0004703037557192E-4,2.1634064078166935,2.0104687213897705,1780.522705078125,1184.9676513671875,-6.41712842934794E-5
6.0,4212835.553375564,-1.6432567230981307E7,1.2261752789927991E7,4205645.460174235,-1.6434408886960968E7,1.2261752789927991E7,2362.803970851311,1464.08127040936,1142.5956043698984,1413.0865137089631,1415.3397035136084,-6.605907321954874E-5,30013.000146747567,-75.64577826007643,36.042432506453906,32.12711806772696,45.04568660189203,-0.7415742698537342,-0.00943111394625614,8.806644922295418E-4,-0.007864513550711834,0.0024740008390791083,0.003963544393172924,994.7929488341284,8.902613393031079E-4,629.2958604351744,411.7926455968851,-12420.205467627164,-0.518717623018046,-20193.827707690754,-0.015823988924880968,-1.9287368559162132E-4,1.0855216475793081,2.0104687213897705,1780.522705078125,1184.9676513671875,-6.605907321954874E-5
6.099999904632568,4213071.8332783375,-1.643242082100888E7,1.2261867048451953E7,4205761.963468194,-1.6434293249718213E7,1.2261867048451953E7,2362.7940883137553,1464.1181770051555,1142.5748720077195,1413.0678280747738,1415.3583589943532,-6.797571802508173E-5,30013.000153450295,-75.64530022582004,36.04282011268318,32.127118447938294,45.04646699073662,-0.7415742109724318,-0.009579442310143354,0.0010073360533794315,-0.00786452928263687,0.00250388773611602,0.004078543081504904,994.7929488053394,8.902613390838111E-4,629.2958602437376,411.7926455730508,-12420.205463191312,-0.28293817746578115,-20193.827705673255,0.3961813163369804,-1.9374444309505634E-4,-0.4734001312154736,2.0104687213897705,1780.522705078125,1184.9676513671875,-6.797571802508173E-5
6.199999809265137,4213308.11219393,-1.6432274407346124E7,1.2261981304901859E7,4205878.467686743,-1.64341776113577E7,1.2261981304901859E7,2362.7842263548996,1464.1550772412982,1142.5541240427017,1413.0491229094414,1415.3770334773117,-6.99233941077182E-5,30013.000160345808,-75.64482218291643,36.04320771375909,32.127118828145505,45.04724376335664,-0.7415741516368034,-0.00970551535582966,0.0012988220954251943,-0.007864544663658149,0.002407477216192657,0.004195403646463092,994.7929487757223,8.902613388582067E-4,629.2958600467945,411.7926455485309,-12420.205458644106,-0.10078745199958716,-20193.82771078778,0.5486122010997352,-2.0186735127936117E-4,-1.615100332821735,2.0104687213897705,1780.522705078125,1184.9676513671875,-6.99233941077182E-5
6.300000190734863,4213544.390123901,-1.643212798999353E7,1.226209555927652E7,4205994.9728314895,-1.6434061971879918E7,1.2262095559276521E7,2362.774373020767,1464.1919745766438,1142.5333691559033,1413.03040895003,1415.3957162417294,-7.190057476691436E-5,30013.000167435035,-75.64434413136065,36.04359530967757,32.12711920834861,45.048007112308746,-0.7415740936750783,-0.009801293228729796,0.0015791418464645515,-0.007864560190439893,0.0022499744573313205,0.004314034486014862,994.7929487452733,8.902613386262646E-4,629.2958598443188,411.7926455233222,-12420.20545397154,-0.06513945643312,-20193.827717703298,0.38718935197796256,-2.1252533042570576E-4,-1.7659298951444082,2.0104687213897705,1780.522705078125,1184.9676513671875,-7.190057476691436E-5
6.400000095367432,4213780.667068211,-1.6431981568951128E7,1.2262209811575899E7,4206111.478902445,-1.6433946331284905E7,1.22622098115759E7,2362.764510173252,1464.2288742605938,1142.5126205187848,1413.0117024893352,1415.414391021708,-7.390310838673031E-5,30013.00017472729,-75.64386607115254,36.043982900438394,32.1271195885476,45.04875549997091,-0.7415740376069485,-0.009876029084200894,0.0016976301052964674,-0.007864576303165172,0.002122587763203254,0.004434186503203819,994.792948713952,8.902613383876798E-4,629.2958596360443,411.7926454973915,-12420.20544915449,-0.17923479222967187,-20193.827719677964,0.033822050446405676,-2.1937121346127242E-4,-0.952510161417277,2.0104687213897705,1780.522705078125,1184.9676513671875,-7.390310838673031E-5
6.5,4214016.943025147,-1.6431835144218463E7,1.2262324061801173E7,4206227.985897946,-1.6433830689572196E7,1.2262324061801175E7,2362.7546240064444,1464.265780289489,1142.4918881565,1412.993015929463,1415.4330454370584,-7.592663166633429E-5,30013.00018221326,-75.64338800229702,36.04437048604557,32.12711996874243,45.04949558736832,-0.7415739824756261,-0.00994935684553325,0.0016078923443437055,-0.007864592944514222,0.0020902085748649244,0.004555597899980057,994.7929486817989,8.90261338142757E-4,629.295859422237,411.792645470772,-12420.205444188818,-0.3647345075079376,-20193.827712974824,-0.2988062618998363,-2.1884901798330247E-4,0.27841527954332423,2.0104687213897705,1780.522705078125,1184.9676513671875,-7.592663166633429E-5
6.599999904632568,4214253.217992144,-1.6431688715794835E7,1.226243830995414E7,4206344.493815477,-1.6433715046741098E7,1.2262438309954142E7,2362.744712062263,1464.3026933756535,1142.4711738534868,1412.9743514793283,1415.4516772842603,-7.796897932621505E-5,30013.0001899153,-75.6429099248016,36.044758066505025,32.12712034893314,45.05023772399642,-0.7415739265151244,-0.010039505395816583,0.0013815606835851136,-0.007864609719791494,0.002159091702632495,0.004678138759572903,994.7929486487176,8.90261337890765E-4,629.2958592022586,411.7926454433842,-12420.205439070014,-0.5131396921502367,-20193.827699571702,-0.4325353858348037,-2.123959202435799E-4,1.213461046746866,2.0104687213897705,1780.522705078125,1184.9676513671875,-7.796897932621505E-5
6.699999809265137,4214489.491966995,-1.643154228367964E7,1.2262552556036333E7,4206461.002652882,-1.6433599402790999E7,1.2262552556036333E7,2362.7347833227223,1464.3396109200996,1142.4504710867116,1412.9557010710605,1415.4702946186,-8.00311878492721E-5,30013.00019780919,-75.6424318386727,36.04514564182201,32.12712072911971,45.050989930085,-0.7415738681957201,-0.010153564031862565,0.0011565210872575135,-0.00786462631599153,0.0022798797218605317,0.004801871270956326,994.7929486148124,8.902613376324964E-4,629.2958589768011,411.7926454153142,-12420.205433824423,-0.5479475830488496,-20193.8276850862,-0.31659428039679116,-2.0450744341360405E-4,1.377814213801957,2.0104687213897705,1780.522705078125,1184.9676513671875,-8.00311878492721E-5
6.800000190734863,4214725.7649487285,-1.6431395847872647E7,1.226266680004839E7,4206577.512409236,-1.6433483757721676E7,1.2262666800048392E7,2362.724852086722,1464.3765287844146,1142.4297694723525,1412.937051859983,1415.4889102627417,-8.211654028400517E-5,30013.000205925666,-75.64195374391304,36.04553321199849,32.127121109302145,45.051753801429754,-0.7415738070381761,-0.010284856702146437,0.0010548695565857432,-0.007864642610258484,0.0023804617562898545,0.00492699241704031,994.7929485799511,8.902613373669452E-4,629.295858744986,411.7926453864527,-12420.205428450112,-0.4626442495593033,-20193.827674419063,-0.0411929757961237,-1.9947755936300382E-4,0.7666578452644578,2.0104687213897705,1780.522705078125,1184.9676513671875,-8.211654028400517E-5
6.900000095367432,4214962.036937717,-1.643124940837399E7,1.2262781041989986E7,4206694.023084962,-1.6433368111533253E7,1.2262781041989986E7,2362.714929632855,1464.4134437038122,1142.40906082015,1412.9183937139815,1415.5075343303768,-8.422845985478489E-5,30013.00021423865,-75.64147564052118,36.045920777033466,32.12712148948043,45.05252434642001,-0.7415737437808682,-0.010418068873974298,0.0011184107404553314,-0.007864658581433823,0.0024075788589960068,0.005053707591287093,994.7929485442459,8.902613370949644E-4,629.2958585075583,411.79264535689236,-12420.205422961153,-0.31658341370394993,-20193.82766954844,0.22682859963920138,-1.995585553231649E-4,-0.20361942750135237,2.0104687213897705,1780.522705078125,1184.9676513671875,-8.422845985478489E-5
7.0,4215198.307935044,-1.6431102965184033E7,1.2262895281860253E7,4206810.534681195,-1.6433252464226104E7,1.2262895281860253E7,2362.705018432855,1464.450354962215,1142.3883433355304,1412.8997244121665,1415.5261690375337,-8.63685702370276E-5,30013.000222768635,-75.64099752849361,36.04630833692383,32.12712186965457,45.053293414852455,-0.7415736798698551,-0.01053850056909418,0.0012947675094850894,-0.007864674347611523,0.0023536509480075497,0.005182114214221656,994.7929485076085,8.902613368158841E-4,629.2958582639329,411.79264532656043,-12420.20541734265,-0.19557985401644748,-20193.827669398393,0.3428934150286054,-2.0436319755390286E-4,-0.9674006910977814,2.0104687213897705,1780.522705078125,1184.9676513671875,-8.63685702370276E-5
7.099999904632568,4215434.577941561,-1.6430956518303057E7,1.2263009519658517E7,4206927.047198833,-1.6433136815800507E7,1.2263009519658517E7,2362.695111775621,1464.4872645014748,1142.3676218925837,1412.8810499832548,1415.5448083658982,-8.853597876168351E-5,30013.000231514685,-75.64051940782747,36.04669589166724,32.12712224982452,45.05405446448761,-0.7415736166033422,-0.010639972781729033,0.0014760994156968353,-0.007864690194833284,0.0022558894470699428,0.0053121587257010106,994.792948470043,8.902613365297348E-4,629.2958580141366,411.7926452954602,-12420.205411585675,-0.1624656933758534,-20193.827670573675,0.2606720102494459,-2.1100747835589573E-4,-1.1329753182281228,2.0104687213897705,1780.522705078125,1184.9676513671875,-8.853597876168351E-5
7.199999809265137,4215670.846957175,-1.6430810067731084E7,1.2263123755384775E7,4207043.560637835,-1.6433021166256484E7,1.2263123755384777E7,2362.6851984132854,1464.524175576975,1142.3469046599146,1412.8623805321567,1415.5634422293833,-9.072793500308762E-5,30013.000240487047,-75.6400412785228,36.04708344126363,32.12712262999029,45.054805933976674,-0.7415735544311381,-0.010727246812352537,0.0015636677956116416,-0.007864706377339598,0.0021712113431026463,0.005443676100185257,994.7929484315056,8.902613362361808E-4,629.2958577578763,411.7926452635552,-12420.20540567584,-0.22552176833100357,-20193.82766888909,0.046465414470650994,-2.1562265828833915E-4,-0.6759945731995602,2.0104687213897705,1780.522705078125,1184.9676513671875,-9.072793500308762E-5
7.300000190734863,4215907.11498071,-1.6430663613467805E7,1.2263237989039816E7,4207160.074997072,-1.643290551559372E7,1.2263237989039816E7,2362.6752691601264,1464.561090847722,1142.3261983083064,1412.843724311683,1415.5820623914865,-9.294143910665298E-5,30013.000249666162,-75.6395631405829,36.04747098571562,32.127123010151905,45.05555154462832,-0.7415734927858584,-0.010812244232453251,0.0015204019202382376,-0.007864722896128554,0.0021432074292550745,0.005576486346399179,994.7929483920801,8.902613359358624E-4,629.2958574957111,411.792645230915,-12420.2053996166,-0.33995705819337946,-20193.827661903273,-0.1690902256513244,-2.15830954402918E-4,0.08753321118895552,2.0104687213897705,1780.522705078125,1184.9676513671875,-9.294143910665298E-5
7.400000095367432,4216143.382010391,-1.643051715551275E7,1.2263352220624859E7,4207276.590274821,-1.6432789863811754E7,1.2263352220624859E7,2362.6653216501363,1464.5980109990776,1142.3055045557087,1412.8250834480693,1415.6006667311558,-9.51748775150918E-5,30013.000259068795,-75.63908499401285,36.0478585250273,32.12712339030933,45.05629770377661,-0.7415734304916056,-0.010906796555187817,0.0013842557799830543,-0.00786473954306058,0.002179956856240085,0.005710492650905508,994.7929483516947,8.902613356282315E-4,629.2958572271623,411.79264519748006,-12420.205393403028,-0.4380124536886212,-20193.827650455627,-0.2689223369368023,-2.1214535809122026E-4,0.7099004201323529,2.0104687213897705,1780.522705078125,1184.9676513671875,-9.51748775150918E-5
7.5,4216379.648044594,-1.6430370693865487E7,1.2263466450141028E7,4207393.1064695055,-1.6432674210910147E7,1.2263466450141028E7,2362.6553608750496,1464.6349345866677,1142.2848197766343,1412.8064534571458,1415.6192597248528,-9.742875249685312E-5,30013.00026869867,-75.63860683881734,36.048246059202384,32.12712377046257,45.057049735277474,-0.7415733664672151,-0.011016237272023905,0.0012394113592407436,-0.007864756106533503,0.0022535304851042347,0.005845725149811187,994.7929483103331,8.902613353131654E-4,629.2958569521229,411.792645163237,-12420.205387042015,-0.46822955587597365,-20193.827637771876,-0.21154369886219465,-2.071692761091981E-4,0.8689676600380675,2.0104687213897705,1780.522705078125,1184.9676513671875,-9.742875249685312E-5
7.599999904632568,4216615.913082419,-1.6430224228525802E7,1.2263580677588897E7,4207509.623580277,-1.6432558556888686E7,1.2263580677588897E7,2362.6453956723067,1464.6718590526727,1142.2641375528287,1412.7878263992889,1415.637849297088,-9.970515372970112E-5,30013.000278553925,-75.63812867499884,36.0486335882428,32.12712415061162,45.05780911041133,-0.7415733003092915,-0.011137220188305801,0.0011655564804262286,-0.00786477247607465,0.002319081183322133,0.005982309223782067,994.7929482680037,8.902613349907254E-4,629.2958566706465,411.79264512819253,-12420.205380542226,-0.421578124529651,-20193.8276270943,-0.045281554915276426,-2.0373248116811737E-4,0.5291518945125573,2.0104687213897705,1780.522705078125,1184.9676513671875,-9.970515372970112E-5
7.699999809265137,4216852.1771238325,-1.6430077759493722E7,1.2263694902968435E7,4207626.14160715,-1.6432442901747398E7,1.2263694902968436E7,2362.6354335113765,1464.7087822348644,1142.2434524596847,1412.7691955635032,1415.6564421454007,-1.0200638416790753E-4,30013.00028864108,-75.6376505025572,36.049021112148345,32.12712453075647,45.058573071275205,-0.741573232451516,-0.01126048402605647,0.0011951514768946908,-0.00786478863609265,0.002341021657018722,0.006120383050074452,994.792948224678,8.902613346606984E-4,629.2958563825467,411.7926450923234,-12420.205373903005,-0.33171309696747053,-20193.827619981435,0.12776129297424238,-2.0348375255707651E-4,-0.0706192333292478,2.0104687213897705,1780.522705078125,1184.9676513671875,-1.0200638416790753E-4
7.800000190734863,4217088.440169301,-1.6429931286769422E7,1.2263809126279237E7,4207742.660550641,-1.6432327245486457E7,1.2263809126279237E7,2362.625476592596,1464.7457034959443,1142.2227628994483,1412.7505589726686,1415.6750402425043,-1.0433363047468447E-4,30013.00029895827,-75.6371723214907,36.04940863091762,32.127124910897074,45.05933658969027,-0.7415731638525247,-0.011376523486869603,0.0013009891543866365,-0.007864804670721016,0.0023113152540172907,0.006260017828481068,994.7929481803644,8.902613343231453E-4,629.295856087877,411.79264505563634,-12420.205367122093,-0.2520469043519707,-20193.827615937666,0.21297801031374142,-2.063071915472392E-4,-0.5765567513751132,2.0104687213897705,1780.522705078125,1184.9676513671875,-1.0433363047468447E-4
