time,eiPosition_ft_X,eiPosition_ft_Y,eiPosition_ft_Z,eiVelocity_ft_s_X,eiVelocity_ft_s_Y,eiVelocity_ft_s_Z,feVelocity_ft_s_X,feVelocity_ft_s_Y,feVelocity_ft_s_Z,altitudeMsl_ft,longitude_deg,latitude_deg,localGravity_ft_s2,eulerAngle_deg_Yaw,eulerAngle_deg_Pitch,eulerAngle_deg_Roll,bodyAngularRateWrtEi_deg_s_Roll,bodyAngularRateWrtEi_deg_s_Pitch,bodyAngularRateWrtEi_deg_s_Yaw,speedOfSound_ft_s,airDensity_slug_ft3,ambientPressure_lbf_ft2,ambientTemperature_dgR,aero_bodyForce_lbf_X,aero_bodyForce_lbf_Y,aero_bodyForce_lbf_Z,aero_bodyMoment_ftlbf_L,aero_bodyMoment_ftlbf_M,aero_bodyMoment_ftlbf_N,mach,dynamicPressure_lbf_ft2
0.0,4198656.97133,-1.644134508E7,1.22548934718E7,2363.38821198,1461.86866076,1143.84466938,1414.21356237,1414.21356237,-3.41060513165E-13,30013.0,-75.6744444444,36.0191666667,32.12709524778666,45.0,-0.741575148285,2.00391729448E-13,0.00235753465221,-0.00787706166474,-0.00248766188623,994.793658319,8.90260046232E-4,629.302323618,411.792646119,-12420.1876321,1.88627859738E-9,-20193.8257947,-4.06350806266E-16,-3.63797880709E-12,-9.84479759378E-19,2.01046717907,1780.52009246
0.1,4198893.30967,-1.64411988913E7,1.22550078553E7,2363.37852654,1461.90553726,1143.82383071,1414.194762,1414.23236255,3.49783022102E-6,30012.9999999,-75.6739669309,36.0195545835,32.127095628258296,45.0003311636,-0.741576502835,-1.01746589435E-4,-4.93579819354E-4,-0.00787706679306,-0.00102879223424,994.79365832,8.90260046236E-4,629.302323622,411.792646119,-12420.1870544,-4.48920638834,-20193.7821879,-7.52362465166,-9.77270246949E-8,28.7380045914,2.01046717911,1780.52009254
0.2,4199129.64702,-1.64410526989E7,1.22551222366E7,2363.36843534,1461.94253538,1143.80328132,1414.17632365,1414.25080032,1.32998210347E-5,30012.9999991,-75.6734894088,36.0199424953,32.127096008673654,45.0009143195,-0.741577856349,-6.43788029752E-4,-0.00550472217587,-0.00787707155051,0.00222936129045,994.793658323,8.90260046261E-4,629.302323644,411.792646122,-12420.1865639,-6.05408924969,-20193.7450765,-6.71363578078,-1.06141669676E-7,37.3327539036,2.01046717921,1780.52009278
0.3,4199365.98336,-1.64409065028E7,1.22552366159E7,2363.35833242,1461.97954045,1143.7827359,1414.15789391,1414.26922911,2.84645208239E-5,30012.999997,-75.6730118781,36.0203304019,32.127096389118975,45.0018256265,-0.741579203059,-0.00160096691846,-0.00812100255687,-0.00787711726202,0.00518550096228,994.793658332,8.90260046328E-4,629.302323703,411.792646129,-12420.1861475,-4.21480716665,-20193.7135101,-0.427443870075,-9.57516022027E-8,23.7784193703,2.01046717937,1780.52009324
0.4,4199602.3187,-1.6440760303E7,1.22553509932E7,2363.34855214,1462.01645519,1143.76195237,1414.13917287,1414.2879488,4.81970827195E-5,30012.9999932,-75.6725343389,36.0207183035,32.12709676960431,45.0029446645,-0.741580538955,-0.00260595440376,-0.00634349894108,-0.00787719135823,0.00620648191535,994.793658348,8.90260046453E-4,629.302323811,411.792646143,-12420.1857913,-0.46107014146,-20193.6863762,6.32499954916,-7.20283424016E-8,-1.29902125523,2.01046717961,1780.52009396
0.5,4199838.65308,-1.64406140995E7,1.22554653683E7,2363.33919412,1462.0532503,1143.74085888,1414.12007123,1414.30704865,7.18355992149E-5,30012.9999873,-75.6720567909,36.0211061998,32.127097149984756,45.0040495507,-0.741581869744,-0.00324762945408,-0.00125476321659,-0.00787723096395,0.00497132102357,994.793658374,8.90260046648E-4,629.302323982,411.792646164,-12420.185488,2.84866680092,-20193.6630235,9.2611888983,-7.06459104549E-8,-22.2882834861,2.0104671799,1780.52009496
0.6,4200074.98655,-1.64404678923E7,1.22555797413E7,2363.33010176,1462.08997067,1143.71956951,1414.10072961,1414.32638804,9.88071313941E-5,30012.9999788,-75.671579234,36.0214940908,32.127097530503754,45.0049554362,-0.741583206725,-0.00333436745347,0.0041496941108,-0.00787722336322,0.0024691548262,994.79365841,8.90260046926E-4,629.302324225,411.792646194,-12420.1852342,3.92423824894,-20193.6431686,6.99591630281,-8.34079401102E-8,-27.9933934833,2.01046718024,1780.52009625
0.7,4200311.3191,-1.64403216815E7,1.22556941122E7,2363.32098594,1462.12669956,1143.69829447,1414.08140756,1414.34570744,1.28618886265E-4,30012.9999674,-75.6711016683,36.0218819765,32.12709791095171,45.0056132258,-0.741584554959,-0.00298758277029,0.00698168884566,-0.00787721065941,2.66209210803E-4,994.793658459,8.90260047298E-4,629.302324549,411.792646235,-12420.1850228,2.46780446482,-20193.6263232,1.34801712198,-7.9602614278E-8,-17.2913620201,2.01046718063,1780.52009786
0.8,4200547.65073,-1.6440175467E7,1.2255808481E7,2363.31160555,1462.16350643,1143.67720907,1414.06232152,1414.36479045,1.60868652188E-4,30012.999953,-75.6706240938,36.0222698569,32.12709829140311,45.006118822,-0.74158590987,-0.00254087501699,0.00611129863091,-0.00787721191195,-4.49601888263E-4,994.793658521,8.90260047771E-4,629.302324962,411.792646286,-12420.1848447,-0.362165717563,-20193.6118435,-4.1557686406,-6.28242560197E-8,1.60983390945,2.01046718108,1780.52009981
0.9,4200783.98141,-1.64400292488E7,1.22559228477E7,2363.3018963,1462.20040962,1143.65636022,1414.04352928,1414.38357932,1.95220767409E-4,30012.9999352,-75.6701465105,36.0226577321,32.12709867182816,45.0066399364,-0.741587263413,-0.00233029567518,0.00258971446937,-0.00787721240443,5.17692864815E-4,994.793658598,8.90260048353E-4,629.30232547,411.792646349,-12420.1846954,-2.79644559382,-20193.5993652,-6.51086156061,-5.63668436371E-8,17.0296692611,2.01046718156,1780.52010212
1.0,4201020.31111,-1.64398830269E7,1.22560372123E7,2363.29198299,1462.23737281,1143.63565757,1414.0249189,1414.40218599,2.31366764524E-4,30012.9999138,-75.6696689185,36.0230456021,32.12709905235399,45.0073126289,-0.741588609217,-0.00250941214082,-0.00121723617054,-0.00787721199911,0.00239681329075,994.793658689,8.9026004905E-4,629.302326079,411.792646425,-12420.1845731,-3.52735179166,-20193.5887617,-4.85946454339,-5.90189301874E-8,20.8193821293,2.01046718209,1780.52010478
1.1,4201256.63981,-1.64397368013E7,1.22561515748E7,2363.28208421,1462.27433256,1143.61494267,1414.00629426,1414.42080653,2.69020016958E-4,30012.9998888,-75.669191318,36.023433467,32.127099432841476,45.0081695634,-0.741589943924,-0.00299016943902,-0.0031202742803,-0.00787722568893,0.0040116417755,994.793658797,8.90260049868E-4,629.302326793,411.792646514,-12420.1844749,-2.37734640713,-20193.5798061,-0.687785789363,-5.68543327972E-8,12.4398426474,2.01046718267,1780.52010781
1.2,4201492.96753,-1.6439590572E7,1.22562659353E7,2363.2723775,1462.31123734,1143.59408681,1413.98749603,1414.43960021,3.07934397597E-4,30012.99986,-75.6687137088,36.0238213267,32.12709981329464,45.0091358078,-0.741591268776,-0.00352609839593,-0.0023008854513,-0.00787724736662,0.00449376267805,994.79365892,8.90260050812E-4,629.302327617,411.792646617,-12420.1843969,-0.244855947838,-20193.5721796,3.31803740894,-5.14810380992E-8,-1.76995455174,2.01046718328,1780.52011123
1.3,4201729.29429,-1.6439444339E7,1.22563802936E7,2363.26290575,1462.3480746,1143.57305902,1413.96848579,1414.45860545,3.47908198023E-4,30012.9998272,-75.6682360909,36.0242091813,32.12710019387642,45.0100853639,-0.741592590134,-0.00387233961678,4.20679645368E-4,-0.007877255414,0.00372623415526,994.793659061,8.90260051885E-4,629.302328553,411.792646733,-12420.184337,1.5442526051,-20193.5656901,4.93387611625,-5.34710125066E-8,-13.0715799673,2.01046718393,1780.52011504
1.4,4201965.62012,-1.64392981024E7,1.22564946499E7,2363.2535715,1462.38487242,1143.55193015,1413.94935099,1414.47773478,3.88773894656E-4,30012.9997904,-75.6677584642,36.0245970305,32.127100574298815,45.0109185712,-0.741593915331,-0.00392275845081,0.00326875195814,-0.00787724642033,0.00230689620655,994.793659219,8.90260053089E-4,629.302329605,411.792646864,-12420.1842939,2.03616818902,-20193.5602405,3.57680383537,-5.83095243201E-8,-15.539602449,2.01046718462,1780.52011924
1.5,4202201.94501,-1.64391518621E7,1.2256609004E7,2363.24421058,1462.42167817,1143.53081947,1413.93023901,1414.49684088,4.30394363434E-4,30012.9997494,-75.6672808286,36.0249848745,32.12710095485788,45.0116142693,-0.741595247012,-0.0037506987291,0.00463622216805,-0.00787723476195,0.00111695957516,994.793659395,8.90260054429E-4,629.302330774,411.79264701,-12420.1842653,1.13200955166,-20193.5556637,0.40713734718,-5.62213244848E-8,-8.99320076202,2.01046718535,1780.52012383
1.6,4202438.26895,-1.64390056181E7,1.2256723356E7,2363.234693,1462.45852937,1143.50982143,1413.91126655,1414.51580711,4.72660789569E-4,30012.9997043,-75.6668031844,36.0253727133,32.12710133531627,45.0122309747,-0.741596581919,-0.00354373702112,0.00396112309854,-0.00787722765278,7.89718669197E-4,994.793659589,8.90260055906E-4,629.302332064,411.79264717,-12420.1842483,-0.472963979863,-20193.5517609,-2.55778942264,-5.01495378558E-8,1.68278240137,2.01046718612,1780.52012884
1.7,4202674.59194,-1.64388593704E7,1.2256837706E7,2363.22499101,1462.49543399,1143.48895624,1413.89245856,1414.53460854,5.15479491469E-4,30012.9996549,-75.6663255314,36.0257605468,32.12710171590333,45.0128633404,-0.74159791417,-0.0034833573519,0.00189941574909,-0.00787722243141,0.00139005262105,994.793659801,8.90260057523E-4,629.302333475,411.792647346,-12420.1842416,-1.78598862034,-20193.5484344,-3.68851345799,-4.75956767332E-8,9.95741229286,2.01046718692,1780.52013424
1.8,4202910.91395,-1.6438713119E7,1.22569520538E7,2363.21518075,1462.53236993,1143.46816871,1413.8737467,1414.55331348,5.58757994895E-4,30012.9996012,-75.6658478697,36.0261483752,32.12710209645617,45.0135843185,-0.741599238838,-0.00364433745656,-2.06957425633E-4,-0.00787722032754,0.00245531974067,994.793660032,8.9026005928E-4,629.302335009,411.792647537,-12420.1842447,-2.11236771999,-20193.545658,-2.60223156082,-6.21184881311E-8,11.5294300385,2.01046718775,1780.52014006
1.9,4203147.23497,-1.64385668639E7,1.22570663996E7,2363.2053856,1462.56930144,1143.44736933,1413.85502025,1414.57203262,6.02405929726E-4,30012.9995431,-75.6653701994,36.0265361984,32.12710247697481,45.0144073107,-0.741600554009,-0.00396744935565,-0.00117351023121,-0.00787722473071,0.00332570277101,994.793660281,8.90260061179E-4,629.302336667,411.792647743,-12420.1842569,-1.40348811209,-20193.5433692,-0.2077270391,-6.00193743594E-8,6.42986103084,2.01046718861,1780.52014629
2.0,4203383.55503,-1.64384206051E7,1.22571807433E7,2363.19570076,1462.60620093,1143.42648905,1413.83619378,1414.59085133,6.46344781671E-4,30012.9994807,-75.6648925204,36.0269240165,32.127102857598395,45.0152867605,-0.741601861627,-0.00431079390515,-6.14133521106E-4,-0.00787723101132,0.00353996455304,994.79366055,8.90260063222E-4,629.30233845,411.792647965,-12420.1842772,-0.196277096223,-20193.5414772,1.97814174301,-5.82404027227E-8,-1.58359042822,2.01046718952,1780.52015293
2.1,4203619.87412,-1.64382743427E7,1.22572950849E7,2363.18614384,1462.64306325,1143.40551512,1413.81725146,1414.60978542,6.90512364258E-4,30012.9994139,-75.6644148326,36.0273118293,32.12710323813313,45.0161516353,-0.741603166527,-0.00454038944251,9.51444642885E-4,-0.00787723078301,0.00306641651569,994.793660837,8.90260065409E-4,629.302340359,411.792648203,-12420.1843051,0.76656675609,-20193.5399277,2.7612231343,-5.85205270909E-8,-7.6339564871,2.01046719045,1780.52015998
2.2,4203856.19226,-1.64381280765E7,1.22574094244E7,2363.17665558,1462.67990552,1143.3844906,1413.79824649,1414.62878171,7.34861127853E-4,30012.9993426,-75.6639371362,36.0276996369,32.12710361872218,45.0169486087,-0.741604473329,-0.00460402811353,0.0025113326325,-0.0078772231531,0.00226231263016,994.793661143,8.9026006774E-4,629.302342395,411.792648456,-12420.1843402,0.979847605194,-20193.5386879,1.89402199392,-5.81894710194E-8,-8.60429082907,2.01046719141,1780.52016745
2.3,4204092.50945,-1.64379818067E7,1.22575237618E7,2363.16714342,1462.71675447,1143.3634827,1413.77926198,1414.64775714,7.79355914688E-4,30012.9992669,-75.663459431,36.0280874393,32.12710399936557,45.0176694779,-0.741605783389,-0.00454937148776,0.00319419406581,-0.0078772136393,0.00162125216294,994.793661468,8.90260070218E-4,629.302344557,411.792648726,-12420.1843814,0.42613963848,-20193.5376996,0.0855465674756,-5.53736754227E-8,-4.64174799177,2.01046719241,1780.52017533
2.4,4204328.82568,-1.64378355332E7,1.22576380971E7,2363.1575378,1462.75363022,1143.34254197,1413.76036038,1414.66664931,8.23970121019E-4,30012.9991867,-75.662981717,36.0284752364,32.12710437998085,45.0183496236,-0.741607094339,-0.00448373846043,0.00273744376546,-0.00787720573887,0.0014786342474,994.793661812,8.9026007284E-4,629.302346847,411.792649011,-12420.184428,-0.480699879855,-20193.5369006,-1.52507276138,-5.22231857758E-8,1.36792513694,2.01046719344,1780.52018363
2.5,4204565.14095,-1.64376892559E7,1.22577524303E7,2363.14782791,1462.79053586,1143.32167625,1413.7415514,1414.68544852,8.68678547931E-4,30012.9991021,-75.6625039943,36.0288630284,32.12710476058779,45.0190423066,-0.741608402075,-0.00450599082671,0.00155143825706,-0.00787719981041,0.00184557639506,994.793662176,8.9026007561E-4,629.302349264,411.792649312,-12420.1844795,-1.18553042955,-20193.5362656,-2.06401986935,-5.02404873259E-8,5.78602229504,2.0104671945,1780.52019235
2.6,4204801.45525,-1.6437542975E7,1.22578667614E7,2363.13805981,1462.82745806,1143.30085213,1413.72279369,1414.70419608,9.13452290433E-4,30012.999013,-75.662026263,36.0292508151,32.127105141219324,45.0197864552,-0.741609703236,-0.00465239667117,3.9862378654E-4,-0.00787719665396,0.00244672983476,994.793662559,8.90260078525E-4,629.302351809,411.792649629,-12420.1845358,-1.32155912625,-20193.5357919,-1.37542762039,-4.96766006108E-8,6.35796291936,2.01046719559,1780.52020148
2.7,4205037.76857,-1.64373966905E7,1.22579810905E7,2363.12830291,1462.86437672,1143.28001925,1413.70402496,1414.72295426,9.58260610673E-4,30012.9989194,-75.661548523,36.0296385967,32.12710552181879,45.0205868421,-0.741610996842,-0.00488484817731,-8.0646611732E-5,-0.00787719652501,0.00291315835727,994.79366296,8.90260081587E-4,629.302354482,411.792649961,-12420.1845968,-0.889884555591,-20193.535464,-0.0110574180768,-4.89853846375E-8,3.286159605,2.01046719671,1780.52021102
2.8,4205274.08091,-1.64372504022E7,1.22580954174E7,2363.11860802,1462.90127711,1143.25914073,1413.68519959,1414.74176864,0.00100307653042,30012.9988213,-75.6610707743,36.0300263732,32.127105902464635,45.0214160531,-0.741612284655,-0.00512227174305,2.90367173713E-4,-0.00787719659874,0.00300136327327,994.793663382,8.90260084795E-4,629.302357283,411.79265031,-12420.1846623,-0.208928273242,-20193.5352573,1.17434206657,-4.89962985739E-8,-1.21679822503,2.01046719785,1780.52022098
2.9,4205510.39229,-1.64371041102E7,1.22582097423E7,2363.10898144,1462.9381574,1143.23821201,1413.66631192,1414.76064486,0.00104788026897,30012.9987188,-75.6605930169,36.0304141444,32.127106283158895,45.0222341881,-0.741613570049,-0.00529180038036,0.00118890784811,-0.00787719341107,0.00271242066722,994.793663822,8.9026008815E-4,629.302360212,411.792650675,-12420.1847321,0.306721213332,-20193.5351558,1.54216954441,-4.95310814586E-8,-4.43842467926,2.01046719903,1780.52023136
3.0,4205746.70271,-1.64369578145E7,1.22583240651E7,2363.09938749,1462.97502791,1143.217259,1413.64739398,1414.77955092,0.00109265935771,30012.9986117,-75.6601152508,36.0308019104,32.12710666382514,45.0230128698,-0.741614855893,-0.00536840829226,0.00204103838696,-0.00787718672981,0.00225817002877,994.793664282,8.90260091652E-4,629.302363269,411.792651055,-12420.1848061,0.391213462879,-20193.5351469,0.997740983854,7.90030753706E-7,-4.75109743173,2.01046720024,1780.52024215
3.1,4205983.01217,-1.64368115152E7,1.22584383858E7,2363.08977419,1463.01190366,1143.19631945,1413.62849245,1414.79844017,0.0011374068946,30012.9985002,-75.6596374759,36.0311896712,32.12710704454183,45.0237495484,-0.741616142826,-0.00538240979004,0.00237670692231,-0.00787717887156,0.00191413044584,994.793664761,8.902600953E-4,629.302366453,411.792651452,-12420.1848838,0.0559090988182,-20193.5352094,-0.0306170486096,-4.86943463329E-8,-2.37495160576,2.01046720148,1780.52025335
3.2,4206219.32066,-1.64366652122E7,1.22585527043E7,2363.08010451,1463.04879536,1143.17542025,1413.60964058,1414.81727939,0.00118211827782,30012.9983843,-75.6591596923,36.0315774268,32.12710742523054,45.02446542,-0.741617429141,-0.0053949925469,0.00207850417132,-0.0078771717335,0.00185677754784,994.793665259,8.90260099095E-4,629.302369766,411.792651864,-12420.1849651,-0.454614404485,-20193.535323,-0.902114133346,-4.73119143862E-8,0.996122366477,2.01046720275,1780.52026496
3.3,4206455.62819,-1.64365189054E7,1.22586670208E7,2363.07037506,1463.08570398,1143.15456387,1413.5908414,1414.83606556,0.00122678724063,30012.9982638,-75.6586819001,36.0319651772,32.12710780590702,45.0251903497,-0.741618712075,-0.00545980799474,0.00139943780121,-0.00787716605091,0.00207830307579,994.793665776,8.90260103035E-4,629.302373206,411.792652292,-12420.1850497,-0.831003164171,-20193.5354819,-1.15068955158,-4.64096956421E-8,3.34185332516,2.01046720404,1780.52027699
3.4,4206691.93473,-1.6436372595E7,1.22587813353E7,2363.06061343,1463.12262155,1143.13373027,1413.57207015,1414.85482343,0.00127140394306,30012.9981389,-75.6582040991,36.0323529224,32.127108186610236,45.0259449928,-0.741619989477,-0.00559399159296,7.71147975756E-4,-0.00787716219972,0.00241600442013,994.793666313,8.90260107122E-4,629.302376773,411.792652737,-12420.1851376,-0.880920031665,-20193.5356878,-0.721918038041,-4.59658622276E-8,3.48968694787,2.01046720536,1780.52028942
3.5,4206928.24031,-1.64362262809E7,1.22588956476E7,2363.05085855,1463.15953678,1143.11289121,1413.55329189,1414.8735879,0.00131595663163,30012.9980095,-75.6577262895,36.0327406625,32.12710856727949,45.0267304945,-0.741621260905,-0.0057735386385,5.38269119771E-4,-0.00787715977189,0.00266430382037,994.793666868,8.90260111354E-4,629.302380468,411.792653197,-12420.1852289,-0.620714632345,-20193.5359384,0.0524483035806,-4.5940396376E-8,1.6553966465,2.01046720671,1780.52030227
3.6,4207164.54491,-1.64360799631E7,1.22590099578E7,2363.04113738,1463.19644187,1143.09202711,1413.5344824,1414.89238316,0.00136043502755,30012.9978757,-75.6572484712,36.0331283974,32.12710894799526,45.0275304991,-0.741622527724,-0.00595231445092,7.77516876802E-4,-0.00787715716553,0.00269553376409,994.793667443,8.90260115733E-4,629.302384291,411.792653673,-12420.1853235,-0.237943761136,-20193.5362273,0.692440140871,-4.62241587229E-8,-0.866095751044,2.01046720809,1780.52031552
3.7,4207400.84854,-1.64359336416E7,1.2259124266E7,2363.03145146,1463.23333638,1143.07113686,1413.5156403,1414.91121059,0.00140483261839,30012.9977375,-75.6567706442,36.0335161271,32.127109328759566,45.0283226724,-0.741623792182,-0.00609085882709,0.00129116640176,-0.00787715285813,0.002520752419,994.793668037,8.90260120256E-4,629.30238824,411.792654164,-12420.1854214,0.0367618604894,-20193.5365496,0.858405968012,-4.68171492685E-8,-2.5714008842,2.0104672095,1780.52032919
3.8,4207637.1512,-1.64357873164E7,1.22592385721E7,2363.0217795,1463.27022645,1143.05023592,1413.4967847,1414.93005109,0.00144914693772,30012.9975948,-75.6562928085,36.0339038516,32.12710970955267,45.0290920035,-0.741625056026,-0.00617754676829,0.00175488934734,-0.00787714680334,0.00226472279496,994.79366865,8.90260124925E-4,629.302392315,411.792654672,-12420.1855225,0.0645201425404,-20193.5368996,0.52189962634,-4.65770426672E-8,-2.61769697369,2.01046721093,1780.52034326
3.9,4207873.45289,-1.64356409876E7,1.2259352876E7,2363.0120924,1463.30712051,1143.02934542,1413.47794174,1414.94887856,0.00149337820449,30012.9974476,-75.6558149641,36.0342915709,32.12711009033363,45.0298382049,-0.741626319518,-0.00623130983989,0.00191631626125,-0.00787714008477,0.00208070311552,994.793669282,8.90260129739E-4,629.302396517,411.792655195,-12420.1856266,-0.136594546706,-20193.5372691,-0.0606690016732,-4.62641764898E-8,-1.20435910023,2.01046721239,1780.52035773
4.0,4208109.75362,-1.6435494655E7,1.22594671779E7,2363.00237057,1463.34402423,1143.00847959,1413.45912902,1414.96767542,0.00153752698827,30012.9972961,-75.655337111,36.034679285,32.127110471084734,45.0305738739,-0.741627581454,-0.00628690010945,0.00172639619166,-0.00787713374715,0.00206087222957,994.793669933,8.90260134697E-4,629.302400846,411.792655734,-12420.1857336,-0.422971296496,-20193.5376511,-0.530103210149,-4.57002897747E-8,0.680050416921,2.01046721387,1780.52037261
4.1,4208346.05337,-1.64353483188E7,1.22595814777E7,2362.99261359,1463.38093771,1142.98763872,1413.44034689,1414.98644131,0.00158159198679,30012.9971401,-75.6548592493,36.0350669939,32.12711085188243,45.0313156988,-0.74162884003,-0.00637330784787,0.00133921945519,-0.00787712835761,0.00219307483658,994.793670603,8.902601398E-4,629.3024053,411.792656288,-12420.1858436,-0.622819009947,-20193.5380449,-0.639247071702,-4.52710082754E-8,1.91776758077,2.01046721539,1780.52038789
4.2,4208582.35214,-1.64352019788E7,1.22596957755E7,2362.98283788,1463.41785622,1142.96681091,1413.42158063,1415.00519093,0.0016255693422,30012.9969798,-75.6543813788,36.0354546976,32.12711123264828,45.0320745704,-0.741630093921,-0.0064983319062,9.98263407344E-4,-0.00787712405787,0.00238178601077,994.793671291,8.90260145046E-4,629.30240988,411.792656858,-12420.1859564,-0.636062208502,-20193.5384523,-0.375987010118,-4.492176231E-8,1.90444856592,2.01046721693,1780.52040358
4.3,4208818.64993,-1.64350556352E7,1.22598100711E7,2362.97306517,1463.45477345,1142.94598036,1413.4028107,1415.02394381,0.00166945388605,30012.996815,-75.6539034997,36.0358423962,32.12711161343901,45.0328502793,-0.741631342971,-0.00664709591136,8.88097133004E-4,-0.00787712043362,0.00251285118478,994.793671999,8.90260150436E-4,629.302414586,411.792657444,-12420.1860721,-0.480567534158,-20193.5388738,0.0618892474139,-4.51582309324E-8,0.817417312368,2.01046721849,1780.52041967
4.4,4209054.94675,-1.64349092879E7,1.22599243647E7,2362.9633097,1463.49168529,1142.92513676,1413.38402435,1415.0427127,0.001713241223,30012.9966459,-75.6534256119,36.0362300896,32.12711199421567,45.0336331402,-0.741632588158,-0.00679344642394,0.00103916521623,-0.00787711660067,0.00251985351945,994.793672726,8.9026015597E-4,629.302419417,411.792658046,-12420.1861907,-0.266137558833,-20193.5393082,0.405801366408,-4.59040165879E-8,-0.589636683117,2.01046722008,1780.52043615
4.5,4209291.2426,-1.64347629369E7,1.22600386561E7,2362.95357121,1463.52859182,1142.90428028,1413.36522179,1415.06149736,0.00175692916912,30012.9964724,-75.6529477154,36.0366177778,32.12711237509766,45.0344106946,-0.741633830936,-0.00691610978073,0.00133169025636,-0.00787711185336,0.00241477359275,994.793673471,8.90260161647E-4,629.302424372,411.792658663,-12420.1863122,-0.120623251464,-20193.5397537,0.47618500834,-4.595858627E-8,-1.48639990372,2.0104672217,1780.52045304
4.6,4209527.53747,-1.64346165822E7,1.22601529455E7,2362.9438371,1463.56549667,1142.88342008,1413.34641435,1415.08028649,0.00180051788038,30012.9962945,-75.6524698102,36.0370054609,32.127112755889186,45.0351750549,-0.741635072348,-0.00700992620202,0.0015830529185,-0.00787710619963,0.00227064440318,994.793674235,8.90260167467E-4,629.302429453,411.792659295,-12420.1864366,-0.11597620275,-20193.5402075,0.270821121078,-4.58530848846E-8,-1.44066878504,2.01046722335,1780.52047032
4.7,4209763.83136,-1.64344702238E7,1.22602672328E7,2362.93409113,1463.60240454,1142.86256794,1413.32761659,1415.09906553,0.00184400886724,30012.9961123,-75.6519918963,36.0373931387,32.12711313670766,45.0359266942,-0.741636312468,-0.00708654723825,0.00165844967675,-0.00787710018874,0.00217241970649,994.793675017,8.90260173428E-4,629.302434657,411.792659943,-12420.1865638,-0.235602008431,-20193.540666,-0.0580039457261,-4.58130671177E-8,-0.605990105564,2.01046722501,1780.520488
4.8,4210000.12428,-1.64343238617E7,1.2260381518E7,2362.924323,1463.63931842,1142.84173135,1413.30883778,1415.11782525,0.00188740343538,30012.9959257,-75.6515139738,36.0377808114,32.12711351757081,45.0366730469,-0.741637550471,-0.00716563724733,0.00153978524229,-0.00787709440949,0.00216784734587,994.793675819,8.90260179532E-4,629.302439986,411.792660607,-12420.1866937,-0.395663444454,-20193.5411269,-0.309639837495,-4.5354681788E-8,0.443741869145,2.01046722671,1780.52050608
4.9,4210236.41623,-1.64341774959E7,1.22604958012E7,2362.91453332,1463.67623813,1142.82090987,1413.29007736,1415.13656618,0.00193070144962,30012.9957348,-75.6510360426,36.0381684789,32.12711389848067,45.0374234059,-0.741638785206,-0.00726278864176,0.00131994461848,-0.00787708921165,0.00224581961207,994.793676639,8.90260185778E-4,629.302445438,411.792661285,-12420.1868263,-0.501094653892,-20193.5415902,-0.353847395786,-4.49690560345E-8,1.09229657301,2.01046722843,1780.52052455
5.0,4210472.70719,-1.64340311264E7,1.22606100822E7,2362.90473176,1463.71316086,1142.80009647,1413.27132665,1415.15529701,0.00197390111498,30012.9955396,-75.6505581027,36.0385561412,32.127114279356825,45.0381834732,-0.741640015883,-0.00738135518482,0.00113578030166,-0.00787708463261,0.0023505766206,994.793677477,8.90260192166E-4,629.302451014,411.79266198,-12420.1869616,-0.500288746806,-20193.5420576,-0.194070478382,-4.50199877378E-8,1.03146547214,2.01046723017,1780.52054342
5.1,4210708.99717,-1.64338847533E7,1.22607243612E7,2362.89493045,1463.75008311,1142.77928234,1413.25257477,1415.1740286,0.00201699986167,30012.99534,-75.6500801541,36.0389437984,32.12711466019927,45.0389526594,-0.741641242478,-0.007512238325,0.0010856112251,-0.00787708037595,0.00241895156285,994.793678334,8.90260198694E-4,629.302456713,411.792662689,-12420.1870996,-0.408056434883,-20193.5425296,0.0526420675352,-4.49726940133E-8,0.391594300361,2.01046723194,1780.52056267
5.2,4210945.28618,-1.64337383764E7,1.22608386381E7,2362.88513682,1463.78700273,1142.7584621,1413.23381503,1415.19276762,0.00205999562274,30012.9951362,-75.6496021969,36.0393314504,32.12711504108646,45.0397252671,-0.741642465665,-0.00764066615159,0.00117947292531,-0.00787707595814,0.00241670072619,994.79367921,8.90260205364E-4,629.302462536,411.792663414,-12420.1872404,-0.288325039708,-20193.5430064,0.236518556636,-4.5223714551E-8,-0.390858247511,2.01046723373,1780.52058232
5.3,4211181.5742,-1.64335919959E7,1.22609529129E7,2362.87535012,1463.82391994,1142.73763628,1413.21504811,1415.21151341,0.00210288769085,30012.994928,-75.649124231,36.0397190972,32.12711542193998,45.0404943709,-0.74164368636,-0.00775522453718,0.00134549301112,-0.00787707103921,0.00235372600955,994.793680104,8.90260212174E-4,629.302468481,411.792664154,-12420.1873839,-0.211719628596,-20193.543487,0.263263359335,-4.54419932794E-8,-0.858963373215,2.01046723554,1780.52060236
5.4,4211417.86125,-1.64334456116E7,1.22610671856E7,2362.86556294,1463.86083687,1142.71681027,1413.19628066,1415.23025932,0.002145676743,30012.9947156,-75.6486462564,36.0401067389,32.127115802896974,45.0412558569,-0.741644905176,-0.0078537842403,0.00148120565825,-0.00787706564125,0.00227254325057,994.793681016,8.90260219124E-4,629.302474548,411.79266491,-12420.1875301,-0.215158465016,-20193.54397,0.139256284019,-4.54529072158E-8,-0.793626375517,2.01046723739,1780.52062278
5.5,4211654.14731,-1.64332992237E7,1.22611814562E7,2362.85576624,1463.89775613,1142.69599062,1413.1775208,1415.24899723,0.00218836413671,30012.9944989,-75.6481682731,36.0404943753,32.12711618384206,45.0420103417,-0.741646122104,-0.00794343088329,0.00151500688642,-0.00787706005957,0.00222007794806,994.793681947,8.90260226214E-4,629.302480737,411.79266568,-12420.187679,-0.285784382107,-20193.5444539,-0.0456853708262,-4.56602720078E-8,-0.303814921433,2.01046723925,1780.5206436
5.6,4211890.4324,-1.64331528321E7,1.22612957248E7,2362.84595467,1463.9346793,1142.67518123,1413.15877334,1415.26772236,0.00223095093395,30012.9942779,-75.6476902812,36.0408820067,32.1271165647318,45.0427621851,-0.741647336592,-0.0080352512835,0.00144200650848,-0.00787705462517,0.0022208247223,994.793682896,8.90260233443E-4,629.302487048,411.792666466,-12420.1878305,-0.374913549372,-20193.5449376,-0.179864187563,-4.50891093351E-8,0.278924016061,2.01046724114,1780.5206648
5.7,4212126.7165,-1.64330064368E7,1.22614099913E7,2362.83612902,1463.97160612,1142.65438153,1413.14003757,1415.28643539,0.00227343720042,30012.9940527,-75.6472122806,36.0412696328,32.127116945666366,45.0435165439,-0.741648547919,-0.0081375901656,0.00131770409787,-0.00787704953586,0.00226619516004,994.793683863,8.90260240812E-4,629.302493481,411.792667267,-12420.1879846,-0.430125269109,-20193.5454216,-0.19513728377,-4.5129127102E-8,0.616095476573,2.01046724305,1780.52068638
5.8,4212362.99962,-1.64328600378E7,1.22615242557E7,2362.82629496,1464.00853497,1142.63358739,1413.1213084,1415.30514143,0.00231582198194,30012.9938232,-75.6467342714,36.0416572538,32.127117326643734,45.0442763799,-0.741649755626,-0.00825175595029,0.00121875237802,-0.00787704478979,0.00232381282475,994.793684849,8.9026024832E-4,629.302500035,411.792668083,-12420.1881413,-0.425084196685,-20193.5459066,-0.0991092608361,-4.48962964583E-8,0.552493788651,2.01046724498,1780.52070835
5.9,4212599.28176,-1.64327136351E7,1.2261638518E7,2362.81645921,1464.04546388,1142.61279393,1413.10257978,1415.32384651,0.00235810389688,30012.9935895,-75.6462562535,36.0420448696,32.127117707587544,45.0450411016,-0.741650959744,-0.0083722444887,0.00119721904693,-0.00787704019774,0.00235884893132,994.793685853,8.90260255966E-4,629.302506709,411.792668914,-12420.1883007,-0.370725648045,-20193.5463934,0.0394058264133,-4.52855601907E-8,0.178109078746,2.01046724694,1780.5207307
6.0,4212835.56292,-1.64325672287E7,1.22617527782E7,2362.80662565,1464.08239176,1142.59199834,1413.08384823,1415.3425541,0.00240028191513,30012.9933516,-75.6457782269,36.0424324803,32.12711808857421,45.0458073775,-0.741652160722,-0.00849074215615,0.00125480764885,-0.007877035496,0.00235383236368,994.793686875,8.9026026375E-4,629.302513505,411.79266976,-12420.1884627,-0.304079531532,-20193.5468821,0.137178137462,-4.51218511444E-8,-0.255491115138,2.01046724892,1780.52075344
6.1,4213071.84309,-1.64324208186E7,1.22618670364E7,2362.79679352,1464.1193188,1142.57120117,1413.06511445,1415.3612635,0.00244235586024,30012.9931095,-75.6453001917,36.0428200857,32.12711846952732,45.0465713715,-0.741653359129,-0.00860115650708,0.0013487436123,-0.0078770305168,0.00231606299711,994.793687915,8.90260271672E-4,629.30252042,411.792670621,-12420.1886273,-0.26401915223,-20193.5473721,0.145063455973,-4.52091626357E-8,-0.497783747923,2.01046725092,1780.52077655
6.2,4213308.12227,-1.64322744048E7,1.22619812925E7,2362.78695847,1464.15624627,1142.55040557,1413.04638233,1415.37997084,0.00248432636943,30012.9928632,-75.6448221478,36.0432076861,32.12711885050361,45.0473309562,-0.741654555318,-0.00870272170985,0.00142173419676,-0.0078770252827,0.00227016591737,994.793688973,8.90260279731E-4,629.302527456,411.792671497,-12420.1887946,-0.269272094038,-20193.5478628,0.0708574079213,-4.50309016742E-8,-0.439246470997,2.01046725295,1780.52080004
6.3,4213544.40048,-1.64321279873E7,1.22620955465E7,2362.77711551,1464.19317562,1142.52961518,1413.02765635,1415.39867163,0.00252619441983,30012.9926126,-75.6443440952,36.0435952812,32.12711923152279,45.048086671,-0.74165574925,-0.00879970354974,0.00143597920973,-0.00787701995806,0.00224196802414,994.793690049,8.90260287928E-4,629.302534611,411.792672388,-12420.1889644,-0.310682829228,-20193.5483534,-0.0327956053094,-4.50418156106E-8,-0.153459159693,2.01046725499,1780.52082391
6.4,4213780.6777,-1.64319815662E7,1.22622097984E7,2362.76726187,1464.23010765,1142.508832,1413.00893901,1415.41736339,0.00256796072949,30012.9923579,-75.643866034,36.0439828712,32.127119612449775,45.0488410582,-0.741656940562,-0.00889833069721,0.00139166291298,-0.00787701472771,0.00224389186998,994.793691143,8.90260296261E-4,629.302541886,411.792673293,-12420.1891368,-0.360118799705,-20193.5488435,-0.10393210892,-4.50272636954E-8,0.168906111263,2.01046725706,1780.52084816
6.5,4214016.95393,-1.64318351413E7,1.22623240482E7,2362.75739823,1464.26704215,1142.48805553,1412.99022969,1415.43604673,0.00260962536584,30012.992099,-75.6433879642,36.0443704561,32.12711999347839,45.0495969695,-0.741658128814,-0.0090030449746,0.00132169326011,-0.00787700969848,0.00226982880339,994.793692255,8.90260304731E-4,629.30254928,411.792674214,-12420.1893117,-0.388779561101,-20193.5493333,-0.107186289723,-4.49108483735E-8,0.342612469086,2.01046725916,1780.52087279
6.6,4214253.22918,-1.64316887128E7,1.2262438296E7,2362.74752792,1464.30397817,1142.46728337,1412.9715254,1415.45472462,0.0026511877852,30012.991836,-75.6429098857,36.0447580358,32.127120374530236,45.050355929,-0.741659313744,-0.0091142600258,0.00126885565359,-0.00787700485743,0.00230107132176,994.793693385,8.90260313337E-4,629.302556793,411.792675149,-12420.1894892,-0.38339331891,-20193.5498234,-0.0499557810283,-4.49908839073E-8,0.290708791536,2.01046726127,1780.52089779
6.7,4214489.50344,-1.64315422805E7,1.22625525417E7,2362.73765464,1464.34091463,1142.44651281,1412.95282282,1415.47340041,0.00269264722033,30012.9915688,-75.6424317985,36.0451456103,32.12712075556432,45.0511174616,-0.741660495396,-0.00922867697115,0.00126054519182,-0.00787700008978,0.00231848545574,994.793694532,8.90260322079E-4,629.302564424,411.792676099,-12420.1896693,-0.351530249312,-20193.5503142,0.0275418976966,-4.54019755125E-8,0.0728588794704,2.0104672634,1780.52092316
6.8,4214725.77671,-1.64313958446E7,1.22626667853E7,2362.72778041,1464.37785095,1142.42574241,1412.93412014,1415.49207588,0.00273400315518,30012.9912975,-75.6419537027,36.0455331797,32.127121136623686,45.0518796298,-0.741661674065,-0.0093416333266,0.00129553649677,-0.00787699525183,0.00231326881576,994.793695698,8.90260330956E-4,629.302572174,411.792677064,-12420.1898519,-0.314539064156,-20193.5508058,0.0792163113913,-4.51218511444E-8,-0.166574104888,2.01046726556,1780.5209489
6.9,4214962.04899,-1.64312494049E7,1.22627810268E7,2362.71790459,1464.41478731,1142.40497262,1412.91541792,1415.51075048,0.00277525560205,30012.991022,-75.6414755982,36.0459207439,32.127121517665316,45.052640316,-0.741662850099,-0.00944989553253,0.00134855520373,-0.00787699025981,0.0022904702097,994.793696881,8.90260339969E-4,629.302580042,411.792678044,-12420.190037,-0.29373741899,-20193.5512979,0.0796763582379,-4.52491804026E-8,-0.290759625152,2.01046726774,1780.52097502
7.0,4215198.32029,-1.64311029616E7,1.22628952663E7,2362.70802467,1464.45172445,1142.38420526,1412.89671842,1415.52942194,0.00281640505375,30012.9907424,-75.6409974851,36.046308303,32.12712189865182,45.0533984313,-0.741664023697,-0.00955327321296,0.0013876774391,-0.00787698513235,0.00226428545195,994.793698082,8.90260349116E-4,629.302588027,411.792679038,-12420.1902247,-0.298494824733,-20193.5517901,0.0356188765924,-4.51327650808E-8,-0.245895620526,2.01046726993,1780.52100151
7.1,4215434.5906,-1.64309565146E7,1.22630095037E7,2362.69813788,1464.48866315,1142.36344233,1412.87802413,1415.5480878,0.00285745216718,30012.9904587,-75.6405193633,36.0466958569,32.12712227981848,45.0541543843,-0.741665194816,-0.00965431242659,0.00139308526085,-0.00787697996248,0.00224887672316,994.7936993,8.90260358398E-4,629.302596129,411.792680047,-12420.1904149,-0.322615389572,-20193.552282,-0.0222734385023,-4.49945218861E-8,-0.0800217809955,2.01046727215,1780.52102836
7.2,4215670.85992,-1.64308100639E7,1.2263123739E7,2362.68824282,1464.52560383,1142.34268487,1412.85933632,1415.56674677,0.00289839740219,30012.9901709,-75.6400412329,36.0470834057,32.12712266088903,45.0549096501,-0.741666363225,-0.00975650029538,0.00136650548657,-0.00787697485272,0.00225045733199,994.793700536,8.90260367814E-4,629.302604349,411.79268107,-12420.1906076,-0.349916246281,-20193.5527735,-0.0597473957845,-4.51436790172E-8,0.0976738881273,2.01046727439,1780.52105558
7.3,4215907.12825,-1.64306636095E7,1.22632379722E7,2362.67834001,1464.56254634,1142.3219325,1412.8406545,1415.58539935,0.00293924080495,30012.9898791,-75.6395630938,36.0474709493,32.12712304192421,45.0556657998,-0.741667528654,-0.00986218715352,0.00132731856352,-0.00787696985906,0.00226489643262,994.79370179,8.90260377363E-4,629.302612686,411.792682108,-12420.1908028,-0.364633452337,-20193.5532647,-0.0586192730957,-4.52164385933E-8,0.186218447166,2.01046727665,1780.52108317
7.4,4216143.39558,-1.64305171514E7,1.22633522034E7,2362.66843136,1464.59949012,1142.30118382,1412.82197697,1415.60404724,0.00297998206543,30012.9895831,-75.6390849461,36.0478584877,32.127123422980745,45.0564236093,-0.741668690959,-0.00997142655503,0.00129932349399,-0.0078769649681,0.00228143366654,994.793703061,8.90260387046E-4,629.302621139,411.79268316,-12420.1910005,-0.360180652952,-20193.553756,-0.0247615659602,-4.51946107205E-8,0.148204849563,2.01046727893,1780.52111113
7.5,4216379.66193,-1.64303706896E7,1.22634664324E7,2362.65851894,1464.63643457,1142.28043733,1412.80330187,1415.62269228,0.00302062075912,30012.9892831,-75.6386067898,36.0482460211,32.127123804156746,45.0571827336,-0.741669850183,-0.0100822572009,0.00129682893104,-0.00787696011205,0.00228959678248,994.79370435,8.90260396863E-4,629.302629708,411.792684227,-12420.1912006,-0.341586136949,-20193.5542475,0.0184475187175,-4.47871570941E-8,0.0220794901141,2.01046728123,1780.52113945
7.6,4216615.92729,-1.64302242241E7,1.22635806595E7,2362.64860376,1464.67337941,1142.25969231,1412.78462828,1415.6413354,0.00306115663977,30012.988979,-75.6381286248,36.0486335492,32.12712418521903,45.0579420514,-0.741671006516,-0.0101920733353,0.00131794011069,-0.00787695521268,0.00228501883045,994.793705656,8.90260406812E-4,629.302638393,411.792685309,-12420.1914033,-0.321103811935,-20193.5547394,0.0455746862129,-4.47871570941E-8,-0.109657629766,2.01046728355,1780.52116813
7.7,4216852.19165,-1.64300777549E7,1.22636948844E7,2362.63868536,1464.71032475,1142.23894907,1412.76595662,1415.65997618,0.00310158979096,30012.9886708,-75.6376504512,36.0490210723,32.1271245663791,45.0587003981,-0.741672160166,-0.0102991694576,0.00134781862684,-0.00787695022806,0.00227105124865,994.793706979,8.90260416893E-4,629.302647194,411.792686404,-12420.1916084,-0.310379416489,-20193.5552315,0.0436334675282,-4.53946995549E-8,-0.172570553339,2.01046728589,1780.52119718
7.8,4217088.45502,-1.6429931282E7,1.22638091072E7,2362.6287623,1464.74727103,1142.21820867,1412.7472882,1415.67861332,0.0031419205651,30012.9883587,-75.6371722689,36.0494085901,32.12712494750389,45.0594572229,-0.741673311247,-0.0104035718419,0.00136873795038,-0.00787694517205,0.00225584162318,994.79370832,8.90260427107E-4,629.30265611,411.792687514,-12420.191816,-0.31402054476,-20193.5557235,0.0176564488393,-4.50927473139E-8,-0.140818632159,2.01046728825,1780.52122658
7.9,4217324.7174,-1.64297848054E7,1.2263923328E7,2362.61883305,1464.78421869,1142.19747222,1412.72862436,1415.69724546,0.00318214939955,30012.9880425,-75.636694078,36.0497961029,32.12712532861108,45.0602128131,-0.741674459721,-0.0105067887029,0.00137038866209,-0.00787694009771,0.00224712613164,994.793709678,8.90260437452E-4,629.302665141,411.792688639,-12420.1920261,-0.327975651533,-20193.5562152,-0.0145657792808,-4.51327650808E-8,-0.0450086791385,2.01046729063,1780.52125635
8.0,4217560.97879,-1.64296383252E7,1.22640375467E7,2362.60889689,1464.82116792,1142.17674024,1412.70996577,1415.71587196,0.00322227658739,30012.9877222,-75.6362158785,36.0501836105,32.127125709798435,45.0609680204,-0.741675605439,-0.0106107655506,0.0013546365766,-0.00787693506151,0.00224795916366,994.793711054,8.90260447929E-4,629.302674287,411.792689777,-12420.1922386,-0.342975548433,-20193.5567067,-0.0341658630625,-4.52564563602E-8,0.0525857656142,2.01046729303,1780.52128647
8.1,4217797.23918,-1.64294918412E7,1.22641517634E7,2362.59895421,1464.85811862,1142.15601245,1412.69131208,1415.73449315,0.00326230216513,30012.987398,-75.6357376703,36.0505711129,32.12712609096621,45.0617237072,-0.741676748244,-0.0107167378475,0.00133282612255,-0.00787693009217,0.00225564095506,994.793712446,8.90260458537E-4,629.302683548,411.79269093,-12420.1924535,-0.350425417731,-20193.5571979,-0.031896936986,-4.53001121059E-8,0.0971490488529,2.01046729544,1780.52131695
8.2,4218033.49858,-1.64293453536E7,1.22642659779E7,2362.58900611,1464.89507047,1142.13528805,1412.6726623,1415.75311002,0.0033022259654,30012.9870698,-75.6352594535,36.0509586102,32.12712647215547,45.0624802635,-0.741677888055,-0.0108246365313,0.00131814923223,-0.00787692517899,0.00226400868372,994.793713856,8.90260469275E-4,629.302692922,411.792692098,-12420.1926708,-0.347119655222,-20193.5576891,-0.0119973567743,-4.51873347629E-8,0.070964861444,2.01046729788,1780.52134779
8.3,4218269.75698,-1.64291988622E7,1.22643801904E7,2362.57905371,1464.93202314,1142.11456622,1412.65401542,1415.77172359,0.00334204776686,30012.9867376,-75.634781228,36.0513461024,32.12712685324878,45.0632374528,-0.741679024909,-0.0109333037792,0.00131801725597,-0.00787692028256,0.00226735308817,994.793715283,8.90260480145E-4,629.302702411,411.792693279,-12420.1928906,-0.336302742638,-20193.5581804,0.0120105709468,-4.48817445431E-8,-0.00171393148379,2.01046730033,1780.52137898
8.4,4218506.01439,-1.64290523671E7,1.22644944009E7,2362.56909753,1464.96897649,1142.09384659,1412.63537096,1415.79033432,0.0033817674688,30012.9864014,-75.634302994,36.0517335894,32.127127234500726,45.0639946293,-0.741680158925,-0.0110412883325,0.00133070128655,-0.00787691536033,0.00226354962691,994.793716727,8.90260491144E-4,629.302712013,411.792694474,-12420.1931128,-0.324979034747,-20193.5586718,0.0261431883103,-4.51109372079E-8,-0.0739268272309,2.0104673028,1780.52141053
8.5,4218742.2708,-1.64289058684E7,1.22646086092E7,2362.55913727,1465.00593061,1142.07312939,1412.61672922,1415.80894192,0.00342138516987,30012.9860612,-75.6338247513,36.0521210713,32.12712761565474,45.0647511549,-0.741681290231,-0.0111476969247,0.0013475401128,-0.00787691039141,0.00225475981787,994.793718188,8.90260502273E-4,629.302721728,411.792695684,-12420.1933374,-0.319485234652,-20193.5591633,0.0238381017468,-4.5336491894E-8,-0.10535039551,2.01046730529,1780.52144243
8.6,4218978.52622,-1.6428759366E7,1.22647228155E7,2362.54917208,1465.04288573,1142.05241521,1412.59809094,1415.82754566,0.00346090112635,30012.9857171,-75.6333464999,36.052508548,32.1271279968283,45.0655067549,-0.741682418886,-0.0112526180567,0.00135872506541,-0.00787690538552,0.00224564048647,994.793719666,8.90260513532E-4,629.302731557,411.792696908,-12420.1935645,-0.322037424289,-20193.5596546,0.00861632415363,-4.48017090093E-8,-0.0839468307515,2.0104673078,1780.52147468
8.7,4219214.78064,-1.64286128598E7,1.22648370197E7,2362.53920113,1465.07984209,1142.03170466,1412.57945687,1415.84614478,0.00350031563028,30012.985369,-75.63286824,36.0528960196,32.12712837804309,45.0662616222,-0.741683544862,-0.0113569392029,0.00135894105067,-0.00787690037294,0.00224040073962,994.793721161,8.90260524919E-4,629.302741498,411.792698145,-12420.1937939,-0.330051302045,-20193.5601458,-0.00925593235052,-4.52128006145E-8,-0.0288549879763,2.01046731033,1780.52150728
8.8,4219451.03406,-1.642846635E7,1.22649512218E7,2362.52922406,1465.11679981,1142.01099801,1412.56082733,1415.86473895,0.00353962887561,30012.985017,-75.6323899714,36.0532834861,32.127128759297115,45.0670162463,-0.741684668068,-0.0114617420347,0.00134972870972,-0.00787689538458,0.00224050893241,994.793722673,8.90260536436E-4,629.302751551,411.792699397,-12420.1940257,-0.338239200471,-20193.5606367,-0.0194242453551,-4.52746462543E-8,0.0245458051875,2.01046731287,1780.52154024
8.9,4219687.28648,-1.64283198365E7,1.22650654219E7,2362.51924113,1465.1537588,1141.99029507,1412.5422021,1415.88332842,0.00357884090226,30012.9846611,-75.6319116942,36.0536709474,32.127129140512004,45.067771099,-0.741685788409,-0.0115676711646,0.00133769195048,-0.00787689043493,0.00224424368456,994.793724202,8.90260548081E-4,629.302761717,411.792700663,-12420.1942598,-0.341934146125,-20193.5611275,-0.0172483866993,-4.51946107205E-8,0.0466258814573,2.01046731544,1780.52157354
9.0,4219923.53791,-1.64281733192E7,1.22651796199E7,2362.50925298,1465.19071889,1141.96959538,1412.5235806,1415.90191375,0.00361795162894,30012.9843013,-75.6314334083,36.0540584037,32.127129521746475,45.068526373,-0.741686905845,-0.0116746330172,0.00133011737988,-0.00787688551631,0.00224808963262,994.793725747,8.90260559854E-4,629.302771994,411.792701942,-12420.1944963,-0.339615452647,-20193.5616182,-0.00562133657955,-4.53619577456E-8,0.0292940765092,2.01046731802,1780.52160718
9.1,4220159.78833,-1.64280267983E7,1.22652938158E7,2362.49926022,1465.22767989,1141.94889848,1412.50496227,1415.9204955,0.00365696095548,30012.9839375,-75.6309551139,36.0544458547,32.12712990294386,45.0692819123,-0.741688020401,-0.0117819484018,0.00133080676989,-0.00787688060603,0.00224894689575,994.79372731,8.90260571755E-4,629.302782384,411.792703236,-12420.1947352,-0.3333319054,-20193.562109,0.00767142933041,-4.49363142252E-8,-0.0124021072529,2.01046732061,1780.52164118
9.2,4220396.03776,-1.64278802737E7,1.22654080097E7,2362.4892631,1465.26464172,1141.92820419,1412.4863469,1415.93907388,0.00369586885915,30012.9835699,-75.6304768108,36.0548333007,32.12713028423724,45.0700373467,-0.741689132155,-0.0118888118558,0.00133842421026,-0.007876875681,0.00224580818192,994.793728889,8.90260583783E-4,629.302792884,411.792704543,-12420.1949765,-0.327071352639,-20193.5625997,0.0149700827112,-4.50454535894E-8,-0.0518332943567,2.01046732323,1780.52167552
9.3,4220632.28619,-1.64277337454E7,1.22655222014E7,2362.47926143,1465.30160446,1141.90751267,1412.46773465,1415.95764873,0.00373467544182,30012.9831984,-75.6299984991,36.0552207415,32.127130665432816,45.0707923278,-0.74169024118,-0.011994759231,0.00134794080013,-0.00787687073095,0.00224003794556,994.793730484,8.90260595939E-4,629.302803495,411.792705864,-12420.1952201,-0.324267317263,-20193.5630905,0.013006925539,-4.52164385933E-8,-0.0672526142318,2.01046732586,1780.5217102
9.4,4220868.53361,-1.64275872134E7,1.22656363912E7,2362.46925472,1465.33856823,1141.88682425,1412.44912596,1415.97621961,0.00377338089174,30012.982823,-75.6295201788,36.0556081772,32.12713104672644,45.0715467212,-0.741691347511,-0.0120998809175,0.00135394837407,-0.00787686576236,0.00223428730664,994.793732097,8.90260608221E-4,629.302814217,411.792707199,-12420.195466,-0.32595416218,-20193.5635811,0.0041373770529,-4.54892870039E-8,-0.0532940727548,2.01046732851,1780.52174523
9.5,4221104.78004,-1.64274406777E7,1.22657505788E7,2362.45924252,1465.37553317,1141.86613927,1412.43052124,1415.99478611,0.0038119854089,30012.9824437,-75.6290418499,36.0559956077,32.12713142803974,45.0723006523,-0.741692451126,-0.012204696005,0.00135373536851,-0.00787686079251,0.00223083677467,994.793733726,8.9026062063E-4,629.30282505,411.792708548,-12420.1957143,-0.330514421755,-20193.5640716,-0.00574076604154,-4.52710082754E-8,-0.0217490560618,2.01046733117,1780.52178059
9.6,4221341.02546,-1.64272941383E7,1.22658647644E7,2362.44922466,1465.41249932,1141.84545786,1412.41192065,1416.01334808,0.00385048913392,30012.9820606,-75.6285635123,36.0563830331,32.12713180933165,45.0730544013,-0.74169355197,-0.012309803793,0.00134843702988,-0.00787685583824,0.00223037126024,994.793735371,8.90260633165E-4,629.302835992,411.79270991,-12420.1959649,-0.334943403552,-20193.5645619,-0.0109665110367,-4.50309016742E-8,0.00735739267578,2.01046733385,1780.5218163
9.7,4221577.26988,-1.64271475952E7,1.22659789479E7,2362.4392013,1465.44946665,1141.82477988,1412.39332403,1416.03190566,0.00388889210899,30012.9816736,-75.6280851662,36.0567704534,32.12713219056488,45.0738082251,-0.741694649987,-0.0124155377647,0.00134187822059,-0.00787685090669,0.00223181371591,994.793737033,8.90260645825E-4,629.302847045,411.792711286,-12420.1962178,-0.33671784408,-20193.5650521,-0.00924926874558,-4.50272636954E-8,0.0180830321921,2.01046733655,1780.52185235
9.8,4221813.5133,-1.64270010484E7,1.22660931293E7,2362.4291728,1465.48643504,1141.80410509,1412.37473106,1416.05045919,0.00392719431181,30012.9812828,-75.6276068114,36.0571578686,32.12713257191587,45.0745622172,-0.741695745157,-0.0125218151978,0.00133806926008,-0.00787684599268,0.00223316669292,994.793738712,8.90260658612E-4,629.302858207,411.792712676,-12420.196473,-0.335141603514,-20193.5655422,-0.00249215166073,-4.52710082754E-8,0.00692929870599,2.01046733926,1780.52188873
9.9,4222049.75572,-1.64268544979E7,1.22662073087E7,2362.41913951,1465.52340439,1141.78343323,1412.35614143,1416.06900897,0.00396539571182,30012.9808882,-75.627128448,36.0575452787,32.12713295320419,45.0753162774,-0.741696837501,-0.0126282399459,0.00133893808267,-0.00787684108326,0.00223275433567,994.793740407,8.90260671523E-4,629.302869478,411.792714079,-12420.1967305,-0.331486866176,-20193.5660323,0.00484173161813,-4.5241904445E-8,-0.0168918867929,2.01046734199,1780.52192546
10.0,4222285.99713,-1.64267079437E7,1.2266321486E7,2362.40910154,1465.56037468,1141.76276421,1412.33755504,1416.0875551,0.00400349633321,30012.9804897,-75.626650076,36.0579326836,32.12713333453393,45.0760701944,-0.741697927065,-0.0127343665387,0.0013435348502,-0.00787683616594,0.0022301158901,994.793742118,8.90260684559E-4,629.302880858,411.792715496,-12420.1969903,-0.32801543832,-20193.5665224,0.00857275433772,-4.51072992291E-8,-0.0383355199578,2.01046734473,1780.52196252
10.1,4222522.23754,-1.64265613858E7,1.22664356613E7,2362.39905878,1465.59734593,1141.74209813,1412.318972,1416.10609747,0.00404149626684,30012.9800875,-75.6261716954,36.0583200834,32.127133715820676,45.0768237787,-0.741699013893,-0.0128399560037,0.00134895388091,-0.00787683123572,0.00222609837509,994.793743846,8.9026069772E-4,629.302892347,411.792716926,-12420.1972524,-0.326579518909,-20193.5670124,0.00710362174169,-4.51618689112E-8,-0.0457290663508,2.01046734749,1780.52199991
10.2,4222758.47694,-1.64264148242E7,1.22665498345E7,2362.38901094,1465.63431823,1141.72143519,1412.30039255,1416.12463584,0.00407939565798,30012.9796814,-75.6256933062,36.0587074781,32.12713409720358,45.077576966,-0.741700098005,-0.012945081473,0.00135222414679,-0.00787682629683,0.00222220533419,994.79374559,8.90260711005E-4,629.302903944,411.79271837,-12420.1975168,-0.327641527032,-20193.5675023,0.0019619713394,-4.51254891232E-8,-0.0368420728071,2.01046735027,1780.52203764
10.3,4222994.71534,-1.6426268259E7,1.22666640056E7,2362.37895777,1465.67129165,1141.70077555,1412.28181692,1416.14316998,0.00411719465524,30012.9792716,-75.6252149084,36.0590948676,32.12713447854755,45.0783298361,-0.741701179385,-0.0130500449148,0.00135197961178,-0.00787682135908,0.00221966687407,994.79374735,8.90260724413E-4,629.302915649,411.792719827,-12420.1977834,-0.330204218268,-20193.567992,-0.00347823536009,-4.51582309324E-8,-0.0188513923961,2.01046735306,1780.5220757
10.4,4223230.95273,-1.642612169E7,1.22667781746E7,2362.36889921,1465.7082662,1141.68011929,1412.26324518,1416.16169983,0.00415489336399,30012.978858,-75.624736502,36.0594822521,32.12713485992898,45.0790825487,-0.741702258,-0.0131551772006,0.00134900521617,-0.00787681643161,0.00221878888974,994.793749127,8.90260737945E-4,629.302927462,411.792721298,-12420.1980523,-0.332566566671,-20193.5684817,-0.00613421147031,-4.55038389191E-8,-0.00305035514931,2.01046735586,1780.52211409
10.5,4223467.18912,-1.64259751173E7,1.22668923416E7,2362.35883534,1465.74524187,1141.65946633,1412.24467723,1416.18022547,0.00419249183562,30012.9784406,-75.6242580869,36.0598696314,32.12713524124782,45.0798352431,-0.741703333819,-0.0132606491573,0.00134550584979,-0.00787681151785,0.00221890749519,994.793750919,8.90260751601E-4,629.302939383,411.792722782,-12420.1983235,-0.333370579089,-20193.5689712,-0.00489876980282,-4.51400410384E-8,0.00202566781734,2.01046735868,1780.52215282
10.6,4223703.4245,-1.64258285409E7,1.22670065065E7,2362.34876638,1465.78221859,1141.63881651,1412.22611289,1416.19874709,0.00422999008219,30012.9780195,-75.6237796633,36.0602570056,32.12713562254541,45.0805879636,-0.741704406832,-0.0133663977764,0.00134368052009,-0.00787680661447,0.00221889196509,994.793752728,8.90260765379E-4,629.302951411,411.79272428,-12420.1985969,-0.332314137637,-20193.5694607,-9.912319193E-4,-4.51509549748E-8,-0.00500204790327,2.01046736152,1780.52219187
10.7,4223939.65887,-1.64256819609E7,1.22671206694E7,2362.33869252,1465.8191963,1141.61816971,1412.207552,1416.21726486,0.00426738811473,30012.9775946,-75.6233012311,36.0606443747,32.12713600399998,45.0813406471,-0.741705477054,-0.0134721932079,0.00134449341695,-0.00787680171407,0.00221784045127,994.793754553,8.90260779279E-4,629.302963546,411.79272579,-12420.1988725,-0.330176577591,-20193.5699501,0.00304035116432,-4.50490915682E-8,-0.0185563393007,2.01046736437,1780.52223125
10.8,4224175.89224,-1.64255353771E7,1.22672348301E7,2362.32861381,1465.85617499,1141.59752587,1412.18899449,1416.23577884,0.00430468597858,30012.977166,-75.6228227902,36.0610317386,32.12713638540964,45.0820931733,-0.741706544514,-0.0135777899604,0.00134730238505,-0.00787679680994,0.0022155532386,994.793756394,8.90260793302E-4,629.302975787,411.792727315,-12420.1991504,-0.328236022212,-20193.5704395,0.00492454462647,-4.51036612503E-8,-0.0301675246933,2.01046736723,1780.52227096
10.9,4224412.12459,-1.64253887896E7,1.22673489889E7,2362.31853018,1465.89315469,1141.57688506,1412.17044044,1416.25428894,0.00434188376335,30012.9767337,-75.6223443408,36.0614190975,32.12713676678047,45.0828454398,-0.741707609239,-0.0136830663159,0.00135043614959,-0.00787679189971,0.00221254909084,994.793758251,8.90260807447E-4,629.302988135,411.792728852,-12420.1994305,-0.327486897344,-20193.5709287,0.00389921154237,-4.54565451946E-8,-0.0336026152266,2.01046737011,1780.52231099
11.0,4224648.35594,-1.64252421985E7,1.22674631455E7,2362.30844146,1465.93013543,1141.55624739,1412.15189,1416.27279503,0.00437898158339,30012.9762976,-75.6218658828,36.0618064512,32.12713714818681,45.0835974168,-0.741708671238,-0.0137880755989,0.00135226866994,-0.00787678698605,0.0022096775874,994.793760124,8.90260821713E-4,629.303000589,411.792730402,-12420.1997128,-0.328122349491,-20193.5714179,9.32773414595E-4,-4.50854713563E-8,-0.0280472229965,2.010467373,1780.52235135
11.1,4224884.58628,-1.64250956036E7,1.22675773001E7,2362.29834752,1465.96711726,1141.53561295,1412.13334327,1416.29129699,0.00441597955387,30012.9758579,-75.6213874162,36.0621937999,32.127137529530664,45.084349154,-0.741709730502,-0.0138929925947,0.0013521223165,-0.00787678207454,0.00220759909924,994.793762013,8.90260836101E-4,629.303013149,411.792731966,-12420.1999974,-0.329535034702,-20193.571907,-0.00205233505948,-4.53619577456E-8,-0.0178252265016,2.01046737591,1780.52239204
11.2,4225120.81561,-1.6424949005E7,1.22676914526E7,2362.28824834,1466.00410018,1141.51498177,1412.1148003,1416.30979479,0.00445287776517,30012.9754144,-75.6209089409,36.0625811434,32.12713791099047,45.0851007422,-0.741710787012,-0.0139979993208,0.00135051803583,-0.00787677717008,0.00220644118636,994.793763917,8.90260850609E-4,629.303025814,411.792733543,-12420.2002841,-0.33076545434,-20193.572396,-0.00338427665835,-4.50600055046E-8,-0.00928305595417,2.01046737883,1780.52243305
11.3,4225357.04393,-1.64248024028E7,1.22678056031E7,2362.27814397,1466.04108418,1141.49435381,1412.09626102,1416.32828849,0.00448967626926,30012.9749673,-75.6204304571,36.0629684818,32.12713829238782,45.0858522567,-0.74171184075,-0.014103182264,0.00134872127716,-0.00787677227429,0.0022057996109,994.793765838,8.90260865238E-4,629.303038585,411.792735133,-12420.200573,-0.33108634547,-20193.5728849,-0.00254271307256,-4.51764208265E-8,-0.00696599551631,2.01046738176,1780.52247437
11.4,4225593.27124,-1.64246557968E7,1.22679197515E7,2362.26803453,1466.07806922,1141.47372897,1412.07772533,1416.34677819,0.00452637510455,30012.9745165,-75.6199519647,36.0633558151,32.12713867382276,45.0866037176,-0.741712891712,-0.0142084969937,0.00134793323195,-0.00787676738507,0.00220503660631,994.793767774,8.90260879987E-4,629.303051461,411.792736736,-12420.2008641,-0.330377848633,-20193.5733737,-2.93433376738E-4,-4.52455424238E-8,-0.0113209261242,2.01046738471,1780.52251602
11.5,4225829.49754,-1.64245091872E7,1.22680338979E7,2362.25792012,1466.11505527,1141.45310719,1412.05919314,1416.36526399,0.00456297430787,30012.974062,-75.6194734637,36.0637431433,32.12713905521291,45.0873550858,-0.741713939909,-0.0143138107932,0.00134862782605,-0.00787676249824,0.00220366924035,994.793769726,8.90260894856E-4,629.303064441,411.792738352,-12420.2011574,-0.329112059353,-20193.5738624,0.0019145298278,-4.50381776318E-8,-0.0190029233178,2.01046738767,1780.52255799
11.6,4226065.72282,-1.64243625738E7,1.22681480421E7,2362.24780077,1466.15204233,1141.43248845,1412.04066441,1416.3837459,0.00459947393324,30012.9736039,-75.6189949541,36.0641304664,32.1271394366974,45.0881062932,-0.741714985359,-0.0144189888725,0.00135038544161,-0.00787675761018,0.00220161845726,994.793771694,8.90260909845E-4,629.303077525,411.792739981,-12420.2014529,-0.328008642954,-20193.574351,0.0028520064114,-4.51182131656E-8,-0.0252606853583,2.01046739064,1780.52260028
11.7,4226301.9471,-1.64242159568E7,1.22682621843E7,2362.23767644,1466.1890304,1141.41187277,1412.0221392,1416.40222389,0.00463587406477,30012.9731421,-75.618516436,36.0645177843,32.127139818141146,45.0888572847,-0.741716028078,-0.0145239700354,0.00135224890691,-0.00787675271981,0.002199198447,994.793773677,8.90260924953E-4,629.303090714,411.792741623,-12420.2017506,-0.327598765343,-20193.5748396,0.00216721396165,-4.50672814623E-8,-0.0267845323255,2.01046739363,1780.52264289
11.8,4226538.17036,-1.6424069336E7,1.22683763245E7,2362.22754703,1466.22601952,1141.39126022,1412.00361759,1416.42069787,0.00467217480048,30012.9726767,-75.6180379092,36.0649050972,32.127140199598884,45.0896080471,-0.741717068072,-0.014628790916,0.00135333175966,-0.0078767478288,0.00219688754628,994.793775676,8.9026094018E-4,629.303104007,411.792743278,-12420.2020504,-0.32795364913,-20193.5753281,4.63345191919E-4,-4.52382664662E-8,-0.023361498732,2.01046739663,1780.52268581
11.9,4226774.39261,-1.64239227115E7,1.22684904626E7,2362.21741247,1466.26300971,1141.37065086,1411.98509963,1416.43916779,0.0047083762355,30012.9722077,-75.6175593739,36.065292405,32.12714058109429,45.090358611,-0.741718105334,-0.0147335522155,0.00135330437583,-0.00787674294028,0.00219503845303,994.793777691,8.90260955525E-4,629.303117403,411.792744946,-12420.2023523,-0.328707196638,-20193.5758165,-0.00116842020615,-4.5016349759E-8,-0.0175739483654,2.01046739964,1780.52272905
12.0,4227010.61384,-1.64237760834E7,1.22686045986E7,2362.20727275,1466.30000096,1141.35004469,1411.96658535,1416.45763362,0.0047444784509,30012.9717351,-75.6170808299,36.0656797076,32.1271409626037,45.0911090277,-0.741719139855,-0.0148383536962,0.00135250269283,-0.0078767380569,0.00219369804931,994.793779721,8.90260970989E-4,629.303130902,411.792746627,-12420.2026564,-0.329320101561,-20193.5763048,-0.00182538951563,-4.4958142098E-8,-0.012975893982,2.01046740267,1780.5227726
12.1,4227246.83406,-1.64236294515E7,1.22687187326E7,2362.19712791,1466.33699327,1141.32944169,1411.9480747,1416.47609542,0.00478048150478,30012.9712588,-75.6166022774,36.0660670052,32.12714134400966,45.0918593379,-0.741720171624,-0.0149432385267,0.00135164997188,-0.00787673317938,0.00219262270915,994.793781766,8.90260986571E-4,629.303144505,411.79274832,-12420.2029626,-0.329404961717,-20193.576793,-0.00127257198576,-4.51000232715E-8,-0.011973568953,2.0104674057,1780.52281646
12.2,4227483.05327,-1.6423482816E7,1.22688328645E7,2362.18697801,1466.37398661,1141.30884181,1411.92956762,1416.49455322,0.00481638544784,30012.970779,-75.6161237163,36.0664542976,32.12714172556879,45.09260955,-0.741721200641,-0.0150481768333,0.00135139974162,-0.00787672830642,0.00219145398606,994.793783827,8.9026100227E-4,629.30315821,411.792750026,-12420.203271,-0.328922295304,-20193.5772812,1.65759369088E-5,-4.49617800768E-8,-0.0146356680804,2.01046740875,1780.52286064
12.3,4227719.27146,-1.64233361767E7,1.22689469944E7,2362.17682312,1466.41098098,1141.288245,1411.91106407,1416.5130071,0.00485219032805,30012.9702955,-75.6156451466,36.066841585,32.12714210708526,45.0933596404,-0.741722226913,-0.0151530923311,0.00135197979839,-0.00787672343566,0.00218993465539,994.793785904,8.90261018087E-4,629.303172017,411.792751745,-12420.2035815,-0.328155378756,-20193.5777692,0.0012211125293,-4.51182131656E-8,-0.0189723273837,2.01046741181,1780.52290513
