time,eiPosition_ft_X,eiPosition_ft_Y,eiPosition_ft_Z,gePosition_ft_X,gePosition_ft_Y,gePosition_ft_Z,eiVelocity_ft_s_X,eiVelocity_ft_s_Y,eiVelocity_ft_s_Z,feVelocity_ft_s_X,feVelocity_ft_s_Y,feVelocity_ft_s_Z,altitudeMsl_ft,longitude_deg,latitude_deg,localGravity_ft_s2,eulerAngle_deg_Yaw,eulerAngle_deg_Pitch,eulerAngle_deg_Roll,bodyAngularRateWrtEi_deg_s_Roll,bodyAngularRateWrtEi_deg_s_Pitch,bodyAngularRateWrtEi_deg_s_Yaw,altitudeRateWrtMsl_ft_min,speedOfSound_ft_s,airDensity_slug_ft3,ambientPressure_lbf_ft2,ambientTemperature_dgR,aero_bodyForce_lbf_X,aero_bodyForce_lbf_Y,aero_bodyForce_lbf_Z,aero_bodyMoment_ftlbf_L,aero_bodyMoment_ftlbf_M,aero_bodyMoment_ftlbf_N,mach,dynamicPressure_lbf_ft2,trueAirspeed_nmi_h,feVelocity_ft_s_Z
0.0,2.0955646325459316E7,0.0,0.0,2.0955646325459316E7,0.0,0.0,0.0,1528.1098290457676,0.0,0.0,0.0,0.0,30000.0,0.0,0.0,32.10653595191867,0.0,-0.0,0.0,10.0,20.0,30.000000000000004,-0.0,994.8487845641213,8.906867503799385E-4,629.6672472120785,411.8388730822483,0.0,0.0,0.0,0.0,0.0,0.0,0.0,0.0,0.0,0.0
0.009999999776482582,2.0955646323853992E7,15.281098290120537,9.829791621508364E-20,2.095564632385957E7,8.307718957212273E-10,9.829791621508367E-20,-0.32106535953408705,1528.109828933388,1.9659583243525802E-17,6.823213086095925E-20,2.3799429983586967E-7,0.31995104427342,29999.998400252312,2.2714509792386132E-15,2.687607744000889E-25,32.10653595682861,0.30007075566837615,0.19996103977339175,0.10020991689763531,9.945580286980796,20.044552001084824,29.97908839613406,-19.1970626564052,994.8487914348613,8.906868027389778E-4,629.6672929244432,411.8388787708271,0.0,0.0,0.0,0.0,0.0,0.0,3.216077166143805E-4,4.558921136776917E-5,0.18956580758094788,0.31995104427342
0.019999999552965164,2.095564631903801E7,30.56219657790919,3.931916648899425E-19,2.0955646319060296E7,6.337145919133036E-9,3.931916648899425E-19,-0.6421307191660064,1528.109828582201,3.931916649304281E-17,1.364642617434766E-19,9.37930508564721E-7,0.6399020886443317,29999.993600979447,1.7326677010893446E-14,1.0750430979275143E-24,32.10653597155849,0.6002875695906317,0.39984050510895364,0.2009229986359841,9.891076161768957,20.088824403877492,29.958246199568602,-38.3941253186599,994.8488120472091,8.906869598170856E-4,629.6674300624055,411.8388958366694,0.0,0.0,0.0,0.0,0.0,0.0,6.43215433228761E-4,1.8235687457490712E-4,0.37913161516189575,0.6399020886443317
0.029999999329447746,2.0955646311011374E7,45.84329486101535,8.846812461146007E-19,2.095564631106152E7,2.117599962048189E-8,8.846812461146007E-19,-0.9631960789939824,1528.1098279968896,5.897874975456627E-17,2.0469639266902076E-19,2.1044902505913954E-6,0.9598531332106209,29999.985602203757,5.789825745359151E-14,2.4188469715670354E-24,32.10653599610826,0.9006571653326776,0.599633117717968,0.30213903736454556,9.836490084823499,20.132822763731593,29.937473034257657,-57.59118799263726,994.8488464010678,8.906872216135729E-4,629.6676586253751,411.83892427969573,0.0,0.0,0.0,0.0,0.0,0.0,9.648230625316501E-4,4.103030951227993E-4,0.568697452545166,0.9598531332106209
0.03999999910593033,2.0955646299774088E7,61.12439313709778,1.572766660039139E-18,2.0955646299863238E7,5.001359681955364E-8,1.5727666600391395E-18,-1.2842614391160436,1528.1098271774538,7.86383330340994E-17,2.7292852365909744E-19,3.7376744361230377E-6,1.2798041780699767,29999.974403921515,1.367444351285907E-13,4.300172396960028E-24,32.10653603047793,1.2011862578086805,0.7993336020555197,0.40385786559716286,9.781822838842585,20.176547156745862,29.916769858003974,-76.7882506841986,994.8488944964521,8.906875881286322E-4,629.6679786135392,411.83896409991945,0.0,0.0,0.0,0.0,0.0,0.0,0.0012864307500422,7.294280221685767E-4,0.7582632303237915,1.2798041780699767
0.05000000074505806,2.0955646285326146E7,76.40549140381523,2.45744790687367E-18,2.0955646285465434E7,9.751612140007637E-8,2.45744790687367E-18,-1.6053267996302183,1528.1098261238933,9.82979163376454E-17,3.411606547352339E-19,5.837482384036038E-6,1.5997552233200867,29999.96000611782,2.666232343587989E-13,6.719019376404416E-24,32.106536074667545,1.5018815558658336,0.9989366740634493,0.506079352591642,9.727075202190244,20.219997662942664,29.896137623301172,-95.9853133992052,994.848956333424,8.906880593628496E-4,629.6683900274361,411.8390152973935,0.0,0.0,0.0,0.0,0.0,0.0,0.0016080383211374283,0.0011397319613024592,0.9478290677070618,1.5997552233200867
0.05999999865889549,2.095564626766755E7,91.68658965882645,3.538724986888339E-18,2.0955646267868135E7,1.6834987093261589E-7,3.5387249868883394E-18,-1.9263921606345347,1528.1098248362084,1.179574996712075E-16,4.0939278591893896E-19,8.403914095612795E-6,1.9197062690586406,29999.94240881875,4.602929903813608E-13,9.675387912854669E-24,32.10653612867702,1.8027497621828439,1.1984370408866853,0.6088034040557958,9.672247948891549,20.263174366195173,29.87557727731247,-115.18237614351844,994.849031911869,8.906886353155012E-4,629.6688928664674,411.83907787202526,0.0,0.0,0.0,0.0,0.0,0.0,0.0019296457758173347,0.0016412150580435991,1.137394905090332,1.9197062690586406
0.07000000029802322,2.0955646246798303E7,106.9676878997902,4.816597900413322E-18,2.095564624707132E7,2.671810364063276E-7,4.816597900413323E-18,-2.2474575222270214,1528.1098233143987,1.3761708304078896E-16,4.776249172317214E-19,1.1436969799794353E-5,2.239657315383327,29999.921612001956,7.30511747121767E-13,1.3169278009921818E-23,32.106536192506425,2.103797573163166,1.3978294005900753,0.712029961844675,9.617341848628385,20.306077354154763,29.855089761850127,-134.3794389229996,994.84912123188,8.906893159874738E-4,629.6694871314493,411.8391518238942,0.0,0.0,0.0,0.0,0.0,0.0,0.002251253230497241,0.0022338777780532837,1.3269606828689575,2.239657315383327
0.07999999821186066,2.09556462227184E7,122.24878612436522,6.2910666478388304E-18,2.0955646223074984E7,3.986758798646406E-7,6.291066647838832E-18,-2.5685228845057066,1528.1098215584645,1.5727666645239294E-16,5.458570486951269E-19,1.493664972580674E-5,2.559608362391833,29999.897615667433,1.0900377428950838E-12,1.7200689671873444E-23,32.10653626615577,2.4050316788226795,1.5971084418771933,0.815759003648808,9.56235766673584,20.348706718178615,29.834676013355274,-153.57650174350997,994.8492242934534,8.906901013789505E-4,629.6701728225911,411.83923715300045,0.0,0.0,0.0,0.0,0.0,0.0,0.0025728605687618256,0.0029177204705774784,1.516526460647583,2.559608362391833
0.09000000357627869,2.0955646195427842E7,137.52988433021028,7.962131229615105E-18,2.0955646195879143E7,5.675006207184197E-7,7.962131229615105E-18,-2.889588247568619,1528.1098195684058,1.769362499120227E-16,6.140891803306028E-19,1.8902953421039925E-5,2.879559410181849,29999.87041982636,1.551629099589111E-12,2.1769622903633654E-23,32.106536349624996,2.7064587626716987,1.79626884381044,0.9199905426735181,9.50729616419918,20.391062553257516,29.814336962878322,-172.77356461091094,994.8493410965372,8.906909914897794E-4,629.6709499398168,411.83933385930436,0.0,0.0,0.0,0.0,0.0,0.0,0.00289446790702641,0.0036927436012774706,1.706092357635498,2.879559410181849
0.10000000149011612,2.0955646164926637E7,152.81098251498418,9.829791646252416E-18,2.09556461654838E7,7.783215778545127E-7,9.829791646252418E-18,-3.2106536115137865,1528.1098173442224,1.9659583342568145E-16,6.823213121597686E-19,2.3335880887916222E-5,3.199510458851064,29999.84002448246,2.128044211229263E-12,2.687607771078313E-23,32.10653644291413,3.0080855015909704,1.9953052755327598,1.0247246273090553,9.452158097651433,20.43314495794391,29.794073536059823,-191.97062753106383,994.8494716411102,8.906919863200793E-4,629.6718184832943,411.83944194279263,0.0,0.0,0.0,0.0,0.0,0.0,0.003216075012460351,0.004558947868645191,1.8956581354141235,3.199510458851064
0.10999999940395355,2.095564613121477E7,168.09208067634555,1.1894047898321077E-17,2.0955646131888937E7,1.0358048427860922E-6,1.189404789832108E-17,-3.5317189764392376,1528.1098148859146,2.1625541699937243E-16,7.5055344420404695E-19,2.8235432583890244E-5,3.519461508497165,29999.806429620832,2.8320408503436247E-12,3.252005409955911E-23,32.10653654602318,3.3099185657015258,2.194212395991048,1.1299613407916183,9.396944219371546,20.474954034280145,29.7738866531119,-211.1676905098299,994.8496159272315,8.906930858706067E-4,629.6727784537566,411.83956140351853,0.0,0.0,0.0,0.0,0.0,0.0,0.0035376818850636482,0.005516333505511284,2.085223913192749,3.519461508497165
0.11999999731779099,2.0955646094292253E7,183.37317881195327,1.415489998645142E-17,2.095564609509456E7,1.344616833875989E-6,1.415489998645142E-17,-3.8527843424430013,1528.1098121934822,2.359150006390988E-16,8.187855764849096E-19,3.360160851195427E-5,3.8394125592178416,29999.769635245204,3.6763776833095E-12,3.8701552076855343E-23,32.10653665895215,3.611964618228121,2.392984853660964,1.2357008008550523,9.341655277283136,20.51648988772698,29.753777228800097,-230.3647535530705,994.8497739548794,8.906942901415383E-4,629.6738298514371,411.83969224146887,0.0,0.0,0.0,0.0,0.0,0.0,0.0038592887576669455,0.006564901676028967,2.274789810180664,3.8394125592178416
0.12999999523162842,2.0955646054159086E7,198.654276919466,1.6612347911333816E-17,2.0955646055100687E7,1.7094236000048113E-6,1.661234791133382E-17,-4.173849709623104,1528.1098092669254,2.555745843508638E-16,8.870177090240256E-19,3.943440799326449E-5,4.159363611110783,29999.729641370475,4.673812366500409E-12,4.5420571650222164E-23,32.106536781700996,3.9142303153560256,2.5916172862737326,1.341943159373179,9.286292014953823,20.557752627092334,29.733746172425793,-249.561816666647,994.8499457239831,8.90695599132712E-4,629.6749726762814,411.8398344565907,0.0,0.0,0.0,0.0,0.0,0.0,0.004180895630270243,0.007704652845859528,2.46435546875,4.159363611110783
0.14000000059604645,2.095564601081526E7,213.93537499654255,1.926639167371867E-17,2.095564601190729E7,2.134891616378809E-6,1.9266391673718673E-17,-4.494915078077576,1528.1098061062437,2.7523416814067075E-16,9.552498418428421E-19,4.573383194087783E-5,4.4793146642736765,29999.686447974294,5.837103722159846E-12,5.2677112827866457E-23,32.106536914269796,4.216722306080977,2.790104320544594,1.4486886019926783,9.230855171595142,20.59874236446028,29.713794387809045,-268.7588798564206,994.8501312346317,8.906970128452131E-4,629.676206929332,411.8399880489637,0.0,0.0,0.0,0.0,0.0,0.0,0.004502501804381609,0.008935588411986828,2.653921365737915,4.4793146642736765
0.15000000596046448,2.0955645964260783E7,229.21647304084166,2.2117031274416414E-17,2.095564596551439E7,2.6256868181917525E-6,2.211703127441642E-17,-4.815980447904446,1528.1098027114376,2.948937520145228E-16,1.0234819749628063E-18,5.2499879449146746E-5,4.799265718804213,29999.640055075288,7.1790090963119825E-12,6.047117561865164E-23,32.106537056658475,4.5194472320520225,2.988440571903053,1.5559373477562881,9.175345482063012,20.639459215120244,29.693922773271936,-287.9559431282528,994.8503304867379,8.906985312788165E-4,629.6775326104945,411.8401530185218,0.0,0.0,0.0,0.0,0.0,0.0,0.0048241084441542625,0.01025770790874958,2.84348726272583,4.799265718804213
0.1599999964237213,2.0955645914495654E7,244.49757105002212,2.5164266714297522E-17,2.095564591592198E7,3.1864756806498917E-6,2.5164266714297522E-17,-5.13704581920174,1528.1097990825067,3.145533359784232E-16,1.0917141084056117E-18,5.973255052220343E-5,5.119216774800077,29999.59046266228,8.712287311726253E-12,6.880276003209767E-23,32.10653720886708,4.822411727407035,3.1866206442249947,1.6636896487163728,9.119763676858792,20.679903297496587,29.674132221622376,-307.1530064880046,994.8505434803416,8.907001544342973E-4,629.6789497205556,411.84032936530485,0.0,0.0,0.0,0.0,0.0,0.0,0.005145714618265629,0.011671013198792934,3.033052921295166,5.119216774800077
0.17000000178813934,2.0955645861519866E7,259.7786690217426,2.8408097994292484E-17,2.095564586313006E7,3.821924451585801E-6,2.840809799429249E-17,-5.458111192067489,1528.1097952194514,3.3421292003837505E-16,1.1599462421925578E-18,6.743184630133341E-5,5.439167832358963,29999.53767074272,1.0449696569791619E-11,7.767186607838109E-23,32.10653737089559,5.125622418600717,3.3846391295668794,1.7719457895387,9.06411048213088,20.720074733078324,29.65442362013841,-326.3500699415378,994.8507702154019,8.907018823118517E-4,629.6804582598038,411.84051708928644,0.0,0.0,0.0,0.0,0.0,0.0,0.005467320326715708,0.01317550614476204,3.222618818283081,5.439167832358963
0.18000000715255737,2.0955645805333428E7,275.0597669536619,3.1848525115391834E-17,2.095564580713862E7,4.536699123036669E-6,3.184852511539184E-17,-5.77917656659972,1528.1097911222714,3.5387250420038166E-16,1.2281783763451408E-18,7.559776633649139E-5,5.759118891578557,29999.481679305434,1.2403994372826988E-11,8.707849376833499E-23,32.106537542744015,5.42908592422478,3.5824906079016587,1.8807060870961791,9.008386619676891,20.75997364634916,29.634797850552935,-345.5471334947134,994.851010691958,8.907037149123139E-4,629.6820582290927,411.84071619050667,0.0,0.0,0.0,0.0,0.0,0.0,0.005788926035165787,0.01477118581533432,3.412184715270996,5.759118891578557
0.1899999976158142,2.0955645745936338E7,290.3408648434388,3.5485548078646144E-17,2.095564574794768E7,5.335466255473875E-6,3.548554807864615E-17,-6.100241942896462,1528.109786790967,3.735320884704463E-16,1.2964105108850053E-18,8.423030972316985E-5,6.079069952556547,29999.422488365322,1.4587939777664034E-11,9.702264311344895E-23,32.10653772441234,5.73280885482015,3.780169646857161,1.9899708900526822,8.95259280694637,20.799600164717845,29.615255789038944,-364.7441971533928,994.8512649099358,8.907056522356916E-4,629.6837496285616,411.84092666891263,0.0,0.0,0.0,0.0,0.0,0.0,0.006110531277954578,0.0164580550044775,3.601750373840332,6.079069952556547
0.20000000298023224,2.0955645683328588E7,305.621962688732,3.9319166885166E-17,2.0955645685557224E7,6.222891954621446E-6,3.9319166885166007E-17,-6.421307321055743,1528.1097822255379,3.9319167285457215E-16,1.364642645833697E-18,9.33294776035092E-5,6.3990210153906215,29999.360097907484,1.7014290598139758E-11,1.0750431412586921E-22,32.106537915900596,6.036797812680911,3.9776708014561204,2.099740578436556,8.896729757044064,20.838954418448775,29.59579830619512,-383.9412609234373,994.8515328693891,8.907076942829978E-4,629.6855324592348,411.84114852455747,0.0,0.0,0.0,0.0,0.0,0.0,0.00643213652074337,0.01823611371219158,3.791316270828247,6.3990210153906215
0.20999999344348907,2.095564561751019E7,320.9030604872004,4.334938153612203E-17,2.095564561996726E7,7.203642496733664E-6,4.334938153612204E-17,-6.742372701175593,1528.1097774259842,4.128512573587624E-16,1.4328747812125643E-18,1.028952693009455E-4,6.718972080178472,29999.294507943094,1.9695805114715752E-11,1.1852350681839843E-22,32.10653811720875,6.3410593916497735,4.174988613858773,2.2100155632039273,8.840798178733735,20.87803654059287,29.57642626703198,-403.1383248107083,994.8518145702592,8.907098410544187E-4,629.6874067214229,411.8413817574017,0.0,0.0,0.0,0.0,0.0,0.0,0.006753741763532162,0.02010536380112171,3.980882167816162,6.718972080178472
0.2199999988079071,2.0955645548481137E7,336.1841582365025,4.7576192032744906E-17,2.095564555117778E7,8.282383817004302E-6,4.7576192032744906E-17,-7.063438083354037,1528.1097723923058,4.3251084198902033E-16,1.501106917043301E-18,1.1292768504869431E-4,7.0389231470177815,29999.225718464702,2.2645240675734207E-11,1.300802212044959E-22,32.10653832833683,6.645600176904857,4.3721176131075055,2.320796285791509,8.784798776442507,20.91684666691878,29.557140530958378,-422.3353888210669,994.8521100125665,8.907120925507801E-4,629.6893724160022,411.84162636747203,0.0,0.0,0.0,0.0,0.0,0.0,0.007075346074998379,0.02206580713391304,4.170447826385498,7.0389231470177815
0.23000000417232513,2.0955645476241425E7,351.46525593429726,5.199959837632531E-17,2.0955645479188785E7,9.46378276012183E-6,5.19995983763253E-17,-7.384503467689107,1528.109767124503,4.521704267513492E-16,1.5693390533473543E-18,1.2342672530763022E-4,7.358874216006245,29999.153729468584,2.5875357116637026E-11,1.421744572982775E-22,32.10653854928484,6.950426744737499,4.569052314873987,2.432083217658846,8.728732250265768,20.955384935844368,29.5379419517685,-441.5324529603747,994.8524191963153,8.907144487728131E-4,629.6914295437739,411.8418823547819,0.0,0.0,0.0,0.0,0.0,0.0,0.007396950386464596,0.024117443710565567,4.360013961791992,7.358874216006245
0.23999999463558197,2.0955645400791064E7,366.74635357824343,5.661960056821397E-17,2.0955645404000293E7,1.0752504977062927E-5,5.661960056821397E-17,-7.7055688542788285,1528.1097616225754,4.718300116517522E-16,1.6375711901461713E-18,1.3439238917467027E-4,7.67882528724155,29999.07854097709,2.939891100951315E-11,1.5480621511451553E-22,32.10653878005273,7.25554566232092,4.7657872212085035,2.5438768598198642,8.672599295972574,20.993651488368535,29.51883137762924,-460.729517234493,994.8527421213967,8.907169097204248E-4,629.6935781048271,411.84214971925206,0.0,0.0,0.0,0.0,0.0,0.0,0.007718554697930813,0.02626027539372444,4.549579620361328,7.67882528724155
0.25,2.095564532213005E7,382.0274511659996,6.143619860982162E-17,2.095564532561229E7,1.215321697145555E-5,6.143619860982164E-17,-8.026634243221231,1528.109755886523,4.914895966962324E-16,1.7058033274612977E-18,1.4582467665651155E-4,7.998776360821385,29999.00015297532,3.3228661258172046E-11,1.679754946686389E-22,32.10653902064052,7.560963487469459,4.962316820291897,2.656177742363563,8.616400605011606,21.031646468003277,29.49980965106805,-479.9265816492831,994.8530787878618,8.90719475394769E-4,629.6958181003474,411.8424284609358,0.0,0.0,0.0,0.0,0.0,0.0,0.008040158078074455,0.028494304046034813,4.739145278930664,7.998776360821385
0.25999999046325684,2.0955645240258377E7,397.30854869522466,6.644939250261909E-17,2.095564524402476E7,1.3670585076397401E-5,6.644939250261909E-17,-8.347699634614345,1528.1097499163463,5.111491818907933E-16,1.7740354653144273E-18,1.5772358912437805E-4,8.318727436843433,29998.91856544465,3.737736630063624E-11,1.8168229597673323E-22,32.10653927104829,7.86668676838818,5.158635586189961,2.7689864239636837,8.560136864517618,21.06937002070616,29.480877608961116,-499.123646210606,994.853429195777,8.90722145797149E-4,629.6981495316586,411.8427185798996,0.0,0.0,0.0,0.0,0.0,0.0,0.008361761458218098,0.03081953153014183,4.928711414337158,8.318727436843433
0.27000001072883606,2.0955645155176055E7,412.58964616357736,7.165918224813719E-17,2.0955645159237735E7,1.5309275227082253E-5,7.16591822481372E-17,-8.668765028556194,1528.1097437120447,5.308087672414378E-16,1.8422676037268593E-18,1.7008912522129455E-4,8.63867851540539,29998.8337784186,4.185778348748795E-11,1.9592661905554043E-22,32.106539531275914,8.172722043412566,5.354737978610654,2.8823034913772756,8.503808757318431,21.10682229481305,29.462036082522097,-518.3207109243234,994.8537933449842,8.907249209271918E-4,629.7005723986279,411.8430200760245,0.0,0.0,0.0,0.0,0.0,0.0,0.00868336483836174,0.03323595970869064,5.118277072906494,8.63867851540539
0.2800000011920929,2.095564506688308E7,427.87074356871636,7.706556784796675E-17,2.0955645071251195E7,1.7073953870294645E-5,7.706556784796675E-17,-8.989830425144811,1528.1097372736185,5.504683527541694E-16,1.9104997427199914E-18,1.8292128518218663E-4,8.958629596604943,29998.74579187855,4.6682671568579465E-11,2.1070846392245905E-22,32.10653980132348,8.479075840738142,5.550618442663651,2.9961295589319383,8.447416961942423,21.14400344097118,29.44328589729107,-537.5177757962966,994.8541712355483,8.907278007862574E-4,629.7030867026435,411.84333294937693,0.0,0.0,0.0,0.0,0.0,0.0,0.009004967287182808,0.0357435904443264,5.30784273147583,8.958629596604943
0.28999999165534973,2.0955644975379445E7,443.1518409083005,8.26685493037587E-17,2.0955644980065145E7,1.8969287452819117E-5,8.266854930375871E-17,-9.310895824478221,1528.1097306010677,5.701279384349912E-16,1.978731882315912E-18,1.9622006969701234E-4,9.278580680539777,29998.654605828226,5.1864789294288975E-11,2.2602783059554438E-22,32.10654008119094,8.785754678139721,5.746271408623028,3.110465268001645,8.390962152626523,21.18091361207255,29.42462787312405,-556.7148408323866,994.8545628674382,8.907307853750043E-4,629.7056924444889,411.843657199944,0.0,0.0,0.0,0.0,0.0,0.0,0.009326569736003876,0.0383424237370491,5.497408866882324,9.278580680539777
0.30000001192092896,2.095564488066516E7,458.4329381799885,8.846812661722391E-17,2.095564488567958E7,2.0999941796162602E-5,8.846812661722394E-17,-9.631961226654457,1528.1097236943922,5.897875242899064E-16,2.04696402253523E-18,2.099854780917723E-4,9.598531767307588,29998.5602202639,5.7416893705940224E-11,2.41884719093508E-22,32.106540370878335,9.092765062680021,5.941691291692638,3.2253112864709323,8.334444999324717,21.21755296318769,29.40606282418281,-575.9119060384553,994.8549682406541,8.907338746943624E-4,629.7083896251918,411.8439928277393,0.0,0.0,0.0,0.0,0.0,0.0,0.009648172184824944,0.04103246331214905,5.68697452545166,9.598531767307588
0.3100000023841858,2.0955644782740224E7,473.7140353814392,9.446429979013336E-17,2.0955644788094513E7,2.3170583290266222E-5,9.446429979013336E-17,-9.953026631771545,1528.1097165535919,6.094471103249182E-16,2.1151961634001317E-18,2.2421751014749968E-4,9.918482857006056,29998.462635196745,6.335174339960355E-11,2.582791294357179E-22,32.10654067038563,9.40011349040755,6.136872491774422,3.3406683081873485,8.277866167717042,21.25392165149971,29.387591558925124,-595.1089714203633,994.8553873551316,8.907370687448027E-4,629.7111782453868,411.8443398327234,0.0,0.0,0.0,0.0,0.0,0.0,0.009969773702323437,0.043813709169626236,5.876540660858154,9.918482857006056
0.3199999928474426,2.0955644681604628E7,488.99513251031124,1.0065706882431802E-16,2.095564468730992E7,2.548587821138426E-5,1.0065706882431802E-16,-10.274092039927512,1528.109709178667,6.2910669654603E-16,2.1834283049320155E-18,2.3891616723712838E-4,10.238433949732876,29998.361850604415,6.968209666109737E-11,2.7521106164219934E-22,32.10654097971287,9.7078064460433,6.331809393239721,3.456537052401973,8.221226319219078,21.290019836238745,29.369214880095353,-614.3060369839726,994.8558202109496,8.907403675279205E-4,629.7140583066982,411.84469821497595,0.0,0.0,0.0,0.0,0.0,0.0,0.010291374288499355,0.046686165034770966,6.06610631942749,10.238433949732876
0.33000001311302185,2.095564457725838E7,504.2762295642633,1.0704643372166893E-16,2.0955644583325826E7,2.7950493006301258E-5,1.0704643372166896E-16,-10.595157451220386,1528.1097015696175,6.487662829592449E-16,2.2516604471523777E-18,2.540814484601406E-4,10.558385045585736,29998.25786650926,7.64207122430984E-11,2.9268051573363345E-22,32.10654129886001,10.015850402656232,6.526496364703961,3.572918263197892,8.164526110991929,21.325847678616725,29.350933584715456,-633.5031027351441,994.8562668079943,8.907437710438782E-4,629.7170298095061,411.8450679744179,0.0,0.0,0.0,0.0,0.0,0.0,0.010612975805997849,0.049649834632873535,6.255671977996826,10.558385045585736
0.3400000035762787,2.095564446970148E7,519.5573265409544,1.136323944841371E-16,2.0955644476142228E7,3.056909338283731E-5,1.1363239448413713E-16,-10.916222865748201,1528.1096937264433,6.684258695705662E-16,2.319892590082616E-18,2.6971335268892937E-4,10.878336144662326,29998.150682911277,8.358034687847044E-11,3.106874917313578E-22,32.10654162782705,10.324251821327183,6.720927758804159,3.6898127089063264,8.107766195952689,21.3614053417625,29.33274846407633,-652.7001686797396,994.8567271462482,8.907472792935975E-4,629.7200927548618,411.8454491110496,0.0,0.0,0.0,0.0,0.0,0.0,0.010934575460851192,0.052704714238643646,6.44523811340332,10.878336144662326
0.3499999940395355,2.0955644358933922E7,534.8384234380429,1.2041495111373364E-16,2.0955644365759104E7,3.3346346299367724E-5,1.2041495111373364E-16,-11.237288283608978,1528.1096856491442,6.88085456385997E-16,2.3881247337441285E-18,2.8581188220677857E-4,11.198287247060328,29998.040299788117,9.117376071992007E-11,3.292319896573673E-22,32.106541966614046,10.633017150800987,6.915097911980038,3.807221181510486,8.050947222785364,21.39669299065732,29.314660303729564,-671.8972348236197,994.8572012257882,8.907508922787591E-4,629.7232471444862,411.8458416249509,0.0,0.0,0.0,0.0,0.0,0.0,0.011256175115704536,0.055850811302661896,6.634803771972656,11.198287247060328
0.36000001430511475,2.095564424495571E7,550.1195202531879,1.2739410361252963E-16,2.0955644252176475E7,3.628691729318234E-5,1.2739410361252966E-16,-11.558353704900748,1528.1096773377205,7.077450434115405E-16,2.4563568781591017E-18,3.0237703565927756E-4,11.518238352877434,29997.926717158407,9.921371003536163E-11,3.483140095343128E-22,32.10654231522094,10.942152827126538,7.10900114425847,3.925144496036681,7.994069835952314,21.431710792070707,29.296669883479467,-691.094301172646,994.8576890465152,8.90754609999732E-4,629.7264929789634,411.84624551605583,0.0,0.0,0.0,0.0,0.0,0.0,0.01157777477055788,0.059088125824928284,6.824369430541992,11.518238352877434
0.3700000047683716,2.0955644127766848E7,565.400616984048,1.3456985198265623E-16,2.095564413539434E7,3.939547298159596E-5,1.3456985198265625E-16,-11.87941912972154,1528.109668792172,7.274046306532002E-16,2.524589023348342E-18,3.194088128291695E-4,11.838189462211337,29997.809935022146,1.0771295404633662E-10,3.6793355138550154E-22,32.10654267364775,11.251665273284708,7.302631759041194,4.043583489932847,7.937134675706107,21.466458914496627,29.27877797737555,-710.2913677326802,994.8581906084095,8.90758432457523E-4,629.7298302594409,411.8466607843649,0.0,0.0,0.0,0.0,0.0,0.0,0.01189937349408865,0.06241665780544281,7.013935565948486,11.838189462211337
0.3799999952316284,2.0955644007367328E7,580.681713628282,1.4194219622630466E-16,2.095564401541269E7,4.267667941348918E-5,1.4194219622630468E-16,-12.200484558169384,1528.1096600124986,7.470642181169791E-16,2.59282116933374E-18,3.369072146363506E-4,12.158140575159718,29997.689953371882,1.1668425042090606E-10,3.8809061523489798E-22,32.10654304189448,11.561560898803618,7.495984042896606,4.162539022433964,7.880142378101887,21.500937528090123,29.260985353705294,-729.4884345095832,994.8587059114827,8.907623596534109E-4,629.733258987312,411.84708742990483,0.0,0.0,0.0,0.0,0.0,0.0,0.012220972217619419,0.06583641469478607,7.203501224517822,12.158140575159718
0.38999998569488525,2.0955643883757155E7,595.9628101835486,1.4951113634572608E-16,2.0955643892231524E7,4.613520320617681E-5,1.495111363457261E-16,-12.52154999034231,1528.1096509987005,7.667238058088806E-16,2.661053316136398E-18,3.548722406367604E-4,12.47809169182028,29997.566772207618,1.2614035838203347E-10,4.087852011071227E-22,32.106543419961156,11.871846099361276,7.6890522653548,4.282011973914531,7.823093575010169,21.53514680460422,29.24329277498724,-748.6855015092168,994.859234955714,8.907663915884589E-4,629.736779163789,411.84752545267617,0.0,0.0,0.0,0.0,0.0,0.0,0.012542570009827614,0.06934739649295807,7.393067359924316,12.47809169182028
0.4000000059604645,2.095564375693633E7,611.2439066475068,1.5727667234323174E-16,2.095564376585085E7,4.9775710294852615E-5,1.5727667234323171E-16,-12.842615426338343,1528.1096417507777,7.863833937349078E-16,2.729285463778305E-18,3.7330389038662306E-4,12.798042812290694,29997.440391533077,1.3609403528840443E-10,4.300173090274527E-22,32.106543807847736,12.182527256375185,7.8818306787065255,4.402003245227616,7.76598889413011,21.569086917327322,29.225700997964488,-767.8825687374416,994.859777741066,8.907705282636364E-4,629.7403907900105,411.84797485266597,0.0,0.0,0.0,0.0,0.0,0.0,0.012864167802035809,0.0729496106505394,7.582633018493652,12.798042812290694
0.4099999964237213,2.095564362690485E7,626.5250030178153,1.652388042211929E-16,2.095564363627067E7,5.3602867069457716E-5,1.652388042211929E-16,-13.163680866255511,1528.10963226873,8.060429819010638E-16,2.7975176122806625E-18,3.922021648066899E-4,13.117993936668661,29997.310811351985,1.4655803974280953E-10,4.517869390218218E-22,32.10654420555422,12.493610736578795,8.074313517806234,4.52251375703058,7.70882895900321,21.602758041020863,29.208210773598456,-787.0796362001197,994.8603342675004,8.907747696799421E-4,629.7440938671471,411.8484356298614,0.0,0.0,0.0,0.0,0.0,0.0,0.013185764662921429,0.07664304971694946,7.7721991539001465,13.117993936668661
0.41999998688697815,2.095564349366271E7,641.8060992921326,1.733975319820409E-16,2.0955643503490977E7,5.76213398062464E-5,1.7339753198204095E-16,-13.484746310191843,1528.1096225525575,8.257025703133521E-16,2.8657497616651636E-18,4.115670632263815E-4,13.437945065051869,29997.178031660616,1.575451300379824E-10,4.740940911168205E-22,32.106544613080644,12.80510289158442,8.266494999879107,4.643544449097074,7.65161438902748,21.636160351857466,29.19082284706303,-806.2767039031121,994.8609045350111,8.907791158386453E-4,629.7478883966144,411.84890778427615,0.0,0.0,0.0,0.0,0.0,0.0,0.013507360592484474,0.08042772114276886,7.961764812469482,13.437945065051869
0.4300000071525574,2.095564335720992E7,657.0871954681174,1.8175285562826704E-16,2.0955643367511764E7,6.183579432672559E-5,1.8175285562826704E-16,-13.80581175824537,1528.1096126022603,8.453621589777759E-16,2.933981911953305E-18,4.313985863396451E-4,13.757896197537999,29997.042052447796,1.690680632241098E-10,4.969387653396954E-22,32.10654503042701,13.117010057432536,8.458369324331866,4.765096279615229,7.594345799472029,21.669294027359403,29.173537957738933,-825.4737718522799,994.8614885436226,8.907835667412901E-4,629.7517743800747,411.8493913159504,0.0,0.0,0.0,0.0,0.0,0.0,0.01382895652204752,0.08430362492799759,8.151330947875977,13.757896197537999
0.4399999976158142,2.0955643217546478E7,672.3682915434288,1.9030477516242272E-16,2.0955643228333052E7,6.625089713452326E-5,1.9030477516242277E-16,-14.126877210514118,1528.1096024178382,8.650217479003382E-16,3.002214063166484E-18,4.5169673324909785E-4,14.07784733422475,29996.902873735875,1.8113959821721455E-10,5.203209617183499E-22,32.10654545759326,13.429338554127133,8.649930672568436,4.887170224471874,7.537023801492105,21.702159246337494,29.156356839208517,-844.670840053485,994.8620862932156,8.907881223883489E-4,629.7557518182629,411.8498862248052,0.0,0.0,0.0,0.0,0.0,0.0,0.01415055152028799,0.08827076852321625,8.340896606445312,14.07784733422475
0.44999998807907104,2.0955643074672375E7,687.6493875157253,1.9905329058711927E-16,2.0955643085954823E7,7.087131484695419E-5,1.9905329058711932E-16,-14.447942667096116,1528.1095919992915,8.846813370870424E-16,3.0704462153262965E-18,4.724615048766311E-4,14.397798475209802,29996.760495506227,1.937724942449938E-10,5.4424068028134395E-22,32.10654589457946,13.742094685156887,8.841173207809392,5.009767276522567,7.47964900214456,21.734756188830374,29.139280219250796,-863.8679085125881,994.8626977838456,8.907927827816659E-4,629.7598207131183,411.8503925109071,0.0,0.0,0.0,0.0,0.0,0.0,0.014472146518528461,0.09232915937900543,8.530462265014648,14.397798475209802
0.46000000834465027,2.095564292858762E7,702.9304833826657,2.0799840190502826E-16,2.095564294037708E7,7.570171305815165E-5,2.079984019050283E-16,-14.769008128089395,1528.10958134662,9.043409265438916E-16,3.1386783684541397E-18,4.936929012349259E-4,14.71774962059085,29996.614917762578,2.069795077384743E-10,5.686979210578943E-22,32.106546341385595,14.055284737001989,9.032091074916302,5.132888444847245,7.422222004403741,21.767085036044183,29.122308819836803,-883.064977235451,994.8633230154719,8.907975479223793E-4,629.7639810659723,411.8509101742433,0.0,0.0,0.0,0.0,0.0,0.0,0.014793740585446358,0.09647879004478455,8.720027923583984,14.71774962059085
0.4699999988079071,2.095564277929221E7,718.2115791419087,2.1714010911888107E-16,2.0955642791599825E7,8.07467582717436E-5,2.1714010911888107E-16,-15.09007359359198,1528.1095704598235,9.240005162768892E-16,3.206910522571905E-18,5.153909209727069E-4,15.037700770465571,29996.46614050865,2.207733976162503E-10,5.936926840778737E-22,32.10654679801165,14.368914978626275,9.222678400220504,5.2565347539913425,7.364743407177797,21.79914597029262,29.10544335712521,-902.2620462279343,994.8639619880532,8.908024178116586E-4,629.7682328781907,411.85143921480113,0.0,0.0,0.0,0.0,0.0,0.0,0.01511533372104168,0.10071966797113419,8.909594535827637,15.037700770465571
0.47999998927116394,2.0955642626786146E7,733.4926747911132,2.264784122314692E-16,2.0955642639623065E7,8.601111733241851E-5,2.2647841223146926E-16,-15.4111390637019,1528.109559338902,9.436601062920382E-16,3.275142677700398E-18,5.37555565467468E-4,15.357651924931675,29996.314163748175,2.351669237303212E-10,6.19224969371812E-22,32.10654726445762,14.682991660954594,9.412929291356726,5.380707243192198,7.307213805325427,21.830939174937477,29.08868454145832,-921.4591154959005,994.8646147015477,8.908073924507007E-4,629.7725761511708,411.85197963256786,0.0,0.0,0.0,0.0,0.0,0.0,0.015436926856637001,0.10505179315805435,9.099160194396973,15.357651924931675
0.49000000953674316,2.095564247106943E7,748.7737703279378,2.3601331124564417E-16,2.0955642484446786E7,9.149945560693595E-5,2.360133112456442E-16,-15.732204538517188,1528.1095479838557,9.633196965953421E-16,3.34337483386151E-18,5.601868345053712E-4,15.677603084086838,29996.15898746997,2.501728418927293E-10,6.4529477697089515E-22,32.106547740723535,14.997521016334955,9.602837837101303,5.505406965590485,7.2496337896730045,21.86246483432949,29.07203307735823,-940.6561850452103,994.8652811559766,8.908124718412173E-4,629.7770108867671,411.85253142758364,0.0,0.0,0.0,0.0,0.0,0.0,0.015758518129587173,0.10947516560554504,9.288725852966309,15.677603084086838
0.5,2.095564231214206E7,764.054865750041,2.457448061643176E-16,2.0955642326071005E7,9.721643903048971E-5,2.4574480616431767E-16,-16.053270018135866,1528.1095363946847,9.829792871928041E-16,3.411606991077132E-18,5.832847276454905E-4,15.997554248028743,29996.00061168894,2.658039094706333E-10,6.7190210690696585E-22,32.106548226809345,15.312509257985518,9.792398107215812,5.630634987426629,7.192003947032148,21.893723133749653,29.055489663523378,-959.8532548817246,994.8659613512494,8.908176559840968E-4,629.781537086123,411.85309459979607,0.0,0.0,0.0,0.0,0.0,0.0,0.016080109402537346,0.11398980021476746,9.478291511535645,15.997554248028743
0.5099999904632568,2.0955642150004033E7,779.3359610550821,2.556728969904611E-16,2.0955642164495703E7,1.0316673456145509E-4,2.556728969904611E-16,-16.374335502655967,1528.1095245713886,1.0026388780904273E-15,3.479839149368366E-18,6.068492453566801E-4,16.317505416855088,29995.83903638646,2.820728866296744E-10,6.990469592125236E-22,32.10654872271513,15.627962579425919,9.981604152295454,5.756392387221888,7.1343248602176645,21.924714259350964,29.03905499282528,-979.0503250113053,994.8666552874182,8.908229448813522E-4,629.7861547513706,411.85366914927175,0.0,0.0,0.0,0.0,0.0,0.0,0.01640170067548752,0.11859569698572159,9.66785717010498,16.317505416855088
0.5199999809265137,2.0955641984655347E7,794.6170562407195,2.657975837271061E-16,2.0955641999720894E7,1.093550091582074E-4,2.6579758372710616E-16,-16.695400992175514,1528.1095125139677,1.022298469294215E-15,3.548071308756708E-18,6.308803878807055E-4,16.637456590663565,29995.674261577427,2.9899253353646716E-10,7.26729333920724E-22,32.10654922844081,15.943887153892842,10.170450003622934,5.882680254943996,7.076597108065911,21.95543839810053,29.022729752305597,-998.2473954398139,994.867362964391,8.908283385339272E-4,629.7908638837173,411.8542550759583,0.0,0.0,0.0,0.0,0.0,0.0,0.01672329194843769,0.12329285591840744,9.857423782348633,16.637456590663565
0.5299999713897705,2.0955641816096008E7,809.8981513046122,2.761188663773445E-16,2.095564183174657E7,1.1578592761907203E-4,2.7611886637734453E-16,-17.016466486792545,1528.1095002224217,1.0419580608101706E-15,3.616303469264049E-18,6.553781543227474E-4,16.957407769551853,29995.506287254393,3.1657560445272885E-10,7.549492310653793E-22,32.10654974398644,16.260289133739658,10.35892967302757,6.009499691157161,7.018821265453541,21.985895737722124,29.006514623173423,-1017.4444661731112,994.8680843821711,8.908338369435273E-4,629.7956644850422,411.85485237988286,0.0,0.0,0.0,0.0,0.0,0.0,0.017044881358742714,0.128081277012825,10.046989440917969,16.957407769551853
0.5400000214576721,2.0955641644326016E7,825.1792462444188,2.8663674494432787E-16,2.095564166057274E7,1.2246415678873745E-4,2.866367449443279E-16,-17.337531986605082,1528.1094876967509,1.0616176526442972E-15,3.684535630911097E-18,6.803425453798883E-4,17.277358953617654,29995.335113424808,3.3483485923624404E-10,7.837066506809588E-22,32.10655026935199,16.57717464981982,10.547037152750216,6.136851806156304,6.960997903316644,22.01608646663921,28.990410280802866,-1036.6415372170593,994.8688195406972,8.908394401113969E-4,629.8005565568294,411.8554610610194,0.0,0.0,0.0,0.0,0.0,0.0,0.017366468906402588,0.1329609602689743,10.236555099487305,17.277358953617654
0.550000011920929,2.095564146934537E7,840.4603410577981,2.97351219431268E-16,2.0955641486199386E7,1.2939436317083164E-4,2.97351219431268E-16,-17.65859749171116,1528.109474936955,1.0812772448025978E-15,3.752767793720137E-18,7.05773561067375E-4,17.59731014295864,29995.160740070045,3.5378305681332125E-10,8.1300159280258775E-22,32.106550804537505,16.89454981085378,10.734766415313613,6.264737719085144,6.903127588670273,22.04601077391827,28.974417394730864,-1055.8386085775185,994.8695684400197,8.908451480396625E-4,629.8055401013413,411.8560811194347,0.0,0.0,0.0,0.0,0.0,0.0,0.01768805831670761,0.1379319280385971,10.42612075805664,17.59731014295864
0.5600000023841858,2.0955641291154064E7,855.7414357424087,3.0826228984143663E-16,2.0955641308626533E7,1.3658121292792202E-4,3.082622898414367E-16,-17.9796630022088,1528.1094619430341,1.1009368372910758E-15,3.820999957712863E-18,7.316712009459911E-4,17.91726133767251,29994.98316721618,3.7343295517881086E-10,8.428340574660485E-22,32.10655134954292,17.21242070277937,10.92211141339857,6.393158557038285,6.845210884628351,22.07566884921272,28.9585366286552,-1075.0356802603505,994.8703310799962,8.908509607290152E-4,629.8106151195946,411.85671255503655,0.0,0.0,0.0,0.0,0.0,0.0,0.018009644001722336,0.14299416542053223,10.615687370300293,17.91726133767251
0.5699999928474426,2.0955641109752107E7,871.0225302959095,3.193699561781655E-16,2.0955641127854165E7,1.440293714267682E-4,3.1936995617816555E-16,-18.30072851819603,1528.1094487149883,1.1205964301157345E-15,3.889232122909982E-18,7.580354654862998E-4,18.237212537856955,29994.802394848317,3.937973101527805E-10,8.732040447077789E-22,32.10655190436828,17.530793388085193,11.109066079726334,6.5221154541468405,6.787248350423943,22.105060882707107,28.942768640432863,-1094.2327522714172,994.8711074606596,8.908568781815184E-4,629.8157816138108,411.8573553678786,0.0,0.0,0.0,0.0,0.0,0.0,0.01833123154938221,0.14814768731594086,10.805253028869629,18.237212537856955
0.5799999833106995,2.0955640925139498E7,886.3036247159592,3.3067421844484655E-16,2.0955640943882283E7,1.517435057394323E-4,3.3067421844484655E-16,-18.621794039770887,1528.1094352528175,1.140256023282577E-15,3.9574642893329915E-18,7.848663547044026E-4,18.557163743609657,29994.61842296645,4.1488888221893435E-10,9.041115545648747E-22,32.10655246901357,17.84967390512713,11.295624326947015,6.651609550647591,6.729240541429921,22.134187065061848,28.92711408207854,-1113.4298246165795,994.8718975819786,8.908629003987736E-4,629.8210395858171,411.85800955796145,0.0,0.0,0.0,0.0,0.0,0.0,0.018652817234396935,0.1533924788236618,10.994818687438965,18.557163743609657
0.5899999737739563,2.095564073731623E7,901.5847190002168,3.421750766449315E-16,2.095564075671089E7,1.5972828248322912E-4,3.421750766449316E-16,-18.94285956703139,1528.1094215565215,1.1599156167976069E-15,4.025696457004373E-18,8.121638681619391E-4,18.87711495502831,29994.431251574308,4.367204306187413E-10,9.355565870750875E-22,32.106553043478804,18.16906826742732,11.481780047534249,6.781641991935365,6.671188009179983,22.16304758735832,28.911573599763393,-1132.6268973016986,994.8727014439053,8.908690273822892E-4,629.826389037366,411.85867512527244,0.0,0.0,0.0,0.0,0.0,0.0,0.01897440291941166,0.15872856974601746,11.184385299682617,18.87711495502831
0.6000000238418579,2.0955640546282303E7,916.8658131463405,3.5387253078193225E-16,2.095564056633998E7,1.6798836702491826E-4,3.5387253078193235E-16,-19.263925100075568,1528.1094076261006,1.179575210666827E-15,4.093928625945229E-18,8.399280065577004E-4,19.197066172210597,29994.240880664438,4.5930471117559973E-10,9.675391422768254E-22,32.10655362776399,18.48898246295595,11.66752711368633,6.912213927598727,6.613091301390031,22.191642641044474,28.89614783381404,-1151.8239703326358,994.8735190464388,8.908752591339676E-4,629.8318299705617,411.85935206983856,0.0,0.0,0.0,0.0,0.0,0.0,0.019295986741781235,0.16415594518184662,11.373950958251953,19.197066172210597
0.6100000143051147,2.0955640352037724E7,932.1469071519895,3.657665808594208E-16,2.0955640372769564E7,1.76528425640754E-4,3.657665808594209E-16,-19.584990639001457,1528.1093934615546,1.1992348048962408E-15,4.1621607961766614E-18,8.681587694538955E-4,19.51701739525421,29994.047310248017,4.826544822007482E-10,1.0000592202091532E-21,32.1065542218691,18.809422453395175,11.852859377233953,7.043326510438423,6.554950961979917,22.219972417880797,28.880837418711803,-1171.0210437152527,994.8743503894984,8.908815956551314E-4,629.8373623870104,411.86004039162094,0.0,0.0,0.0,0.0,0.0,0.0,0.01961757056415081,0.16967462003231049,11.563516616821289,19.51701739525421
0.6200000047683716,2.0955640154582493E7,947.4280010148225,3.778572268810291E-16,2.0955640175999638E7,1.8535312540279847E-4,3.778572268810292E-16,-19.90605618390708,1528.1093790628836,1.2188943994918513E-15,4.2303929677209556E-18,8.968561566403927E-4,19.836968624256837,29993.85054032132,5.067825041824494E-10,1.033116820911792E-21,32.106554825794134,19.13039417338528,12.037770669554911,7.174980895468822,6.49676753109554,22.24803710988679,28.865642983092066,-1190.2181174554103,994.8751954730661,8.908880369476175E-4,629.8429862887742,411.8607400906332,0.0,0.0,0.0,0.0,0.0,0.0,0.019939152523875237,0.17528459429740906,11.753082275390625,19.836968624256837
0.6299999952316284,2.09556399539166E7,962.709094732498,3.901444688504491E-16,2.0955639976030193E7,1.9446713224624546E-4,3.901444688504492E-16,-20.22712173489047,1528.1093644300875,1.2385539944596623E-15,4.298625140598819E-18,9.260201688168387E-4,20.15691985931618,29993.650570876896,5.317015345017897E-10,1.0667119444251205E-21,32.10655543953912,19.451903529752755,12.222254801495339,7.307178238901854,6.438541545131289,22.275836909287854,28.85056514974395,-1209.4151915589707,994.8760542971397,8.90894583013414E-4,629.848701678055,411.8614511669026,0.0,0.0,0.0,0.0,0.0,0.0,0.020260734483599663,0.18098586797714233,11.942648887634277,20.15691985931618
0.6399999856948853,2.0955639750040054E7,977.9901883026749,4.0262830677143287E-16,2.0955639772861235E7,2.038751119926019E-4,4.0262830677143287E-16,-20.548187292049658,1528.109349563166,1.2582135898056767E-15,4.3668573148317484E-18,9.556508055462969E-4,20.476871100529912,29993.44740191847,5.574243302302272E-10,1.1008445907901724E-21,32.106556063104065,19.773956400720117,12.406305563298458,7.439919697113569,6.380273536752838,22.30337200846262,28.835604535610152,-1228.6122660317947,994.8769268616686,8.909012338541712E-4,629.8545085567679,411.86217362041657,0.0,0.0,0.0,0.0,0.0,0.0,0.02058231644332409,0.18677844107151031,12.132214546203613,20.476871100529912
0.6499999761581421,2.0955639542952854E7,993.2712817230122,4.1530874064779243E-16,2.0955639566492774E7,2.1358173125918256E-4,4.1530874064779253E-16,-20.869252855482664,1528.1093344621197,1.2778731855358973E-15,4.4350894904416345E-18,9.857480670742375E-4,20.796822347995732,29993.24103345722,5.839636506163013E-10,1.1355147600486393E-21,32.10655669648893,20.096558635097377,12.589916724540531,7.573206425593017,6.321964034920274,22.33064259989074,28.820761751786954,-1247.809340879744,994.8778131665694,8.909079894713248E-4,629.8604069266472,411.86290745113604,0.0,0.0,0.0,0.0,0.0,0.0,0.020903896540403366,0.1926623433828354,12.32178020477295,20.796822347995732
0.6600000262260437,2.0955639332654998E7,1008.5523749911682,4.281857704833998E-16,2.0955639356924787E7,2.2359165609486809E-4,4.281857704833998E-16,-21.190318425287522,1528.109319126948,1.297532781656328E-15,4.503321667450565E-18,0.0010163119534190412,21.11677360181131,29993.03146547079,6.113322533556174E-10,1.1707224522428681E-21,32.10655733969377,20.41971605145488,12.773082034073948,7.707039577873295,6.26361356491157,22.357648876101123,28.806037403524453,-1267.0064161086786,994.878713211902,8.909148498674349E-4,629.8663967904173,411.86365265914105,0.0,0.0,0.0,0.0,0.0,0.0,0.021225474774837494,0.19863754510879517,12.511345863342285,21.11677360181131
0.6700000166893005,2.0955639119146485E7,1023.833468104802,4.4125939628218716E-16,2.09556391441573E7,2.339095526622259E-4,4.4125939628218726E-16,-21.51138400156226,1528.1093035576512,1.3171923781729715E-15,4.571553845879051E-18,0.0010473424641446267,21.436724862074364,29992.81869798526,6.395428964558816E-10,1.2064676674158634E-21,32.10655799271851,20.74343443727745,12.955795219978464,7.84142030444465,6.205222648346379,22.384391029620623,28.791432090226973,-1286.2034917244619,994.879626997518,8.909218150435054E-4,629.8724781494515,411.8644092443397,0.0,0.0,0.0,0.0,0.0,0.0,0.02154705300927162,0.20470406115055084,12.700912475585938,21.436724862074364
0.6800000071525574,2.0955638902427316E7,1039.1145610615722,4.545296180481466E-16,2.095563892819029E7,2.4454008712382347E-4,4.545296180481466E-16,-21.832449584404905,1528.1092877542294,1.3368519750918316E-15,4.639786025748786E-18,0.0010788396001794398,21.756676128882564,29992.602730974555,6.686083379260877E-10,1.2427504056112857E-21,32.106558655563234,21.06771954809953,13.138049989519848,7.976349751649569,6.146791803210171,22.41086925292317,28.776946405453685,-1305.4005677329537,994.8805545234924,8.909288850022766E-4,629.8786510066458,411.86517720682525,0.0,0.0,0.0,0.0,0.0,0.0,0.02186863124370575,0.2108619064092636,12.890478134155273,21.756676128882564
0.6899999976158142,2.095563868249749E7,1054.3956538591372,4.679964357853304E-16,2.0955638709023766E7,2.5548792632434925E-4,4.679964357853303E-16,-22.15351517391349,1528.1092717166823,1.3565115724189112E-15,4.708018207081858E-18,0.0011108033608605958,22.076627402333592,29992.383564449847,6.985413376415514E-10,1.2795706668734525E-21,32.106559328227924,21.39257710662136,13.319840029116705,8.1118290605596,6.088321543878675,22.43708373837937,28.76258093691936,-1324.5976441400155,994.8814957897398,8.909360597452962E-4,629.8849153638639,411.86595654655883,0.0,0.0,0.0,0.0,0.0,0.0,0.022190207615494728,0.21711108088493347,13.08004379272461,22.076627402333592
0.699999988079071,2.0955638459357012E7,1069.6767464951565,4.816598494978506E-16,2.0955638486657742E7,2.6675773574424966E-4,4.816598494978506E-16,-22.47458077018604,1528.10925544501,1.3761711701602133E-15,4.776250389898975E-18,0.0011432337457528677,22.396578682525167,29992.161198426038,7.293546517488763E-10,1.3169284512473368E-21,32.106560010712506,21.71801280180588,13.501159004315406,8.247859365833905,6.029812381142661,22.463034678206565,28.748336266495315,-1343.79472095151,994.8824507961579,8.909433392740195E-4,629.8912712228953,411.8667472634881,0.0,0.0,0.0,0.0,0.0,0.0,0.022511783987283707,0.22345158457756042,13.269610404968262,22.396578682525167
0.7099999785423279,2.0955638233005878E7,1084.9578389672884,4.955198591898797E-16,2.09556382610922E7,2.783541820008395E-4,4.955198591898798E-16,-22.79564637332059,1528.1092389392122,1.3958307683217417E-15,4.844482574222421E-18,0.0011761307557855564,22.71652996955496,29991.935632884502,7.610610395043751E-10,1.3548237587785702E-21,32.10656070301705,22.04403228795629,13.682000559773595,8.38444179455931,5.971264822233024,22.488722264419323,28.734212970210535,-1362.9917981732974,994.8834195427879,8.909507235910262E-4,629.8977185865197,411.86754935768,0.0,0.0,0.0,0.0,0.0,0.0,0.022833358496427536,0.22988343238830566,13.459176063537598,22.71652996955496
0.7200000286102295,2.0955638003444083E7,1100.2389312731916,5.095764648656497E-16,2.095563803232714E7,2.9028193171143357E-4,5.095764648656497E-16,-23.116711983415165,1528.1092221992894,1.4154903669094991E-15,4.912714760072313E-18,0.0012094943912061271,23.036481263520646,29991.70686782524,7.936732601657239E-10,1.3932565895134382E-21,32.10656140514157,22.37064118377415,13.86235831925183,8.521577465071873,5.912679370846175,22.514146688780418,28.720211618252957,-1382.1888758112386,994.8844020295907,8.909582126983176E-4,629.9042574570182,411.86836282913526,0.0,0.0,0.0,0.0,0.0,0.0,0.023154933005571365,0.236406609416008,13.648741722106934,23.036481263520646
0.7300000190734863,2.0955637770671636E7,1115.520023410525,5.238296665294531E-16,2.0955637800362576E7,3.025456503564783E-4,5.238296665294532E-16,-23.437777600567788,1528.1092052252413,1.4351499659294894E-15,4.98094694747212E-18,0.0012433246511254603,23.356432564519945,29991.474903259426,8.272040698836163E-10,1.4322269434988851E-21,32.106562117086014,22.697845071397875,14.04222588561436,8.659267485759665,5.854056527169752,22.53930814275227,28.70633277497089,-1401.3859538711968,994.8853982564785,8.909658065975542E-4,629.9108878363832,411.8691876778149,0.0,0.0,0.0,0.0,0.0,0.0,0.023476505652070045,0.2430211454629898,13.838308334350586,23.356432564519945
0.7400000095367432,2.0955637534688532E7,1130.8011153769473,5.382794641856421E-16,2.0955637565198492E7,3.1515000455328845E-4,5.382794641856422E-16,-23.75884322487649,1528.1091880170677,1.4548095653877154E-15,5.049179136442746E-18,0.0012776215357915904,23.67638387265051,29991.239739175886,8.616662279185144E-10,1.4717348207825105E-21,32.10656283885044,23.025649495421426,14.221596840838806,8.797512953846976,5.795396787908632,22.56420681744881,28.692576998874614,-1420.5830323590308,994.8864082234591,8.909735052911587E-4,629.9176097272797,411.87002390375955,0.0,0.0,0.0,0.0,0.0,0.0,0.023798078298568726,0.2497270256280899,14.027873992919922,23.67638387265051
0.75,2.0955637295494772E7,1146.0822071701173,5.529258578386291E-16,2.0955637326834902E7,3.2809966023705783E-4,5.529258578386292E-16,-24.079908856439307,1528.1091705747688,1.4744691652901803E-15,5.1174113270045045E-18,0.0013123850452254635,23.99633518801006,29991.001375585794,8.970724916672821E-10,1.511780221412571E-21,32.10656357043478,23.354059961893356,14.400464746034851,8.936314954159547,5.736700646311225,22.588842903587867,28.6789448426381,-1439.7801112806037,994.8874319304431,8.909813087808495E-4,629.9244231317648,411.87087150693003,0.0,0.0,0.0,0.0,0.0,0.0,0.024119649082422256,0.2565242648124695,14.217439651489258,23.99633518801006
0.7599999904632568,2.0955637053090356E7,1161.3632987876936,5.677688474928866E-16,2.0955637085271787E7,3.4139928470722225E-4,5.677688474928867E-16,-24.400974495354262,1528.1091528983445,1.4941287656428876E-15,5.1856435191804695E-18,0.0013476151801304324,24.316286510696273,29990.759812470526,9.33435622258264E-10,1.5523631454379804E-21,32.10656431183913,23.683081937295675,14.57882314147229,9.075674557870895,5.677968592196081,22.61321659144397,28.665436853100918,-1458.9771906417764,994.8884693774695,8.909892170693495E-4,629.9313280527813,411.8717304873935,0.0,0.0,0.0,0.0,0.0,0.0,0.024441218003630638,0.26341286301612854,14.40700626373291,24.316286510696273
0.7699999809265137,2.095563680747528E7,1176.6443902273352,5.828084331529471E-16,2.0955636840509165E7,3.550535436716018E-4,5.828084331529472E-16,-24.722040141719383,1528.1091349877947,1.5137883664518405E-15,5.253875712990757E-18,0.0013833119398458916,24.63623784080684,29990.515049848706,9.707683764695534E-10,1.5934835929083074E-21,32.1065650630634,24.012720847502898,14.75666554661863,9.21559282122967,5.619201111978783,22.637328070801644,28.652053571270233,-1478.1742704484104,994.889520564416,8.909972301581896E-4,629.9383244922379,411.8726008450844,0.0,0.0,0.0,0.0,0.0,0.0,0.02476278692483902,0.2703928053379059,14.596571922302246,24.63623784080684
0.7799999713897705,2.095563655864955E7,1191.9254814867002,5.980446148234028E-16,2.095563659254703E7,3.6906710215589555E-4,5.980446148234028E-16,-25.043105795632698,1528.1091168431199,1.533447967723042E-15,5.322107908458244E-18,0.00141947532439364,24.95618917843944,29990.267087712884,1.0090835092157061E-9,1.6351415638737786E-21,32.10656582410764,24.342982076720947,14.93398546018669,9.356070784268029,5.560398688699117,22.661177530909157,28.638795532322984,-1497.3713507063665,994.8905854912721,8.910053480497839E-4,629.9454124528226,411.87348258003004,0.0,0.0,0.0,0.0,0.0,0.0,0.0250843558460474,0.2774641215801239,14.786137580871582,24.95618917843944
0.7900000214576721,2.0955636306613166E7,1207.2065725634482,6.134773925089066E-16,2.0955636341385383E7,3.83444627686913E-4,6.134773925089067E-16,-25.364171457192242,1528.1090984643195,1.5531075694624956E-15,5.39034010560423E-18,0.0014561053340231389,25.276140523691776,29990.015926066786,1.0483937822511803E-9,1.6773370583852774E-21,32.10656659497183,24.67387096640582,15.110776360191698,9.497109469490725,5.501561802048535,22.684765160432768,28.62566326560813,-1516.5684314215066,994.8916641579788,8.910135707462084E-4,629.9525919369355,411.8743756922181,0.0,0.0,0.0,0.0,0.0,0.0,0.025405922904610634,0.284626841545105,14.975704193115234,25.276140523691776
0.800000011920929,2.0955636051366124E7,1222.4876634552375,6.291067662141707E-16,2.095563608702422E7,3.9819078619984793E-4,6.291067662141707E-16,-25.68523712649604,1528.1090798513935,1.5727671716762042E-15,5.458572304448634E-18,0.0014932019689841325,25.596091876661532,29989.76156490296,1.0887119529802427E-9,1.7200700764943426E-21,32.10656737565599,25.005392814162146,15.287031704018972,9.638709880545258,5.442690928397894,22.708091147411395,28.61265729464908,-1535.7655125996919,994.8927565645241,8.910218982499342E-4,629.9598629473293,411.87528018167586,0.0,0.0,0.0,0.0,0.0,0.0,0.025727488100528717,0.29188090562820435,15.16526985168457,25.596091876661532
0.8100000023841858,2.0955635792908426E7,1237.7687541597268,6.449327359439677E-16,2.0955635829463545E7,4.133102436298941E-4,6.449327359439677E-16,-26.00630280364212,1528.1090610043423,1.5924267743701714E-15,5.526804505014529E-18,0.0015307652286171548,25.916043237446395,29989.50400422886,1.1300507788086986E-9,1.7633406182531695E-21,32.1065681661601,25.33755287262137,15.462744928501738,9.780873000872688,5.383786540825465,22.731155679211795,28.5997781371462,-1554.9625942467837,994.8938627108321,8.91030330562971E-4,629.9672254863617,411.87619604837755,0.0,0.0,0.0,0.0,0.0,0.0,0.0260490532964468,0.2992263734340668,15.354835510253906,25.916043237446395
0.8199999928474426,2.095563553124007E7,1253.049844674575,6.609553017031303E-16,2.0955635568703357E7,4.2880766704911366E-4,6.609553017031304E-16,-26.327368488728514,1528.1090419231655,1.6120863775504007E-15,5.595036707323807E-18,0.0015687951140820162,26.23599460614406,29989.243244040757,1.172423020252277E-9,1.8071486837146116E-21,32.10656896648418,25.670356348299787,15.637909450009534,9.92359979233935,5.324849109145213,22.75395894248421,28.587026304979492,-1574.1596763686437,994.8949825968737,8.910388676877248E-4,629.9746795567438,411.8771232923374,0.0,0.0,0.0,0.0,0.0,0.0,0.026370616629719734,0.30666324496269226,15.544402122497559,26.23599460614406
0.8299999833106995,2.0955635266361054E7,1268.3309349974406,6.771744634965511E-16,2.0955635304743655E7,4.4468772171057935E-4,6.771744634965513E-16,-26.648434181853247,1528.1090226078632,1.631745981222895E-15,5.6632689113967804E-18,0.001607291624037699,26.55594598285221,29988.979284338653,1.2158414328549005E-9,1.8514942729321773E-21,32.10656977662823,26.003808400436053,15.812518664547754,10.066891193849335,5.265879099935351,22.776501123118464,28.574402304211304,-1593.3567589711326,994.8961162226035,8.910475096265064E-4,629.982225161111,411.8780619135561,0.0,0.0,0.0,0.0,0.0,0.0,0.026692179962992668,0.3141914904117584,15.733967781066895,26.55594598285221
0.8399999737739563,2.0955634998271383E7,1283.6120251259829,6.935902213291829E-16,2.095563503758444E7,4.6095507445897965E-4,6.935902213291831E-16,-26.96949988311435,1528.1090030584353,1.6514055853936575E-15,5.731501117255341E-18,0.0016462547596445831,26.87589736766854,29988.712125122547,1.2603187765138004E-9,1.8963773859600322E-21,32.106570596592235,26.33791413980857,15.986565947867618,10.210748119937772,5.206876976567141,22.798782406200573,28.56190663508921,-1612.5538420601124,994.8972635879759,8.910562563816567E-4,629.989862302133,411.8790119120347,0.0,0.0,0.0,0.0,0.0,0.0,0.027013741433620453,0.32181113958358765,15.92353343963623,26.87589736766854
0.8500000238418579,2.0955634726971056E7,1298.89311505786,7.102025752060382E-16,2.0955634767225705E7,4.7761439122950833E-4,7.102025752060382E-16,-27.290565592609852,1528.108983274882,1.6710651900686915E-15,5.799733324920984E-18,0.001685684520016969,27.195848760690726,29988.441766388714,1.305867808641132E-9,1.9417980228529985E-21,32.10657142637623,26.672678627532424,16.16004465558785,10.355171459344906,5.147843199233976,22.820802975969766,28.549539792048957,-1631.7509256414435,994.8984246929601,8.910651079556655E-4,629.9975909826168,411.87997328778715,0.0,0.0,0.0,0.0,0.0,0.0,0.02733530104160309,0.32952219247817993,16.113100051879883,27.195848760690726
0.8600000143051147,2.0955634452460073E7,1314.1742047907314,7.270115251321898E-16,2.0955634493667465E7,4.946703381847328E-4,7.2701152513219E-16,-27.611631310437783,1528.1089632572027,1.6907247952540005E-15,5.867965534415404E-18,0.0017255809058610583,27.515800162016486,29988.16820814833,1.3525012872723601E-9,1.9877561836665554E-21,32.10657226598016,27.008106873836073,16.332948123327657,10.500162073571115,5.08877822498069,22.84256301577607,28.53730226371755,-1650.9480097209891,994.8995995374613,8.910740643505633E-4,630.0054112049761,411.8809460407747,0.0,0.0,0.0,0.0,0.0,0.0,0.027656860649585724,0.33732467889785767,16.30266571044922,27.515800162016486
0.8700000047683716,2.0955634174738433E7,1329.4552943222552,7.440170711127706E-16,2.0955634216909707E7,5.12127581941968E-4,7.440170711127708E-16,-27.93269703669617,1528.108943005398,1.7103844009555872E-15,5.9361977457599E-18,0.0017659439169738435,27.835751571743476,29987.89145039022,1.4002319716879523E-9,2.0342518684568375E-21,32.106573115404075,27.344203836817766,16.505269666851397,10.645720795412762,5.029682507733142,22.8640627080383,28.52519453291637,-1670.1450943046086,994.9007881214798,8.910831255691413E-4,630.0133229722962,411.8819301710379,0.0,0.0,0.0,0.0,0.0,0.0,0.02797842025756836,0.34521856904029846,16.492231369018555,27.835751571743476
0.8799999952316284,2.0955633893806133E7,1344.7363836500904,7.612192131529731E-16,2.0955633936952427E7,5.299907891185285E-4,7.61219213152973E-16,-28.253762771483046,1528.1089225194678,1.7300440071794553E-15,6.004429958975772E-18,0.0018067735533799755,28.155702989969395,29987.611493110657,1.4490726211700506E-9,2.0812850772806363E-21,32.10657397464799,27.680974421181705,16.677002582225,10.791848427478962,4.970556498328038,22.885302234202555,28.513217076664432,-1689.3421793981638,994.9019904449833,8.91092291613976E-4,630.0213262874828,411.882925678591,0.0,0.0,0.0,0.0,0.0,0.0,0.028299976140260696,0.3532038629055023,16.68179702758789,28.155702989969395
0.8899999856948853,2.0955633609663177E7,1360.0174727718954,7.786179512580504E-16,2.095563365379564E7,5.482646258769819E-4,7.786179512580504E-16,-28.574828514896435,1528.1089017994118,1.7497036139316082E-15,6.072662174085107E-18,0.0018480698151043902,28.475654416791954,29987.328336324543,1.4990359937591446E-9,2.1288558101954013E-21,32.10657484371184,28.018423476954137,16.84814014598484,10.938545740689502,4.911400644542988,22.906281774701185,28.501370366181707,-1708.5392650075173,994.9032065078593,8.911015624870596E-4,630.029421152939,411.88393256338185,0.0,0.0,0.0,0.0,0.0,0.0,0.028621532022953033,0.3612805902957916,16.87136459350586,28.475654416791954
