time,eiPosition_ft_X,eiPosition_ft_Y,eiPosition_ft_Z,gePosition_ft_X,gePosition_ft_Y,gePosition_ft_Z,eiVelocity_ft_s_X,eiVelocity_ft_s_Y,eiVelocity_ft_s_Z,feVelocity_ft_s_X,feVelocity_ft_s_Y,feVelocity_ft_s_Z,altitudeMsl_ft,longitude_deg,latitude_deg,localGravity_ft_s2,eulerAngle_deg_Yaw,eulerAngle_deg_Pitch,eulerAngle_deg_Roll,bodyAngularRateWrtEi_deg_s_Roll,bodyAngularRateWrtEi_deg_s_Pitch,bodyAngularRateWrtEi_deg_s_Yaw,altitudeRateWrtMsl_ft_min,speedOfSound_ft_s,airDensity_slug_ft3,ambientPressure_lbf_ft2,ambientTemperature_dgR,aero_bodyForce_lbf_X,aero_bodyForce_lbf_Y,aero_bodyForce_lbf_Z,aero_bodyMoment_ftlbf_L,aero_bodyMoment_ftlbf_M,aero_bodyMoment_ftlbf_N,mach,dynamicPressure_lbf_ft2,trueAirspeed_nmi_h
0.0,2.0955646325460006E7,0.0,0.0,2.0955646325460006E7,0.0,0.0,0.0,1528.1098290458178,0.0,0.0,0.0,0.0,30000.000000003725,0.0,0.0,32.10653595184196,0.0,1.2722218725854067E-14,0.0,10.00000000111787,19.999999999971262,29.999999999956895,-0.0,994.8490287717559,8.907042526446323E-4,629.6799295020096,411.8388729485991,0.0,0.0,-0.0,0.0,0.0,0.0,0.0,0.0,0.0
0.10000000000000007,2.0955646164930005E7,152.81098251439366,0.0,2.0955646165487163E7,7.777068645464791E-7,0.0,-3.210653611521433,1528.1098173397852,0.0,1.1892342579450377E-17,2.3331197879516654E-5,3.1995104595993347,29999.840027160943,2.1263634957843716E-12,0.0,32.106536442829196,3.0079800216666714,1.9955293402996763,1.0244538878950316,9.449397810336565,20.435236501387813,29.793063923781116,-191.97062757596007,994.8497158374269,8.907094884926739E-4,629.6845007129103,411.83944179963294,0.0,0.0,0.0,0.0,0.0,0.0,0.003216074155100804,0.00455903736450328,1.8956351677015286
0.20000000000000015,2.0955645683331955E7,305.62196268754184,0.0,2.0955645685560584E7,6.221652278870504E-6,0.0,-6.421307321071237,1528.1097822211004,0.0,-1.3547106145206378E-16,9.332479459993438E-5,6.399021016887373,29999.360100582242,1.701090114454732E-11,0.0,32.10653791581568,6.036585946844432,3.978120778840437,2.0992039926734103,8.893933647822948,20.840909572133206,29.59482945296069,-383.94126101324235,994.851777066231,8.907251964420477E-4,629.698214737304,411.8411483814131,0.0,0.0,0.0,0.0,0.0,0.0,0.006432135082170486,0.018236471618108128,3.791270393583729
0.3000000000000002,2.0955644880668536E7,458.43293817819824,0.0,2.095564488568295E7,2.0998079841683115E-5,0.0,-9.631961226677792,1528.1097236899543,0.0,-2.1597307275911248E-16,2.0998079417762822E-4,9.59853176955282,29998.560222949833,5.7411802851705224E-11,0.0,32.10654037079338,9.092446940246047,5.942369272869826,3.224514003040941,8.331616588006048,21.219372413133602,29.405139022827097,-575.9119061731692,994.8552124382968,8.907513768302549E-4,629.7210719835098,411.84399268455877,0.0,0.0,0.0,0.0,0.0,0.0,0.009648169553450587,0.04103326926296838,5.686905735827278
0.4000000000000003,2.0955643756939705E7,611.2439066451167,0.0,2.095564376585423E7,4.9773226901250744E-5,0.0,-12.842615426369525,1528.1096417463398,0.0,4.649058915617843E-16,3.732992063375876E-4,12.798042815284413,29997.44039422646,1.3608724532889246E-10,0.0,32.10654380776276,12.182104297451989,7.882738591798116,4.40095127287126,7.763131485485998,21.570771466175263,29.224826258146336,-767.8825689170648,994.8600219398647,8.907880303673495E-4,629.7530732608918,411.84797470946387,0.0,0.0,0.0,0.0,0.0,0.0,0.01286416434172603,0.07295104120899999,7.582541252612874
0.5000000000000003,2.0955642312145434E7,764.0548657470504,0.0,2.0955642326074377E7,9.721332813855676E-5,0.0,-16.053270018174892,1528.109536390247,0.0,1.209969624493823E-16,5.832800440134847E-4,15.997554251770929,29996.000614374876,2.6579540383876566E-10,0.0,32.10654822672439,15.311984267829812,9.793537679603869,5.629335355609322,7.189120635823683,21.895273668217172,29.054667707226855,-959.8532551062557,994.866205551608,8.908351580469462E-4,629.7942197021822,411.8530944566269,0.0,0.0,0.0,0.0,0.0,0.0,0.016080106220597766,0.11399204288334709,9.478177002121235
0.6000000000000004,2.095564054628568E7,916.8658131427502,0.0,2.095564056634336E7,1.6798462729961106E-4,0.0,-19.263925100122435,1528.1094076216634,0.0,2.888314587501384E-16,8.399233231192202E-4,19.19706617670124,29994.240883357823,4.592944862207712E-10,0.0,32.10655362767901,18.488359740000988,11.668899818633692,6.910674851942271,6.610184979695134,22.193060101243443,28.895382092562265,-1151.8239706020745,994.8737632486326,8.90892761146259E-4,629.8445127635375,411.8593519266508,0.0,0.0,0.0,0.0,0.0,0.0,0.019295981964755488,0.16415917438359576,11.373813042533133
0.7000000000000005,2.095563845936039E7,1069.6767464909656,0.0,2.0955638486661118E7,2.6675336592052457E-4,0.0,-22.474580770240756,1528.1092554405725,0.0,8.560860353945543E-16,0.0011432290623225381,22.39657868776423,29992.161201115698,7.293427040117895E-10,0.0,32.106560010627526,21.71729825542432,13.502765990775027,8.246090415549208,6.0268857477531474,22.464320028993658,28.747629879994793,-1343.7947212658537,994.8826950005741,8.909608412268694E-4,629.9039542252411,411.8667471203227,0.0,0.0,0.0,0.0,0.0,0.0,0.022511778350247973,0.22345598067492406,13.26944943202937
0.8000000000000006,2.0955636051369503E7,1222.487663450447,0.0,2.09556360870276E7,3.9818578736239285E-4,0.0,-25.68523712655859,1528.1090798469563,0.0,-7.936359902593892E-16,0.0014931972855450537,25.596091882649137,29989.761567596346,1.0886982854260279E-9,0.0,32.10656737557101,25.00459408645786,15.288873708679118,9.63672214327727,5.439746500058726,22.709245351906116,28.612013110590762,-1535.7655129589482,994.8930007714707,8.910394001337979E-4,629.9725461909309,411.8752800385079,0.0,0.0,0.0,0.0,0.0,0.0,0.025727482154757536,0.2918866518308001,15.165086228790875
0.9000000000000007,2.095563332231294E7,1375.2985616799401,0.0,2.095563336744272E7,5.669481411135768E-4,0.0,-28.895894267104765,1528.1088808407933,0.0,3.1051550219984847E-16,0.0018898280196879042,28.79560585904489,29987.041982717812,1.5501194890660312E-9,0.0,32.106575722510705,28.355682381945165,17.020752856280566,11.083619710011236,4.849255515399408,22.92802550428334,28.489075441650183,-1727.7363515426935,994.9046805199227,8.911284399967882E-4,630.0502910887633,411.8849506822821,0.0,0.0,0.0,0.0,0.0,0.0,0.028943080157868024,0.36945602331796595,17.06072349099853
1.0000000000000007,2.095563027219062E7,1528.1094388381875,0.0,2.0955630327906396E7,7.777066645978659E-4,0.0,-32.10655228990824,1528.1086584220584,0.0,-2.138914045879403E-15,0.002333121293952291,31.995120714640855,29984.002446394414,2.1263645561314766E-9,0.0,32.10658505144802,31.775533905543412,18.691730340937188,12.58761402658953,4.255868487782147,23.120842811380562,28.37930234626467,-1919.7072428784513,994.9177341989825,8.912279632295149E-4,630.1371916707748,411.89575905283886,0.0,0.0,0.0,0.0,0.0,0.0,0.032158559141339076,0.4561695763248444,18.956361276833377
1.0999999999999897,2.095562690100245E7,1680.9202925839325,0.0,2.0955626968418546E7,0.0010351275965331252,0.0,-35.3172112929981,1528.108412590725,0.0,-3.2083710688191047E-15,0.002823077142567188,35.194636547126514,29980.642958544195,2.8301917488916155E-9,0.0,32.10659536238448,35.26852976421868,20.2949455870765,14.149169990474798,3.660011489707809,23.28786831883075,28.283121424445532,-2111.678192827591,994.9321617561236,8.913379725294211E-4,630.2332510127972,411.907705151463,0.0,0.0,0.0,0.0,0.0,0.0,0.035373905889379074,0.5520334381337318,20.851999644476535
1.1999999999999786,2.0955623208748326E7,1833.7311205759115,0.0,2.0955623288979053E7,0.0013438771792909643,0.0,-38.52787137440364,1528.1081433467627,0.0,-1.4710455076283324E-15,0.003359695603424536,38.394153454191404,29976.96351905167,3.67435935908492E-9,0.0,32.106606655321904,38.838316839631446,21.82337904827854,15.768221151996325,3.062084164348798,23.429258102521118,28.20090278292988,-2303.6492072514843,994.9479631334008,8.914584708790168E-4,630.3384725156578,411.92078897966326,0.0,0.0,0.0,0.0,0.0,0.0,0.038589107188911335,0.6570543825377536,22.747638652109192
1.2999999999999676,2.0955619195428133E7,1986.5419204728626,0.0,2.0955619289587814E7,0.0017086216587385294,0.0,-41.73853263215431,1528.1078506901374,0.0,1.3010426069826053E-15,0.003942976715571782,41.593671533525395,29972.964127812535,4.6716257094344906E-9,0.0,32.106618930262144,42.487646465401326,23.269895922580712,17.44398890193451,2.4624631113234816,23.54515006367738,28.13295944522276,-2495.620292011524,994.96513826726,8.915894615445173E-4,630.4528599040617,411.9350105390132,0.0,0.0,0.0,0.0,0.0,0.0,0.04180414982985196,0.7712398303002913,24.64327835791269
1.3999999999999566,2.0955614861041754E7,2139.3526899335175,0.0,2.0955614970244706E7,0.0021340272803609395,0.0,-44.94919516427976,1528.107534620817,0.0,-8.170547571850761E-16,0.004572920527415021,44.79319088281831,29968.64478470385,5.834749144994207E-9,0.0,32.10663218720724,46.21820125951918,24.627307054291084,19.174791116952246,1.8615054332701269,23.635661211413893,28.079547758151428,-2687.5914529690986,994.9836870886676,8.917309480769161E-4,630.5764172276076,411.9503698312571,0.0,0.0,0.0,0.0,0.0,0.0,0.0450190206053765,0.8945978496596867,26.53891882006842
1.4999999999999456,2.0955610205589052E7,2292.1634266166006,0.0,2.095561033094959E7,0.0026247602862217168,0.0,-48.15985906880985,1528.1071951387596,0.0,2.8917840344533374E-15,0.005249527083972736,47.99271159976038,29964.005489587784,7.176488026786076E-9,0.0,32.10664642615948,50.03041785517396,25.88844851977989,20.95784800707315,1.2595524127650666,23.70088543328356,28.040867766115774,-2879.562695985623,995.0036095230959,8.918829343119788E-4,630.709148860869,411.9668668582969,0.0,0.0,0.0,0.0,0.0,0.0,0.04823370631219135,1.0271371568774361,28.43456009675793
1.5999999999999346,2.0955605229069885E7,2444.9741281808424,0.0,2.095560537170233E7,0.003185486929790704,0.0,-51.370524443774734,1528.106832243925,0.0,1.5664552988070568E-15,0.0059727964380032975,51.192233782042,29959.046242326498,8.709600774289973E-9,0.0,32.10666164712122,53.923316375411254,27.046280557356344,22.78909599244597,0.6569332912174268,23.740891753307636,28.0170635292559,-3071.5340269225203,995.0249054904599,8.92045424369873E-4,630.8510595031638,411.9845016221391,0.0,0.0,0.0,0.0,0.0,0.0,0.051448193750807496,1.1688671168298164,30.330202246162955
1.6999999999999236,2.0955599931484107E7,2597.7847922849605,0.0,2.0955600092502784E7,0.00382087345569615,0.0,-54.581191387204754,1528.106445936269,0.0,1.420738526825005E-15,0.0067427286445755005,54.39175752735394,29953.767042782158,1.0446845812030827E-8,0.0,32.106677850095,57.894350503056174,28.094005272164456,24.663023429089293,0.05396912313490082,23.755723076471625,28.008223366877246,-3263.5054516412365,995.0475749051202,8.922184226553029E-4,631.0021541787705,412.0032741248947,0.0,0.0,0.0,0.0,0.0,0.0,0.05466246972581187,1.3197977436438215,32.22584532646535
1.7999999999999126,2.0955594312831555E7,2750.5954165876706,0.0,2.0955594493350774E7,0.004535586113737056,0.0,-57.791859997130416,1528.1060362157439,0.0,2.824129818890242E-15,0.007559323762206713,57.591282933387156,29948.167890772223,1.2400981609838518E-8,0.0,32.1066950350836,61.939294371586556,29.025200936916363,26.572544368225696,-0.5490233194645177,23.74539541862338,28.014380012644835,-3455.4769760032295,995.0716176760759,8.924019338591105E-4,631.1624382384343,412.0231843689383,0.0,0.0,0.0,0.0,0.0,0.0,0.057876521046127255,1.4799397013795352,34.1214893958471
1.8999999999999015,2.0955588373112053E7,2903.4059987476817,0.0,2.0955588574246142E7,0.005334291153401338,0.0,-61.0025303715827,1528.1056030822995,0.0,-2.4754504002189037E-15,0.00842258185327864,60.7908100978326,29942.248786140233,1.4584766669807722E-8,0.0,32.10671320208987,66.0521835803864,29.833968805082915,28.50892760538586,-1.1517276167624293,23.709897620981945,28.035510673257274,-3647.448605869956,995.0970337066627,8.925959629561051E-4,631.3319173575845,412.04423235665644,0.0,0.0,0.0,0.0,0.0,0.0,0.0610903345252988,1.6493043047512512,36.017134512490294
1.9999999999998905,2.095558211232542E7,3056.216536423699,0.0,2.0955582335188694E7,0.006221654826201739,0.0,-64.21320260859277,1528.1051465358835,0.0,-8.795048023202412E-16,0.009332502984309307,63.99033911838193,29936.009728692472,1.7010959534632733E-8,0.0,32.1067323511169,70.22532673366409,30.51508633492284,30.46179736746254,-1.753823768732386,23.649191548936358,28.071536987524453,-3839.420347102916,995.123822894827,8.928005152072938E-4,631.5105975384037,412.0664180906726,0.0,0.0,0.0,0.0,0.0,0.0,0.06430389698174924,1.8279035198991591,37.91278073457733
2.0999999999998797,2.0955575530471463E7,3209.0270272744247,0.0,2.0955575776178256E7,0.00720234338822201,0.0,-67.42387680619217,1528.104666576439,0.0,-2.912600716165059E-15,0.010289087223875441,67.18987009272699,29929.45071825385,1.969231879651715E-8,0.0,32.10675248216788,74.44940048532547,31.064158862810753,32.41921856668303,-2.3549842843336806,23.563212775359293,28.122324887990978,-4031.3922055636194,995.1519851328876,8.930155961582234E-4,631.6984851085048,412.08974157364855,0.0,0.0,0.0,0.0,0.0,0.0,0.06751719523906288,2.0157499651988444,39.808428120290785
2.1999999999998687,2.0955568627549987E7,3361.8374689585517,0.0,2.095556889721461E7,0.008281023091104567,0.0,-70.63455306241259,1528.1041632039075,0.0,2.3071822230491534E-16,0.011292334644696676,70.38940311855973,29922.571754608303,2.2641603074480902E-8,0.0,32.10677359524623,78.71363497779798,31.477760398727348,34.367873455057556,-2.9548703164497545,23.451871749153856,28.187684372462552,-4223.364187113583,995.1815203077948,8.932412116410995E-4,631.8955867229196,412.1142028084965,0.0,0.0,0.0,0.0,0.0,0.0,0.07073021612623874,2.212856912122098,41.704076727813224
2.2999999999998577,2.095556140356079E7,3514.6478591347686,0.0,2.0955561698297575E7,0.009462360190414021,0.0,-73.84523147528627,1528.1036364182287,0.0,-1.0564465968698755E-14,0.012342245323800526,73.58893829357288,29915.37283757329,2.5871571039175427E-8,0.0,32.106795690355426,83.00608817846246,31.75355368520507,36.293328128073036,-3.553127867592867,23.3150554500689,28.267369197994448,-4415.336297614373,995.2124283008119,8.934773677725375E-4,632.1019093622724,412.139801798114,0.0,0.0,0.0,0.0,0.0,0.0,0.07394294647798208,2.419238286132777,43.59972661532771
2.3999999999998467,2.0955553858503625E7,3667.4581954617543,0.0,2.095555417942689E7,0.01075102094504099,0.0,-77.05591214284577,1528.103086219338,0.0,-1.0172418463127997E-14,0.013438819343269109,76.78847571545926,29907.85396688804,2.9394981413201882E-8,0.0,32.106818767499306,87.31399795529849,31.890380223651825,38.18037766423413,-4.149384092704024,23.152629530834623,28.36107651507925,-4607.308542927555,995.2447089879978,8.93724070957413E-4,632.3174603362941,412.1665385457812,0.0,0.0,0.0,0.0,0.0,0.0,0.07715537313493868,2.6349086676415445,45.49537784101737
2.4999999999998357,2.0955545992378283E7,3820.2684755981904,0.0,2.0955546340602357E7,0.012151671615754589,0.0,-80.26659516312398,1528.1025126071668,0.0,6.904199434387692E-15,0.014582056783848803,79.9880154819121,29900.015142355114,3.322459296910141E-8,0.0,32.10684282668166,91.6241913205603,31.88831272410808,40.013449274213606,-4.743243727074697,22.964440947264695,28.468446464901483,-4799.280928914726,995.2783622396022,8.939813278844293E-4,632.5422472801027,412.19441305465784,0.0,0.0,0.0,0.0,0.0,0.0,0.08036748294400817,2.8598832929838385,47.39103046306557
2.5999999999998247,2.0955537805184513E7,3973.0786972027427,0.0,2.095553818182372E7,0.013668978463712955,0.0,-83.47728063415428,1528.1019155816455,0.0,-1.0061396160665481E-14,0.015771957734238597,83.1875576906249,29891.856363717467,3.737316452723096E-8,0.0,32.10686786790658,95.92352283952623,31.74866524903729,41.7770354014222,-5.334285669450982,22.7503210760257,28.589061767581406,-4991.253461437494,995.3133879205952,8.942491455303537E-4,632.7762781580693,412.2234253282202,0.0,0.0,0.0,0.0,0.0,0.0,0.08357926275857308,3.094178055465335,49.28668453965588
2.6999999999998137,2.095552929692207E7,4125.888857934073,0.0,2.095552970309073E7,0.015307607751079644,0.0,-86.68796865397029,1528.1012951427017,0.0,2.6645352591003757E-15,0.01700852228546465,86.3871024392918,29883.37763072923,4.1853454959396775E-8,0.0,32.10689389117829,100.19931024743639,31.473959846578634,43.45612476143634,-5.922059752683298,22.510089318178398,28.722447334265613,-5183.226146357508,995.3497858903673,8.945275311579218E-4,633.0195612621536,412.2535753700092,0.0,0.0,0.0,0.0,0.0,0.0,0.08679069943879027,3.337809506434481,51.18234012897214
2.7999999999998026,2.0955520467590697E7,4278.698955450835,0.0,2.095552090440315E7,0.017072225741414204,0.0,-89.89865932060627,1528.1006512902597,0.0,-6.4080685202583254E-15,0.018291750531518915,89.5866498256072,29874.578943148255,4.667822319187043E-8,0.0,32.10692089650108,104.43973566986078,31.06785219241013,45.03659966483726,-6.506083736770949,22.243557184242988,28.86806994067872,-5375.198989536431,995.3875560027633,8.948164923163063E-4,633.2721052124913,412.2848631836573,0.0,0.0,0.0,0.0,0.0,0.0,0.09000177985185717,3.590794856406216,53.07799728919851
2.8999999999997916,2.0955511317190118E7,4431.508987411677,0.0,2.0955511785760686E7,0.018967498705550145,0.0,-93.10935273209674,1528.0999840242403,0.0,2.445960101127298E-16,0.0196216425707991,92.78619994726608,29865.460300683975,5.186022822340848E-8,0.0,32.10694888387961,108.63418549045473,30.53502209469458,46.50557257514671,-7.0858405617202385,21.950532853340825,29.025338004255737,-5567.171996835965,995.4266981063097,8.95116036843073E-4,633.5339189592848,412.31728877307364,0.0,0.0,0.0,0.0,0.0,0.0,0.09321249087225925,3.8531519762370126,54.97365607851931
2.9999999999997806,2.0955501845720056E7,4584.31895147523,0.0,2.095550234716307E7,0.020998092903480536,0.0,-96.32004898647673,1528.0992933445616,0.0,-1.7243151351209463E-15,0.020998198504098554,95.98575290196365,29856.021703068167,5.7412229077672956E-8,0.0,32.10697785331851,112.77350961699851,29.881037287753507,47.85164268017172,-7.660775900169081,21.630826194840843,29.19360151113375,-5759.145174117819,995.467212043914,8.954261728621015E-4,633.8050117811781,412.3508521421926,0.0,0.0,0.0,0.0,0.0,0.0,0.09642281938206378,4.124899398329086,56.86931655511915
3.0999999999997696,2.095549205318022E7,4737.128845300131,0.0,2.0955492588610012E7,0.02316867461205785,0.0,-99.53074818178185,1528.098579251141,0.0,6.2103100439969694E-15,0.022421418438267057,99.18530878739544,29846.263150010258,6.334698488091548E-8,0.0,32.10700780482271,116.85019072943484,29.112200212493264,49.065062884316035,-8.230296052096348,21.2842542358302,29.37215214298322,-5951.118527243727,995.5090976530598,8.95746908785309E-4,634.0853932869588,412.3855532951324,0.0,0.0,0.0,0.0,0.0,0.0,0.09963275227116974,4.406056317893895,58.76497877718284
3.1999999999997586,2.095548193957033E7,4889.938666544997,0.0,2.095548251010123E7,0.02548391009944373,0.0,-102.74145041604802,1528.097841743888,0.0,8.881784197001252E-15,0.023891302477860737,102.38486770125847,29836.184641227126,6.967725479406708E-8,0.0,32.10703873839714,120.85842337405258,28.235387763286845,50.13781710986775,-8.793766225978981,20.910647051604652,29.560223656773598,-6143.092062075509,995.5523547656823,8.960782533119403E-4,634.3750734151425,412.4213922360897,0.0,0.0,0.0,0.0,0.0,0.0,0.10284227643758712,4.696642594250444,60.66064280289583
3.2999999999997476,2.0955471504890054E7,5042.748412868443,0.0,2.0955472111636393E7,0.027948465642726017,0.0,-105.95215578731187,1528.0970808227146,0.0,1.4521370217401852E-14,0.025407850738588818,105.58442974124897,29825.786176390946,7.641579806285454E-8,0.0,32.10707065404713,124.79411098897525,27.25789305535353,51.063615893671276,-9.350509252319846,20.509854049228117,29.75699257294582,-6335.0657844749385,995.596983208395,8.964202154305517E-4,634.6740624359181,412.4583689695243,0.0,0.0,0.0,0.0,0.0,0.0,0.106051378787679,4.996678752181483,62.55630869044342
3.3999999999997366,2.0955460749139074E7,5195.558081929072,0.0,2.0955461393215187E7,0.030567007494122667,0.0,-109.16286439361046,1528.096296487527,0.0,8.723924360687363E-15,0.026971063335339055,108.78399500506468,29815.067755185068,8.357537392734433E-8,0.0,32.107103551778,128.65479455934098,26.187276681211184,51.83782391819732,-9.899804776366244,20.081750606077907,29.961579228943215,-6527.039700303881,995.6429828022548,8.967728044174663E-4,634.982370950015,412.4964834999613,0.0,0.0,0.0,0.0,0.0,0.0,0.10926004623645244,5.3061859833174365,64.45197649801159
3.4999999999997256,2.095544967231707E7,5348.367671385479,0.0,2.095545035483729E7,0.03334420193332077,0.0,-112.37357633298133,1528.0954887382302,0.0,3.9898639947466563E-16,0.02858094038792212,111.98356359040363,29804.029377289116,9.116874176699479E-8,0.0,32.10713743159529,132.43952959005,25.031232925139413,52.45733609979744,-10.440888976888216,19.626245016243566,30.173049255460764,-6719.013815424218,995.6903533628279,8.971360298375477E-4,635.3000098896056,412.5357358320433,0.0,0.0,0.0,0.0,0.0,0.0,0.11246826570781712,5.6251861475760645,66.34764628378653
3.5999999999997145,2.09554382744237E7,5501.177178896246,0.0,2.0955438996502366E7,0.03628471526673627,0.0,-115.58429170346268,1528.0946575747248,0.0,3.0617869350990645E-15,0.03023748201879721,115.18313559496387,29792.67104236409,9.920866110058056E-8,0.0,32.1071722935047,136.14872861979453,23.797474346862867,52.92041939444955,-10.972954856898149,19.14328568780647,30.390415531925704,-6910.988135697832,995.739094700259,8.975099015449983E-4,635.6269905192349,412.5761259705838,0.0,0.0,0.0,0.0,0.0,0.0,0.11567602413484297,5.953701774648428,68.24331810595453
3.6999999999997035,2.0955426555458616E7,5653.986602119948,0.0,2.0955427318210065E7,0.039393213781174996,0.0,-118.79501060309325,1528.0938029969093,0.0,-3.434752482434078E-15,0.03194068835445204,118.38271111644451,29780.99275006354,1.0770789146144259E-7,0.0,32.10720813751209,139.78398516002488,22.493636278404555,53.22653614524519,-11.495153149983848,18.63286852356605,30.612640675449054,-7102.96266698667,995.7892066192268,8.978944296833008E-4,635.9633244360098,412.6176539205276,0.0,0.0,0.0,0.0,0.0,0.0,0.11888330846003026,6.291756065525222,70.13899202270248
3.7999999999996925,2.0955414515421465E7,5806.79593871515,0.0,2.0955415319960035E7,0.04267436376372924,0.0,-122.00573312991244,1528.0929250046795,0.0,9.462916561453483E-15,0.03369055952484355,121.58229025254543,29768.994500033557,1.1667919245383697E-7,0.0,32.107244963623494,143.3478924189657,21.127201255089428,53.37616227951659,-12.006593882321942,18.095044406927833,30.838640113613334,-7294.937415152726,995.8406889189474,8.982896246855408E-4,636.309023570126,412.6603196869503,0.0,0.0,0.0,0.0,0.0,0.0,0.12209010563557353,6.639372894070372,72.0346680922177
3.8999999999996815,2.095540215431187E7,5959.605186340402,0.0,2.09554030017519E7,0.04613283150286218,0.0,-125.2164593819601,1528.0920235979274,0.0,-1.0755285551056204E-14,0.03548709566382302,124.78187310096662,29756.676291897893,1.2613532375784865E-7,0.0,32.10728277184513,146.84386711317103,19.705442284566196,53.37061061723136,-12.506348625284993,17.52992670371255,31.0672857858441,-7486.9123860579975,995.8935413932435,8.986954972752231E-4,636.6641001858375,412.7041232751117,0.0,0.0,0.0,0.0,0.0,0.0,0.12529640262361647,6.996576808643804,73.93034637268755
3.9999999999996705,2.0955389472129457E7,6112.414342654249,0.0,2.0955390363585286E7,0.04977328329269115,0.0,-128.42718945727702,1528.0910987765433,0.0,-1.35828848168984E-15,0.03733029690820264,127.98145975940915,29744.038125284016,1.3608904514305113E-7,0.0,32.10732156218334,150.2759855867214,18.23538313690732,53.21186648653271,-12.993453466731804,16.937698679931593,31.29741051063196,-7678.887585564549,995.9477638304357,8.99112058465754E-4,637.0285668812638,412.7490646903631,0.0,0.0,0.0,0.0,0.0,0.0,0.12850218639652944,7.363393033760144,75.82602692230007
4.099999999999704,2.0955376468873836E7,6265.223405315222,0.0,2.095537740545981E7,0.05360038543115131,0.0,-131.63792345390428,1528.0901505404138,0.0,4.165938427558302E-15,0.039220163399182675,131.18105032557466,29731.079999808222,1.46553116465434E-7,0.0,32.10736133464465,153.64883668746677,16.723773459915385,52.90244009476575,-13.466912720497987,16.31862072549434,31.527813046459087,-7870.8630195344795,996.0033560134118,8.995393195612804E-4,637.4024365893915,412.7951439382,0.0,0.0,0.0,0.0,0.0,0.0,0.1317074439371637,7.739847471802406,77.7217097992436
4.199999999999737,2.0955363144544628E7,6418.032371981836,0.0,2.0955364127375092E7,0.057618804203759755,0.0,-134.84866146988358,1528.0891788894269,0.0,-4.773091644150185E-15,0.041156695283170376,134.3806448971651,29717.80191509053,1.5754029762495987E-7,0.0,32.10740208923573,156.96739356679186,15.177076411315888,52.44523785141873,-13.925703383258,15.673037264814095,31.75726386292201,-8062.838693829906,996.0603177195661,8.999772921565533E-4,637.7857225782303,412.8423610242092,0.0,0.0,0.0,0.0,0.0,0.0,0.134912162239122,8.125966704773855,79.6173950617067
4.299999999999771,2.095534949914141E7,6570.841240312604,0.0,2.0955350529330708E7,0.061833205921550505,0.0,-138.0594036032577,1528.0881838234563,0.0,7.420279668490792E-15,0.04313989270207986,137.5802435718829,29704.20387070626,1.690633486712344E-7,0.0,32.10744382596345,160.23690482591243,13.601466575119261,51.84345313620163,-14.368780335853039,15.001383227834184,31.984511625288437,-8254.814614312974,996.1186487210131,9.004259881388947E-4,638.1784384528158,412.8907159542412,0.0,0.0,0.0,0.0,0.0,0.0,0.13811632830699236,8.521777996114267,81.51308276787834
4.399999999999804,2.0955335532663766E7,6723.650007966027,0.0,2.0955336611326244E7,0.06624825689395397,0.0,-141.2701499520697,1528.087165342385,0.0,1.502270530195915E-15,0.045169755811493136,140.77984644743174,29690.285866241902,1.811350297313021E-7,0.0,32.10748654483484,163.46280419709666,12.0028361227454,51.10047582173676,-14.795082272488001,14.304189949603193,32.208290380710686,-8446.790786845904,996.1783487843513,9.008854196867255E-4,638.5805981542121,412.94020873421135,0.0,0.0,0.0,0.0,0.0,0.0,0.14131992915664082,8.927309292532255,83.40877297594811
4.4999999999998375,2.095532124511128E7,6876.458672600579,0.0,2.0955322373361282E7,0.07086862341554223,0.0,-144.48090061436363,1528.0861234460874,0.0,-1.323203699388209E-14,0.04724628476475062,143.979453621516,29676.047901280224,1.9376810097535435E-7,0.0,32.107530245857106,166.65063714689035,10.3868074335632,50.21981912177695,-15.203538326097418,13.58209036368011,32.42732741776834,-8638.76721729096,996.239417670733,9.013555992704437E-4,638.9922159605755,412.9908393701528,0.0,0.0,0.0,0.0,0.0,0.0,0.14452295181546376,9.342589225902977,85.3044657441059
4.599999999999871,2.0955306636483505E7,7029.267231874734,0.0,2.0955307815435387E7,0.07569897180036733,0.0,-147.69165568818406,1528.0850581344366,0.0,-1.6126423113549393E-15,0.049369479721540176,147.17906519184072,29661.489975385368,2.069753227125654E-7,0.0,32.10757492903756,169.80600232808885,8.758750661954306,49.205061951203604,-15.593075341955666,12.83582335481786,32.640351753246534,-8830.743911510443,996.3018551359319,9.018365396533103E-4,639.4133064882349,413.04260786826956,0.0,0.0,0.0,0.0,0.0,0.0,0.14772538332263885,9.767647115213355,87.20016113054211
4.699999999999904,2.0955291706779994E7,7182.075683446952,0.0,2.095529293754811E7,0.08074396836850006,0.0,-150.90241527157656,1528.0839694073022,0.0,8.075950932301401E-15,0.051539340844138026,150.3786812561113,29646.612088106573,2.207694553562359E-7,0.0,32.107620594383754,172.93450559695688,7.123804999828513,48.05980486307731,-15.96262573464106,12.06623713997691,32.84610318148527,-9022.720875366678,996.3656609303331,9.023282538917287E-4,639.8438846922465,413.0955142349232,0.0,0.0,0.0,0.0,0.0,0.0,0.15092721072938575,10.202512968548017,89.09585919344747
4.799999999999938,2.095527645600029E7,7334.884024975675,0.0,2.0955277739698984E7,0.08600827942967015,0.0,-154.11317946258714,1528.0828572645516,0.0,6.1924207081509586E-15,0.053755868298226046,153.57830191203436,29631.414238981903,2.3516325938101086E-7,0.0,32.10766724190337,176.04172427271413,5.4869026165812915,46.787637691428365,-16.311135846223554,11.274291554096987,33.043341802767515,-9214.698114722061,996.4308347989223,9.028307553355342E-4,640.2839658669672,413.14955847661986,0.0,0.0,0.0,0.0,0.0,0.0,0.15412842109922759,10.647217485121406,90.99155999101323
4.899999999999971,2.0955260884143937E7,7487.692254119336,0.0,2.0955262221887566E7,0.0914965713051199,0.0,-157.32394835926308,1528.0817217060483,0.0,1.0612170864288117E-15,0.05601906225227554,156.7779272573176,29615.896427564323,2.5016949538458E-7,0.0,32.107714871604244,179.13317938389613,3.8527944529234954,45.39211721180775,-16.637574706576242,10.461059128438881,33.230857928636325,-9406.675635439056,996.4973764811782,9.033440576275527E-4,640.733565645992,413.20474059991705,0.0,0.0,0.0,0.0,0.0,0.0,0.15732900150826654,11.101792057346975,92.88726358143127
5.000000000000004,2.0955244991210457E7,7640.500368536356,0.0,2.0955246384113375E7,0.09721351031997916,0.0,-160.53472205965187,1528.0805627316536,0.0,6.163472510145596E-15,0.05832892287929565,159.97755738966862,29600.05865337327,2.6580092406877916E-7,0.0,32.1077634834944,-177.78568622667973,2.226077196760153,43.87675338532464,-16.94094308061414,9.627724864792864,33.40748224439366,-9598.653443380117,996.5652857112865,9.038681747056308E-4,641.1927000042666,413.26106061159624,0.0,0.0,0.0,0.0,0.0,0.0,0.1605289390454089,11.56626877298184,94.78297002289362
5.100000000000038,2.095522877719936E7,7793.308365885133,0.0,2.0955230226375934E7,0.1031637627965094,0.0,-163.74550066180188,1528.0793803412262,0.0,2.92300905702092E-16,0.06068545035591226,163.17719240679554,29583.90091593191,2.8207030622306696E-7,0.0,32.10781307758197,-174.70952591290003,0.6112208781168698,42.245003039447056,-17.220282672684515,8.775584628374832,33.57209609303407,-9790.631544407732,996.6345622179855,9.044031208018478E-4,641.661385257736,413.31851851853025,0.0,0.0,0.0,0.0,0.0,0.0,0.16372822081264696,12.040680417285573,96.67867937359263
5.200000000000071,2.0955212242110163E7,7946.116243824063,0.0,2.0955213748674743E7,0.10935199507001236,0.0,-166.95628426376283,1528.07817453462,0.0,1.0399667238480959E-15,0.0630886448604882,166.3768324064086,29567.42321474105,2.9899040276997093E-7,0.0,32.107863653875334,-171.6331051671647,-0.9874034118399652,40.50027013396463,-17.474685345927735,7.9060421055548975,33.723641731205944,-9982.609944384516,996.7052057246827,9.049489104438232E-4,642.1396380648383,413.37711432777604,0.0,0.0,-0.0,0.0,0.0,0.0,0.1669268339252988,12.52506047525118,98.5743916917217
5.300000000000105,2.0955195385942344E7,8098.924000011513,0.0,2.0955196951009296E7,0.11578287347295868,0.0,-170.16707296358476,1528.0769453116893,0.0,-3.775625645463521E-15,0.06553850657840413,169.57647748621838,29550.625549294055,3.1657397472364163E-7,0.0,32.10791521238304,-168.55131715291824,-2.5654961418502724,38.64591204425692,-17.703302204832184,7.020604299259578,33.86113239716188,-10174.588649173103,996.7772159493976,9.055055584546849E-4,642.6274754268319,413.4368480465217,0.0,0.0,-0.0,0.0,0.0,0.0,0.1701247655122725,13.01944313386605,100.47010703547451
5.400000000000138,2.0955178208695397E7,8251.731632105852,0.0,2.095517983337908E7,0.12246106434521398,0.0,-173.37786685931871,1528.075692672283,0.0,-8.359632430732233E-15,0.06803503569571541,172.7761277439359,29533.50791907683,3.348337832197615E-7,0.0,32.107967753113726,-165.4591993403662,-4.118802767942352,36.68525155211533,-17.905352383005376,6.120875564346414,33.98366202368236,-10366.567664636153,996.8505926047669,9.060730799535346E-4,643.1249146885656,413.49771968208637,0.0,0.0,-0.0,0.0,0.0,0.0,0.17332200271632164,13.523863284426078,102.36582546304504
5.500000000000171,2.0955160710368793E7,8404.539137765423,0.0,2.0955162395783577E7,0.1293912340312593,0.0,-176.58866604901698,1528.0744166162478,0.0,-3.917872970493619E-15,0.07057823240355143,175.9757832772733,29516.070323575288,3.537825895098939E-7,0.0,32.108021276076215,-162.3519526145934,-5.643088463570856,34.62159445500924,-18.08013137586981,5.208550216680516,34.09041442616792,-10558.546996636398,996.9253353980183,9.066514903556796E-4,643.6319735390508,413.5597292418939,0.0,0.0,-0.0,0.0,0.0,0.0,0.17651853269430617,14.0383565248934,104.26154703262804
5.600000000000205,2.095514289096201E7,8557.346514648541,0.0,2.0955144638222255E7,0.13657804885833702,0.0,-179.79947063073166,1528.0731171434281,0.0,1.2677359162438506E-14,0.07316809689506153,179.17544418394357,29498.312762252986,3.7343315490367963E-7,0.0,32.108075781279545,-159.2249640779696,-7.1341147017463635,32.45825287678101,-18.227018759939394,4.285403782107379,34.18067179788963,-10750.526651036615,997.001444031073,9.072408053738577E-4,644.1486700129133,413.6228767335522,0.0,0.0,-0.0,0.0,0.0,0.0,0.17971434261742855,14.562959162316309,106.15727180241846
5.700000000000238,2.0955124750474487E7,8710.153760413543,0.0,2.0955126560694568E7,0.144026175201998,0.0,-183.010280702517,1528.071794253666,0.0,-3.9386896522053405E-15,0.07580462937016377,182.37511056166147,29480.235234566033,3.937982409500047E-7,0.0,32.108131268732876,-156.07383460515382,-8.587618307851502,30.198574474739416,-18.345485146757706,3.353282983959151,34.25382235100641,-10942.506633699688,997.0789182004869,9.078410410182403E-4,644.6750224907797,413.6871621648002,0.0,0.0,-0.0,0.0,0.0,0.0,0.18290941967149937,15.097708215279212,108.0529998306124
5.800000000000272,2.0955106288905673E7,8862.960872718711,0.0,2.0955108163199954E7,0.15174027940140178,0.0,-186.22109636242755,1528.0704479468002,0.0,5.088811316777964E-15,0.07848783003064361,185.5747825081411,29461.83773995191,4.148906092073634E-7,0.0,32.10818773844557,-152.89441201399836,-9.999293681002479,27.845977777354477,-18.43509823052755,2.414094599023158,34.30936695344218,-11134.486950488466,997.1577575975057,9.084522135973083E-4,645.2110497004387,413.75258554354804,0.0,0.0,-0.0,0.0,0.0,0.0,0.18610375105717875,15.642641416412944,109.94873117540587
5.900000000000305,2.095508750625502E7,9015.767849222326,0.0,2.095508944573788E7,0.1597250278059903,0.0,-189.4319177085189,1528.0690782226625,0.0,1.3013895516778007E-14,0.08121769907639984,188.77446012109877,29443.120277877897,4.367230213734225E-7,0.0,32.108245190427056,-149.6828304720639,-11.364778962474732,25.403993839522325,-18.495527803784285,1.4697933408937698,34.346924627908976,-11326.467607265926,997.2379619078631,9.090743397167565E-4,645.7567707162783,413.8191468777042,0.0,0.0,-0.0,0.0,0.0,0.0,0.18929732399026852,16.197797214919614,111.8444658949958
6.000000000000338,2.095506840252198E7,9168.574687582664,0.0,2.095507040830779E7,0.16798508677953006,0.0,-192.6427448388477,1528.067685081088,0.0,1.6617783538119824E-14,0.08399423671668046,191.97414349825118,29424.08284778893,4.59308239298023E-7,0.0,32.108303624686954,-146.43555644852378,-12.679647002071928,22.876314254643724,-18.526549634820693,0.5223689552114449,34.36623679989502,-11518.448609895071,997.319530812011,9.097074362817481E-4,646.3122049616705,413.88684617536137,0.0,0.0,-0.0,0.0,0.0,0.0,0.19249012570192203,16.763214779200855,113.7402040475796
6.100000000000372,2.0955048977705855E7,9321.381385457966,0.0,2.095505105090899E7,0.17652512272703103,0.0,-195.8535778514713,1528.0662685219063,0.0,-6.985731437758602E-15,0.08681744317138763,195.17383273731582,29404.725448988378,4.826590250587357E-7,0.0,32.108363041235414,-143.14944112861346,-13.939402025700952,20.266845301865562,-18.52804812342979,-0.42616726754708645,34.367170205738354,-11710.429964238949,997.4024639856362,9.103515205014169E-4,646.8773722133371,413.95568344522036,0.0,0.0,-0.0,0.0,0.0,0.0,0.19568214343879323,17.338933999583197,115.63594569135509
6.200000000000405,2.0955029231806174E7,9474.187940506472,0.0,2.0955031373541016E7,0.1853498019787807,0.0,-199.0644168444483,1528.064828544944,0.0,1.9439744952665095E-15,0.08968731864751955,198.3735279360116,29385.048081014305,5.067881406457252E-7,0.0,32.10842344008208,-139.82177872034038,-15.13948292623873,17.579767624065123,-18.500017677195725,-1.3737963401854636,34.34971839922816,-11902.411676160697,997.486761098056,9.110066098768917E-4,647.4522925912635,414.025658695252,0.0,0.0,-0.0,0.0,0.0,0.0,0.19887336446359927,17.924995490782674,117.531690884521
6.300000000000439,2.095500916482229E7,9626.994350386363,0.0,2.0955011376203224E7,0.19446379089374766,0.0,-202.2752619158384,1528.0633651500248,0.0,6.5049961944785295E-15,0.09260386336664625,201.5732291920584,29365.050743222237,5.31708348246437E-7,0.0,32.108484821237234,-136.45036949670646,-16.275274069796435,14.819600326464192,-18.44256277819806,-2.3185055563307326,34.31400182461691,-12094.393751523503,997.5724218140116,9.116727222157276E-4,648.0369865717903,414.09677193418077,0.0,0.0,-0.0,0.0,0.0,0.0,0.20206377605502315,18.52144059490654,119.42743968527637
6.400000000000472,2.095498877675359E7,9779.800612755856,0.0,2.095499105889499E7,0.20387175587406325,0.0,-205.48611316370167,1528.0618783369703,0.0,2.001003529539247E-15,0.09556707755225641,204.77293660317628,29344.733434986323,5.574324102871387E-7,0.0,32.108547184711256,-133.0335857394744,-17.342124414620358,11.991267768263471,-18.35589673866532,-3.2583023623398697,34.2602664544831,-12286.376196190577,997.659445792813,9.123498756257767E-4,648.6314749826739,414.16902317076966,0.0,0.0,-0.0,0.0,0.0,0.0,0.2052533655081273,19.12831138412539,121.32319215182082
6.500000000000505,2.0954968067599453E7,9932.606725273143,0.0,2.0954970421615705E7,0.21357836331419833,0.0,-208.69697068609992,1528.0603681055984,0.0,-6.710777766816278E-15,0.0985769614300239,207.9726502670873,29324.096155703068,5.839730892959079E-7,0.0,32.10861053051457,-129.5704380081185,-18.335375564642607,9.100166618613406,-18.2403391728356,-4.191227891431577,34.1888810214953,-12478.359016025237,997.7478326883313,9.1303808851563E-4,649.235779003919,414.242412413807,0.0,0.0,-0.0,0.0,0.0,0.0,0.20844212013460675,19.745650663510663,123.21894834235474
6.600000000000539,2.095494703735925E7,10085.412685596364,0.0,2.095494946436474E7,0.22358827958288074,0.0,-211.90783458109604,1528.0588344557248,0.0,-4.786102070220011E-15,0.10163351523001952,211.17237028151473,29303.13890473917,6.11343147855141E-7,0.0,32.10867485865785,-126.06063839732795,-19.250399111507935,6.152230013314726,-18.096312240065107,-5.1153699372135195,34.10033290272888,-12670.342216890884,997.8375821492273,9.13737379596939E-4,649.8499201702671,414.3169396722914,0.0,0.0,-0.0,0.0,0.0,0.0,0.2116300272629905,20.37350197396191,125.1147083150794
6.700000000000572,2.095492568603233E7,10238.218491383665,0.0,2.095492818714145E7,0.23390617108500766,0.0,-215.11870494675338,1528.057277387161,0.0,-1.2831749551800442E-14,0.10473673918515006,214.372096744182,29281.861681446433,6.395553487727849E-7,0.0,32.108740169151964,-122.50465673976706,-20.082643250991627,3.1539849536683056,-17.924335740130203,-6.028875159076882,33.995222742767595,-12862.32580465092,997.9286938188964,9.144477678845024E-4,650.473920371736,414.39260495537945,0.0,0.0,-0.0,0.0,0.0,0.0,0.21481707423889795,21.01190959513845,127.01047212819611
6.800000000000606,2.095490401361805E7,10391.024140293162,0.0,2.095490658994519E7,0.24453670431748264,0.0,-218.32958188113702,1528.0556968997173,0.0,1.087671619437458E-14,0.10788663353204161,217.57182975281495,29260.26448518783,6.686224552369593E-7,0.0,32.10880646200784,-118.90376515231466,-20.82768819471555,0.11259853064450581,-17.72502116484543,-6.929960332590621,33.87425792646583,-13054.309785168896,998.021167335363,9.151692726960019E-4,651.1078018538532,414.4694082722924,0.0,0.0,-0.0,0.0,0.0,0.0,0.21800324842531044,21.660918548430566,128.90623983990756
6.900000000000639,2.0954882020115737E7,10543.829629982974,0.0,2.0954884672775295E7,0.2554845455896775,0.0,-221.54046548231247,1528.0540929932013,0.0,2.5673907444456745E-15,0.11108319851300993,220.77156940513808,29238.34731529653,6.985572300535829E-7,0.0,32.10887373723666,-115.26006602490844,-21.481309351435158,-2.964091750693864,-17.49906482985819,-7.816922483205903,33.738245033192854,-13246.294164308285,998.1150023314644,9.159019136539728E-4,651.751587219864,414.5473496324623,0.0,0.0,0.0,0.0,0.0,0.0,0.22118853720277457,22.320574600029783,130.80201150841606
7.000000000000672,2.0954859705524728E7,10696.634958111174,0.0,2.09548624356311E7,0.26675436129541996,0.0,-224.75135584834698,1528.0524656674163,0.0,1.705927066275592E-14,0.1143264343709347,223.97131579888014,29216.110171098262,7.293724363920014E-7,0.0,32.108941994849786,-111.57649862599905,-22.03954665492541,-6.06756821319623,-17.247240226231284,-8.68814777027715,33.588081421033095,-13438.27894793281,998.2101984347617,9.166457106856772E-4,652.4052994311033,414.62642904545237,0.0,0.0,0.0,0.0,0.0,0.0,0.22437292796966937,22.99092426400308,132.6977871919257
7.100000000000706,2.0954837069844335E7,10849.440122335813,0.0,2.0954839878511913E7,0.2783508178383327,0.0,-227.96225307730865,1528.0508149221635,0.0,8.121975314523411E-15,0.11761634135422022,227.1710690317686,29193.55305191502,7.610808375827975E-7,0.0,32.10901123485866,-107.85682004569563,-22.49877781493427,-9.188647957646229,-16.97038974282665,-9.542119019516608,33.42474610139052,-13630.264141906116,998.3067552675316,9.174006840236108E-4,653.0689618079316,414.7066465209436,0.0,0.0,0.0,0.0,0.0,0.0,0.2275564081424495,23.67201480542861,134.59356694864053
7.200000000000739,2.0954814113073863E7,11002.245120314947,0.0,2.0954817001417052E7,0.29027858165300824,0.0,-231.17315726726676,1528.0491407572397,0.0,9.228728892196614E-15,0.12095291971292832,230.37082920153344,29170.675957050174,7.936951971776377E-7,0.0,32.109081457274996,-104.10555727430275,-22.85579272523011,-12.31752561150736,-16.669415917389355,-10.377421834377559,33.249290071556814,-13822.249752092006,998.404672446838,9.181668542066299E-4,653.7425980312255,414.788002068788,0.0,0.0,0.0,0.0,0.0,0.0,0.23073896515587417,24.363894243598093,136.4893508367656
7.3000000000007725,2.0954790835212637E7,11155.0499497066,0.0,2.0954793804345842E7,0.30254231914384366,0.0,-234.38406851629196,1528.0474431724415,0.0,7.466249840604178E-15,0.1243361697009859,233.57059640590526,29147.47888584435,8.272282787839815E-7,0.0,32.10915266211047,-100.32792881219814,-23.107865848140317,-15.443845396766807,-16.345272376624273,-11.192749249373856,33.062826275081484,-14014.235784354316,998.503949584301,9.189442420787329E-4,654.4262321418122,414.87049569880975,0.0,0.0,0.0,0.0,0.0,0.0,0.23392058646330272,25.066611355206998,138.3851389145066
7.400000000000806,2.0954767236259907E7,11307.854608168767,0.0,2.095477028729753E7,0.3151466967522607,0.0,-237.59498692245566,1528.0457221675606,0.0,-1.0727529975440575E-14,0.12776609157866578,236.7703707426156,29123.961837530136,8.616928462508308E-7,0.0,32.10922484937724,-96.52973623580311,-23.25282317672598,-18.55680203721429,-15.998954623663101,-11.98690491992388,32.866519357440836,-14206.222244556935,998.6045862867255,9.197328687945805E-4,655.1198885458388,414.95412742132197,0.0,0.0,0.0,0.0,0.0,0.0,0.23710125953678968,25.780215677775306,140.28093124006975
7.500000000000839,2.0954743316214994E7,11460.659093359427,0.0,2.0954746450271443E7,0.3280963808895745,0.0,-240.80591258383072,1528.0439777423878,0.0,3.3029134982598407E-15,0.13124268560661548,239.9701523093978,29100.12481144443,8.9710166348712E-7,0.0,32.1092980190873,-92.71722842541362,-23.28910040930892,-21.645267772951325,-15.63149082549064,-12.758804873003605,32.66157537792851,-14398.209138563869,998.7065821552012,9.205327558130461E-4,655.8235920096228,415.03889724637133,0.0,0.0,0.0,0.0,0.0,0.0,0.2402809718675368,26.504757512796473,142.1767278716622
7.600000000000873,2.0954719075077146E7,11613.463402936548,0.0,2.0954722293266833E7,0.3413960380076473,0.0,-244.01684559849133,1528.0422098967083,0.0,-1.0359768598533492E-14,0.1347659520497837,243.16994120398533,29075.967806834728,9.334674946568595E-7,0.0,32.10937217125302,-88.89694344330798,-23.215789286639776,-24.697940494616365,-15.243932743623231,-13.507477869900963,32.44923162840218,-14590.19647223912,998.8099367859396,9.213439249043853E-4,656.5373676664881,415.1248051844273,0.0,0.0,0.0,0.0,0.0,0.0,0.24345971096593558,27.24028792930653,144.0725288674915
7.700000000000906,2.0954694512845624E7,11766.26753455808,0.0,2.095469781628297E7,0.3550503345617031,0.0,-247.227786064513,1528.0404186303074,0.0,-2.673555821175455E-14,0.13833589117896739,246.36973752411478,29051.490822970867,9.708031040794059E-7,0.0,32.109447305886874,-85.07553504700815,-23.03266963495583,-27.703506038945363,-14.837346939183474,-14.23206445605201,32.230746696137835,-14782.184251446886,998.9146497698039,9.221663981471709E-4,657.2612410146085,415.2118512459845,0.0,0.0,0.0,0.0,0.0,0.0,0.24663746436191888,27.986858767223907,145.9683342857666
7.8000000000009395,2.0954669629519686E7,11919.071485881923,0.0,2.09546730193191E7,0.3690639369800772,0.0,-250.43873407997194,1528.0386039429661,0.0,-1.8790524691780774E-14,0.1419525032658234,249.56954136752205,29026.69385910034,1.0091212561487024E-6,0.0,32.10952342300152,-81.2595922647726,-22.740225487005997,-30.650806274437592,-14.412806369126493,-14.93181479286317,32.007390892247756,-14974.172482051323,999.0207206925081,9.230001979304879E-4,657.9952379194846,415.3000354417217,0.0,0.0,0.0,0.0,0.0,0.0,0.24981421960514946,28.74452264088569,147.86414418469639
7.900000000000973,2.0954644425098564E7,12071.875254565966,0.0,2.0954647902374458E7,0.3834415117119345,0.0,-253.6496897429464,1528.0367658344612,0.0,1.2420620087993939E-15,0.14561578858580412,252.76935283194592,29001.576914459467,1.0484347154657036E-6,0.0,32.10960052260977,-77.45546107501593,-22.339644623706747,-33.52900397201706,-13.971382474401247,-15.606085382324398,31.780437149615853,-15166.161169916755,999.1281491345785,9.23845346954266E-4,658.7393846147913,415.3893577824622,0.0,0.0,0.0,0.0,0.0,0.0,0.25298996426526865,29.51333294258362,149.75995862249124
8.000000000001005,2.0954618899581484E7,12224.678838268093,0.0,2.095462246544829E7,0.3981877252310797,0.0,-256.86065315151507,1528.0349043045687,0.0,-2.3779589408690072E-14,0.14932574741961419,255.9691720151247,28976.13998829201,1.0887562468507431E-6,0.0,32.10967860472457,-73.6690771768807,-21.83280195215285,-36.32773565147603,-13.514137843920201,-16.25433480701532,31.551152475790566,-15358.150320907484,999.236934671281,9.247018682293598E-4,659.4937077030113,415.47981827910723,0.0,0.0,0.0,0.0,0.0,0.0,0.2561646859321493,30.293343846140285,151.65577765736148
8.10000000000095,2.0954593052967675E7,12377.482234646157,0.0,2.095459670853981E7,0.41330724400241525,0.0,-260.07162440375856,1528.0330193530626,0.0,2.4015511801422917E-14,0.15308238005194627,259.1689990147996,28950.38307981193,1.1300986152537725E-6,0.0,32.10975766935909,-69.90581754709376,-21.22222805421685,-39.03724470155969,-13.042119520972435,-16.87611861588175,31.32079002740929,-15550.139940887977,999.3470768727906,9.255697850795327E-4,660.2582341577515,415.571416942769,0.0,0.0,0.0,0.0,0.0,0.0,0.2593383722160911,31.08461031059881,153.55160134751893
8.200000000000895,2.0954566885256335E7,12530.285441357975,0.0,2.095457063164823E7,0.4288047344913455,0.0,-263.2826035977587,1528.0311109797092,0.0,1.2129186544029835E-14,0.1568856867668329,262.3688339287124,28924.306188233197,1.1724745857820245E-6,0.0,32.10983771652666,-66.17037700680902,-20.511065124845928,-41.64848876315449,-12.556353001699604,-17.471083490131303,31.090581854103167,-15742.130035722743,999.4585753040717,9.264491211411804E-4,661.0329913240798,415.66415378466434,0.0,0.0,0.0,0.0,0.0,0.0,0.26251101074808386,31.887188083891775,155.44742975117597
8.30000000000084,2.0954540396446686E7,12683.088456061361,0.0,2.0954544234772764E7,0.44468486317476685,0.0,-266.49359083159834,1528.0291791842774,0.0,9.631184738623233E-15,0.16073566785547025,265.5686768546062,28897.909312766045,1.2158969237320144E-6,0.0,32.109918746240695,-62.466673717113,-19.703013076470786,-44.15321756568624,-12.057836958935017,-18.0389608240951,30.861732341962934,-15934.120611276374,999.5714295249028,9.273399003642034E-4,661.8180069198793,415.758028816128,0.0,0.0,0.0,0.0,0.0,0.0,0.2656825891800362,32.70113370659798,157.34326292654558
8.400000000000784,2.095451358653791E7,12835.891276414091,0.0,2.0954517517912608E7,0.46095229653149783,0.0,-269.70458620336177,1528.0272239665298,0.0,-2.3842039453825237E-14,0.16463232361149124,268.7685278902253,28871.19245260954,1.2603783945653234E-6,0.0,32.11000075851482,-58.79778527278427,-18.802268924210612,-46.544019714971824,-11.547538709474459,-18.57955985334015,30.635412369955205,-16126.111673413518,999.6856390899173,9.282421470130053E-4,662.6133090373231,415.85304204863905,0.0,0.0,0.0,0.0,0.0,0.0,0.2688530951849975,33.52650451575642,159.23910093184153
8.500000000000728,2.0954486455529176E7,12988.693900073924,0.0,2.095449048106693E7,0.4776117010626635,0.0,-272.915589811135,1528.0252453262283,0.0,3.137073933956458E-14,0.1685756543340034,271.9683871333158,28844.155606936663,1.305931763966289E-6,0.0,32.11008375336288,-55.165914888185455,-17.8134626221101,-48.814339121607645,-11.026390429002392,-19.092760457159066,30.412754177499313,-16318.103227998947,999.8012035486768,9.291558856677647E-4,663.418926144599,415.94919349387425,0.0,0.0,0.0,0.0,0.0,0.0,0.2720225164573717,34.36335864874435,161.13494382527875
8.600000000000673,2.0954459003419694E7,13141.496324698579,0.0,2.0954463124234945E7,0.4946677432265103,0.0,-276.1266017530057,1528.0232432631292,0.0,-2.3113455593914978E-14,0.17256566031980639,275.16825468162546,28816.798774950206,1.3525697976657154E-6,0.0,32.11016773079877,-51.572385350096226,-16.741592340703587,-50.95846360282585,-10.495286106649745,-19.57850575530548,30.194846927971163,-16510.095280897527,999.91812244544,9.300811412233146E-4,664.2348870855327,416.0464831635089,0.0,0.0,0.0,0.0,0.0,0.0,0.2751908407132094,35.2117550471194,163.03079166507297
8.700000000000617,2.0954431230208557E7,13294.298547945775,0.0,2.0954435447415743E7,0.5121250895702092,0.0,-279.33762212706176,1528.0212177769906,0.0,4.746203430272544E-15,0.1766023418813064,278.3681306329024,28789.121955748647,1.400305261803223E-6,0.0,32.110252690836795,-48.01765707945492,-15.591961813007558,-52.97148955380889,-9.955079220635087,-20.036794609978518,29.9827329413449,-16702.087837974144,1000.0363953197461,9.310179388944605E-4,665.0612210848969,416.14491106969405,0.0,0.0,0.0,0.0,0.0,0.0,0.2783580556902784,36.07175346075424,164.92664450944034
8.800000000000562,2.095440313589497E7,13447.100567473197,0.0,2.095440745060853E7,0.529988406574442,0.0,-282.5486510313936,1528.0191688675627,0.0,-1.7694179454963432E-14,0.18068569932081502,281.568015084897,28761.125148534775,1.449150922504239E-6,0.0,32.110338633491125,-44.50136584686413,-14.370121894145235,-54.849267418982706,-9.406581107688636,-20.467674134070315,29.777404559571487,-16894.080905093822,1000.1560217055322,9.319663042097154E-4,665.8979577435157,416.24447722431455,0.0,0.0,0.0,0.0,0.0,0.0,0.28152414914853624,36.9434144515896,166.82250241659816
8.900000000000507,2.0954374720478054E7,13599.902380938503,0.0,2.095437913381244E7,0.5482623607622097,0.0,-285.759688564092,1528.017096534596,0.0,3.5110803153770576E-15,0.18481573295235584,284.76790813536036,28732.80835244432,1.4991195461794746E-6,0.0,32.11042555877625,-41.022375399179225,-13.081817943285616,-56.58833302781234,-8.850559991960198,-20.871232296020864,29.579801600619227,-17086.074488121623,1000.2770011318747,9.32926263017898E-4,666.7451270447182,416.34518163959837,0.0,0.0,0.0,0.0,0.0,0.0,0.28468910887015414,37.826799397923715,168.71836544476426
9.000000000000451,2.095434598395696E7,13752.703985999324,0.0,2.095435049702662E7,0.5669516186350911,0.0,-288.97073482325044,1528.0150007778377,0.0,-8.36136715420821E-15,0.1889924430910459,287.9678098820455,28704.171566624194,1.5502238993525815E-6,0.0,32.11051346670675,-37.578840396754856,-11.732944100615024,-58.185829774888084,-8.287740633793959,-21.24759070067721,29.390809351298465,-17278.06859292273,1000.3993331226645,9.338978414862976E-4,667.6027593533659,416.44702432783845,0.0,0.0,0.0,0.0,0.0,0.0,0.2878529226598353,38.72197049843734,170.61423365215782
9.100000000000396,2.0954316926330794E7,13905.505380313276,0.0,2.095432154025018E7,0.5860608467396284,0.0,-292.1817899069633,1528.0128815970297,0.0,-8.621575675604731E-15,0.19321583005491394,291.1677204227079,28675.21479018405,1.6024767488436262E-6,0.0,32.11060235729749,-34.1682755246066,-10.32950503811353,-59.63942623099072,-7.718804554997396,-21.596897614678134,29.21125704494944,-17470.06322536247,1000.523017196824,9.348810661031335E-4,668.4708854186769,416.55000530156497,0.0,0.0,0.0,0.0,0.0,0.0,0.2910155783449792,39.62899077643979,172.51010709699878
9.20000000000034,2.0954287547598675E7,14058.306561537918,0.0,2.0954292263482247E7,0.6055947115788909,0.0,-295.3928539133258,1528.0107389919135,0.0,-1.4606371667724716E-15,0.19748589416637413,294.36763985510254,28645.938022252172,1.6558908615292259E-6,0.0,32.110692230563366,-30.787627311495896,-8.877585337182724,-60.947233186733854,-7.144390794888131,-21.919321294373823,29.04191676764147,-17662.058391306153,1000.6480528680768,9.358759636764927E-4,669.3495363739491,416.6541245733466,0.0,0.0,0.0,0.0,0.0,0.0,0.29417706377597147,40.54792408402508,174.40598583750756
9.300000000000285,2.095425784775972E7,14211.107527330829,0.0,2.0954262666721936E7,0.6255578797059647,0.0,-298.60392694043617,1528.008572962228,0.0,-1.008915173628111E-14,0.2018026357517474,297.567568276987,28616.341261945665,1.7104790046001307E-6,0.0,32.11078308651948,-27.433345964975786,-7.383326300699644,-62.10772345890013,-6.565097150299476,-22.215043664376594,28.8835027355503,-17854.05409661922,1000.7744396450861,9.368825613361821E-4,670.238743738866,416.7593821558966,0.0,0.0,0.0,0.0,0.0,0.0,0.2973373668263718,41.478835106401576,176.30186993190603
9.40000000000023,2.095422782681299E7,14363.908275349537,0.0,2.0954232749968305E7,0.645955017678923,0.0,-301.8150090863923,1528.0063835077074,0.0,2.0920765120280294E-14,0.20616605514175837,300.7675057861203,28586.42450831458,1.7662539454400563E-6,0.0,32.110874925181285,-24.1014553242224,-5.852909742378193,-63.11965711668249,-5.981481852677799,-22.48425438570472,28.736670886468865,-18046.050347167216,1000.9021770317022,9.379008865364802E-4,671.1385394226058,416.8657780622712,0.0,0.0,0.0,0.0,0.0,0.0,0.3004964753930607,42.42178936632146,178.19775943841634
9.500000000000174,2.0954197484757587E7,14516.708803251537,0.0,2.0954202513220474E7,0.6667907920355303,0.0,-305.02610044929514,1528.0041706280838,0.0,1.1698975121987587E-14,0.21057615266821472,303.9674524802627,28556.187760483474,1.8232284515584553E-6,0.0,32.11096774656409,-20.787619786195137,-4.292548104741719,-63.982014171262314,-5.394065636224665,-22.72714534425026,28.602018729784177,-18238.04714881576,1001.0312645263684,9.389309670521799E-4,672.0489557210342,416.9733123053667,0.0,0.0,0.0,0.0,0.0,0.0,0.3036543773966399,43.37685322826658,180.09365441526197
9.600000000000119,2.0954166821592584E7,14669.509108694318,0.0,2.0954171956477508E7,0.6880698693382135,0.0,-308.23720112724646,1528.001934323087,0.0,-4.8433479449272454E-15,0.21503292866801166,307.1674084571761,28525.6310175173,1.8814152907154482E-6,0.0,32.11106155068356,-17.48720773702047,-2.708480125889852,-64.69393625437029,-4.803334152537405,-22.943905583054008,28.480085401549452,-18430.044507430568,1001.161701622703,9.399728309840274E-4,672.9700253222028,417.0819848983958,0.0,0.0,0.0,0.0,0.0,0.0,0.3068110607814807,44.34409390310418,181.98955492066725
9.700000000000063,2.0954135837317053E7,14822.309189335298,0.0,2.095414107973849E7,0.7097969161232234,0.0,-311.4483112183502,1527.9996745924443,0.0,1.240327285323417E-14,0.21953638348214327,310.3673738146252,28494.754278499633,1.940827230784757E-6,0.0,32.11115633755544,-14.195351600743209,-1.1069711897011143,-65.254678406201,-4.209740689205235,-23.13471669564293,28.37135187432512,-18622.04242887751,1001.2934878091761,9.410265067569335E-4,673.9017813054758,417.1917958546099,0.0,0.0,0.0,0.0,0.0,0.0,0.3099665135160415,45.323579452476494,183.88546101285775
9.800000000000008,2.0954104531930033E7,14975.109042831931,0.0,2.0954109883002453E7,0.7319765990004488,0.0,-314.65943082071055,1527.9973914358784,0.0,1.0245276849119023E-14,0.22408651745418662,313.5673486503737,28463.557542461902,2.00147704002859E-6,0.0,32.111252107195774,-10.907005096328021,0.5056825609136103,-65.66357180084451,-3.613709152157887,-23.299748692474182,28.276241275112188,-18814.04091902242,1001.4266225694215,9.420920231232806E-4,674.844257145166,417.30274518755067,0.0,0.0,0.0,0.0,0.0,0.0,0.31312072359298976,46.31537879347979,185.78137275005906
9.899999999999952,2.0954072905430574E7,15127.9086668416,0.0,2.095407836626846E7,0.7546135845320547,0.0,-317.8705600324348,1527.9950848531105,0.0,-3.578734530940153E-15,0.22868333093155327,316.76733306218927,28432.040808472782,2.063377486767741E-6,0.0,32.11134885962058,-7.616998673619548,2.12314730640859,-65.91999804712546,-3.015637274087341,-23.43915634830848,28.195119268819287,-19006.039983731356,1001.5611053818656,9.431694091607733E-4,675.7974867093559,417.414832910732,0.0,0.0,0.0,0.0,0.0,0.0,0.31627367902953807,47.31956170314135,187.6772901904988
9.999999999999897,2.0954040957817715E7,15280.708059021672,0.0,2.0954046529535543E7,0.7777125393005235,0.0,-321.081698951631,1527.9927548438586,0.0,-1.178397657231045E-14,0.23332682426519233,319.9673271478401,28400.20407555625,2.1265413395695954E-6,0.0,32.1114465948462,-4.3200943856657545,3.7390428206195376,-66.02337559505857,-2.415900013834607,-23.5530760350449,28.128294469178325,-19198.039628870403,1001.696935720087,9.442586942761478E-4,676.7615042639089,417.5280590379314,0.0,0.0,0.0,0.0,0.0,0.0,0.3194253678675467,48.33619882323193,189.5732133924047
10.099999999999842,2.095400868909046E7,15433.507217029486,0.0,2.095401437280272E7,0.8012781299158558,0.0,-324.2928476764092,1527.990401407838,0.0,8.025698161606698E-15,0.23801699781082647,323.1673310050963,28368.04734273255,2.1909813672697734E-6,0.0,32.111545312889106,-1.011041653390464,5.346932957538849,-65.9731587279556,-1.8148531141331135,-23.64162304211551,28.07601884376029,-19390.039860305777,1001.8341130526528,9.453599082046916E-4,677.7363444727857,417.64242358304466,0.0,0.0,0.0,0.0,0.0,0.0,0.322575778173793,49.36536166493418,191.46914241400626
10.199999999999786,2.0953976099247843E7,15586.306138522346,0.0,2.095398189606902E7,0.8253150229587352,0.0,-327.5040063048813,1527.988024544761,0.0,2.1620726042836935E-14,0.24275385192610535,326.3673447317288,28335.570609033108,2.2567103388186675E-6,0.0,32.11164501376588,2.315364509724919,6.940316430956826,-65.76884959815762,-1.2128367874253987,-23.704889384869205,28.038488084661438,-19582.040683903728,1001.972636843065,9.464730810106651E-4,678.722042399164,417.75792656003233,0.0,0.0,0.0,0.0,0.0,0.0,0.325724898040202,50.40712261360574,193.3650773135331
10.29999999999973,2.0953943188288867E7,15739.104821157538,0.0,2.0953949099333458E7,0.8498278850413188,0.0,-330.7151749351599,1527.9856242543367,0.0,6.264953833490239E-15,0.24753738697244962,329.5673684255105,28302.77387347445,2.3237410234496234E-6,0.0,32.11174569749327,5.66422122524232,8.512619022323584,-65.41002373739319,-0.6101795015345903,-23.74294210036799,28.015841921475506,-19774.04210553063,1002.1125065498828,9.475982430891318E-4,679.7186335078168,417.8745679830129,0.0,0.0,0.0,0.0,0.0,0.0,0.3288727155840233,51.46155493367324,195.26101814921614
10.399999999999675,2.0953909956212528E7,15891.903262592297,0.0,2.095391598259502E7,0.8748213827628568,0.0,-333.92635366536047,1527.9832005362712,0.0,-1.074661193367632E-14,0.2523676033141427,332.7674021842175,28269.657135035843,2.3920861905595415E-6,0.0,32.11184736408827,9.04044992534433,10.057188422403271,-64.89636940453933,-0.007201838706464723,-23.755822029563888,28.008164358292067,-19966.044131053048,1002.253721626828,9.487354251676833E-4,680.7261536674048,417.992347866342,0.0,0.0,0.0,0.0,0.0,0.0,0.33201921894800995,52.52873277358272,197.15696497928772
10.49999999999962,2.0953876403017808E7,16044.701460483851,0.0,2.0953882545852702E7,0.9003001827537567,0.0,-337.1375425935992,1527.9807533902683,0.0,8.246875404793741E-15,0.2572445013209391,335.9674461056267,28236.22039271891,2.4617586098313116E-6,0.0,32.11195001356798,12.448721677978563,11.567292987868363,-64.22774098482617,0.5957795971131639,-23.743543084803502,28.01548382163497,-20158.046766337604,1002.3962815225424,9.498846583053514E-4,681.7446391502901,418.1112662244007,0.0,0.0,0.0,0.0,0.0,0.0,0.3351643963007076,53.60873117065287,199.05291786198092
