time,eiPosition_ft_X,eiPosition_ft_Y,eiPosition_ft_Z,eiVelocity_ft_s_X,eiVelocity_ft_s_Y,eiVelocity_ft_s_Z,feVelocity_ft_s_X,feVelocity_ft_s_Y,feVelocity_ft_s_Z,altitudeMsl_ft,longitude_deg,latitude_deg,localGravity_ft_s2,eulerAngle_deg_Yaw,eulerAngle_deg_Pitch,eulerAngle_deg_Roll,bodyAngularRateWrtEi_deg_s_Roll,bodyAngularRateWrtEi_deg_s_Pitch,bodyAngularRateWrtEi_deg_s_Yaw,speedOfSound_ft_s,airDensity_slug_ft3,ambientPressure_lbf_ft2,ambientTemperature_dgR,aero_bodyForce_lbf_X,aero_bodyForce_lbf_Y,aero_bodyForce_lbf_Z,aero_bodyMoment_ftlbf_L,aero_bodyMoment_ftlbf_M,aero_bodyMoment_ftlbf_N,mach,dynamicPressure_lbf_ft2
0.0,2.09556463255E7,0.0,0.0,0.0,1528.10982905,0.0,0.0,0.0,-0.0,30000.0,0.0,0.0,32.1065359519,0.0,0.0,0.0,10.0,20.0,30.0,994.849493459,8.90685451211E-4,629.673709538,411.838873082,0.0,0.0,0.0,0.0,0.0,0.0,0.0,0.0
0.1,2.09556461649E7,152.810982514,0.0,-3.21065361152,1528.10981734,0.0,0.0,2.33311981015E-5,3.19951045886,29999.8400245,2.12636283364E-12,0.0,32.10653644285363,3.00808585517,1.9953043942,1.02472420685,9.45215667519,20.4331394412,29.7940751215,994.850180536,8.90690687135E-4,629.67828085,411.839441943,0.0,0.0,0.0,0.0,0.0,0.0,0.00321607265249,0.00455894112995
0.2,2.09556456833E7,305.621962687,0.0,-6.42130732108,1528.10978222,0.0,0.0,9.33247945784E-5,6.39902101541,29999.3600979,1.70109025607E-11,0.0,32.10653791581453,6.03679851716,3.97766903762,2.09973974004,8.89672857293,20.8389488872,29.5958001213,994.852241766,8.9070639505E-4,629.691994949,411.841148525,0.0,0.0,0.0,0.0,0.0,0.0,0.00643213207695,0.0182360866792
0.3,2.09556448807E7,458.432938178,0.0,-9.63196122668,1528.10972369,0.0,0.0,2.09980794584E-4,9.59853176734,29998.5602203,5.74117986225E-11,0.0,32.10654037078269,9.09276610719,5.94168865645,3.22531003353,8.3344440407,21.217547434,29.4060648519,994.85567714,8.90732575381E-4,629.71485232,411.843992828,0.0,0.0,0.0,0.0,0.0,0.0,0.00964816504564,0.0410324031477
0.4,2.09556437569E7,611.243906645,0.0,-12.8426154264,1528.10964175,0.0,0.0,3.73299207616E-4,12.7980428123,29997.4403915,1.3608723458E-10,0.0,32.10654380775811,12.1825286245,7.88182718442,4.40200157799,7.76598814814,21.5690814043,29.2257032209,994.860486643,8.90769228839E-4,629.746853772,411.847974853,0.0,0.0,0.0,0.0,0.0,0.0,0.0128641583313,0.072949501442
0.5,2.09556423121E7,764.054865747,0.0,-16.0532700182,1528.10953639,0.0,0.0,5.83280045925E-4,15.9975542481,29996.0006117,2.65795401314E-10,0.0,32.106548226740806,15.3125109277,9.79239376761,5.63063290236,7.19200340097,21.8937176487,29.0554920641,994.866670258,8.90816356416E-4,629.788000438,411.8530946,0.0,0.0,0.0,0.0,0.0,0.0,0.0160800987077,0.113989636984
0.6,2.09556405463E7,916.865813143,0.0,-19.2639251001,1528.10940762,0.0,0.0,8.39923324517E-4,19.1970661723,29994.2408807,4.59294495665E-10,0.0,32.10655362773077,18.4889844064,11.667521944,6.91221141682,6.61309094292,22.1916371937,28.8961503946,994.874227959,8.9087395939E-4,629.838293773,411.85935207,0.0,0.0,0.0,0.0,0.0,0.0,0.0192959729493,0.164155709865
0.7,2.09556384594E7,1069.67674649,0.0,-22.4745807703,1528.10925544,0.0,0.0,0.00114322906411,22.3965786826,29992.1611984,7.29342727705E-10,0.0,32.106560010628,21.7180149852,13.5011530213,8.24785641659,6.02981219842,22.4630292761,28.74833897,994.883159715,8.90942039323E-4,629.897735559,411.866747264,0.0,0.0,0.0,0.0,0.0,0.0,0.0225117678323,0.223451265043
0.8,2.09556360514E7,1222.48766345,0.0,-25.6852371266,1528.10907985,0.0,0.0,0.00149319728611,25.5960918767,29989.7615649,1.08869831813E-9,0.0,32.10656737563251,25.0053951976,15.2870249266,9.63870647477,5.44269091022,22.7080857963,28.6126601236,994.89346549,8.91020598059E-4,629.966327899,411.875280182,0.0,0.0,0.0,0.0,0.0,0.0,0.0257274701344,0.291880492581
0.9,2.09556333223E7,1375.29856168,0.0,-28.8958942671,1528.10888084,0.0,0.0,0.00188982801993,28.7956058524,29987.04198,1.55011950758E-9,0.0,32.1065757225443,28.3565583356,17.0186680644,11.0858095867,4.85221552704,22.9269962129,28.4896578042,994.905145244,8.91109637729E-4,630.044073221,411.884950825,0.0,0.0,0.0,0.0,0.0,0.0,0.0289430666351,0.369448227936
1.0,2.09556302722E7,1528.10943884,0.0,-32.1065522899,1528.10865842,0.0,0.0,0.00233312129432,31.9951207073,29984.0024437,2.12636454625E-9,0.0,32.10658505146338,31.776473202,18.689409988,12.5899948471,4.25884189866,23.1199428975,28.3798177751,994.918198929,8.91209160745E-4,630.130974278,411.895759196,0.0,0.0,0.0,0.0,0.0,0.0,0.0321585441162,0.456159952284
1.1,2.0955626901E7,1680.92029258,0.0,-35.317211293,1528.10841259,0.0,0.0,0.00282307714305,35.194636539,29980.6429559,2.83019171207E-9,0.0,32.10659536238974,35.2695188668,20.2923909103,14.1517252314,3.66299623792,23.2870969616,28.2835679248,994.932626493,8.91319169807E-4,630.227034145,411.907705295,0.0,0.0,0.0,0.0,0.0,0.0,0.035373889362,0.552021792894
1.2,2.09556232087E7,1833.73112058,0.0,-38.5278713744,1528.10814335,0.0,0.0,0.0033596956031,38.3941534453,29976.9635164,3.67435929426E-9,0.0,32.106606655323404,38.8393401417,21.8205922312,15.7709323091,3.06507831186,23.4286145644,28.2012786465,994.948427878,8.91439667896E-4,630.332256222,411.920789123,0.0,0.0,0.0,0.0,0.0,0.0,0.0385890891593,0.657040523544
1.3,2.09556191954E7,1986.54192047,0.0,-41.7385326322,1528.10785069,0.0,0.0,0.00394297671671,41.5936715239,29972.9641251,4.6716256176E-9,0.0,32.106618930264354,42.4886863186,23.2668802645,17.446835495,2.46546482663,23.5446337051,28.133263248,994.96560302,8.91570658278E-4,630.446644236,411.935010682,0.0,0.0,0.0,0.0,0.0,0.0,0.0418041302982,0.771223564982
1.4,2.0955614861E7,2139.35268993,0.0,-44.9491951643,1528.10753462,0.0,0.0,0.00457292052773,44.7931908725,29968.644782,5.83474902421E-9,0.0,32.10663218721262,46.2192380838,24.6240671456,19.1777507776,1.86451297331,23.6352715033,28.0797783587,994.98415185,8.91712144505E-4,630.570202236,411.950369974,0.0,0.0,0.0,0.0,0.0,0.0,0.0450189995716,0.894578985429
1.5,2.09556102056E7,2292.16342662,0.0,-48.1598590688,1528.10719514,0.0,0.0,0.00524952708481,47.9927115887,29964.0054869,7.17648788659E-9,0.0,32.106646426168204,50.031430349,25.8849904148,20.9608966683,1.26256410424,23.7006219668,28.0410243035,995.004074293,8.91864130413E-4,630.702934595,411.966867001,0.0,0.0,0.0,0.0,0.0,0.0,0.0482336837765,1.02711550113
1.6,2.09556052291E7,2444.97412818,0.0,-51.3705244438,1528.10683224,0.0,0.0,0.0059727964389,51.1922337702,29959.0462397,8.70960060236E-9,0.0,32.10666164713111,53.9242818427,27.042611935,22.7922081965,0.659947511515,23.7407542475,28.0171454219,995.025370271,8.92026620121E-4,630.844846015,411.984501765,0.0,0.0,0.0,0.0,0.0,0.0,0.0514481697132,1.16884247693
1.7,2.09555999315E7,2597.78479228,0.0,-54.5811913872,1528.10644594,0.0,0.0,0.0067427286453,54.3917575148,29953.7670401,1.04468456099E-8,0.0,32.10667785010134,57.8952453085,28.0901355719,24.6661727627,0.0569842808961,23.7557113833,28.0082303115,995.048039696,8.92199618035E-4,630.995941519,412.003274268,0.0,0.0,0.0,0.0,0.0,0.0,0.0546624441865,1.31976992695
1.8,2.09555943128E7,2750.59541659,0.0,-57.7918599972,1528.10603622,0.0,0.0,0.00755932376296,57.5912829201,29948.1678881,1.24009813763E-8,0.0,32.106695035078914,61.9400945243,29.0211414564,26.5757040282,-0.546008803946,23.7455095256,28.0143119835,995.072082478,8.92383128845E-4,631.156226458,412.023184512,0.0,0.0,0.0,0.0,0.0,0.0,0.0578764940051,1.47990851522
1.9,2.09555883731E7,2903.40599875,0.0,-61.0025303716,1528.10560308,0.0,0.0,0.00842258185406,60.7908100838,29942.2487834,1.45847664119E-8,0.0,32.10671320206384,66.0528654356,29.8297327461,28.5120710807,-1.14871533122,23.7101376515,28.0353679223,995.09749852,8.92577157527E-4,631.325706507,412.0442325,0.0,0.0,0.0,0.0,0.0,0.0,0.0610903059827,1.64926955643
2.0,2.09555821123E7,3056.21653642,0.0,-64.2132026086,1528.10514654,0.0,0.0,0.00933250298443,63.9903391036,29936.009726,1.70109592541E-8,0.0,32.10673235115612,70.2258677851,30.5106887852,30.4648992127,-1.75081532854,23.6495577599,28.0713200449,995.124287721,8.92781709342E-4,631.504387669,412.066418234,0.0,0.0,0.0,0.0,0.0,0.0,0.0643038669378,1.82786501669
2.1,2.09555755305E7,3209.02702727,0.0,-67.4238768062,1528.10466658,0.0,0.0,0.0102890872247,67.1898700772,29929.4507155,1.96923184963E-8,0.0,32.10675248215575,74.4497802069,31.0596167046,32.4222552238,-2.351981352,23.5637055525,28.1220345628,995.152449972,8.92996789834E-4,631.692276273,412.089741717,0.0,0.0,0.0,0.0,0.0,0.0,0.0675171636938,2.01570751436
2.2,2.09555686275E7,3361.83746896,0.0,-70.6345530625,1528.1041632,0.0,0.0,0.0112923346462,70.3894031023,29922.5717519,2.26416027611E-8,0.0,32.10677359526278,78.7138356585,31.4730921397,34.3708240683,-2.95187462076,23.4524916004,28.1873217542,995.181985161,8.93222404837E-4,631.889378971,412.114202951,0.0,0.0,0.0,0.0,0.0,0.0,0.0707301830798,2.21281032088
2.3,2.09555614036E7,3514.64785913,0.0,-73.8452314753,1528.10363642,0.0,0.0,0.0123422453257,73.5889382766,29915.3728349,2.58715707139E-8,0.0,32.10679569037719,83.0060956875,31.7487792143,36.2961752885,-3.55014122236,23.3158029955,28.2669356583,995.212893168,8.93458560468E-4,632.095702747,412.139801941,0.0,0.0,0.0,0.0,0.0,0.0,0.0739429119304,2.41918736168
2.4,2.09555538585E7,3667.45819546,0.0,-77.0559121429,1528.10308622,0.0,0.0,0.0134388193438,76.7884756977,29907.8539642,2.9394981076E-8,0.0,32.10681876749901,87.3138023738,31.8855205014,38.18310802,-4.14640841498,23.1535054912,28.3605737095,995.245173871,8.93705263131E-4,632.311254909,412.166538689,0.0,0.0,0.0,0.0,0.0,0.0,0.0771553370865,2.63485321714
2.5,2.09555459924E7,3820.2684756,0.0,-80.2665951632,1528.10251261,0.0,0.0,0.0145820567846,79.9880154635,29900.0151396,3.32245926188E-8,0.0,32.10684282672823,91.6237873838,31.8833894232,40.0160539516,-4.74028105466,22.9654461294,28.4678763351,995.278827138,8.93962519515E-4,632.536043093,412.194413198,0.0,0.0,0.0,0.0,0.0,0.0,0.0803674453948,2.85982312357
2.6,2.09555378052E7,3973.0786972,0.0,-83.4772806342,1528.10191558,0.0,0.0,0.0157719577349,83.1875576714,29891.856361,3.73731641624E-8,0.0,32.10686786796488,95.9229101529,31.7437003661,41.7795101983,-5.33133817752,22.7514563561,28.5884265433,995.313852835,8.94230336597E-4,632.770075264,412.223425471,0.0,0.0,0.0,0.0,0.0,0.0,0.0835792237088,3.09411297424
2.7,2.09555292969E7,4125.88885793,0.0,-86.687968654,1528.10129514,0.0,0.0,0.0170085222861,86.3871024194,29883.377628,4.18534545719E-8,0.0,32.106893891208976,100.198493259,31.4689753107,43.4584700984,-5.91912976942,22.5113556225,28.7217495352,995.350250822,8.94508721639E-4,633.013359713,412.253575513,0.0,0.0,0.0,0.0,0.0,0.0,0.0867906588886,3.33773932047
2.8,2.09555204676E7,4278.69895545,0.0,-89.8986593207,1528.10065129,0.0,0.0,0.0182917505314,89.5866498049,29874.5789404,4.6678222787E-8,0.0,32.106920896560524,104.43872342,31.0628694903,45.0388203051,-6.50317375778,22.2449554677,28.8673123779,995.388020952,8.94797682193E-4,633.265905061,412.284863326,0.0,0.0,0.0,0.0,0.0,0.0,0.0900017378014,3.59071937273
2.9,2.09555113172E7,4431.50898741,0.0,-93.1093527322,1528.09998402,0.0,0.0,0.0196216425704,92.7861999259,29865.460298,5.18602277944E-8,0.0,32.106948883919536,108.632991128,30.5300619491,46.5076771376,-7.08295326308,21.9520640752,29.024523781,995.427163074,8.95097226094E-4,633.527720258,412.317288916,0.0,0.0,0.0,0.0,0.0,0.0,0.0932124473217,3.85307100185
3.0,2.09555018457E7,4584.31895147,0.0,-96.3200489865,1528.09929334,0.0,0.0,0.0209981985031,95.9857528798,29856.0217004,5.74122286361E-8,0.0,32.10697785338603,112.772149811,29.8761193761,47.8536430123,-7.65791414981,21.6324912928,29.1927340225,995.46767703,8.95407361467E-4,633.798814584,412.350852285,0.0,0.0,0.0,0.0,0.0,0.0,0.0964227743316,4.1248127402
3.1,2.09554920532E7,4737.1288453,0.0,-99.5307481819,1528.09857925,0.0,0.0,0.0224214184358,99.1853087645,29846.2631473,6.33469844236E-8,0.0,32.10700780486003,116.848684956,29.1073429655,49.0669733345,-8.22746291945,21.2860540975,29.371235075,995.509562659,8.95728096725E-4,634.079197647,412.385553438,0.0,0.0,0.0,0.0,0.0,0.0,0.0996327057209,4.40596378293
3.2,2.09554819396E7,4889.93866654,0.0,-102.741450416,1528.09784174,0.0,0.0,0.0238913024764,102.384867678,29836.1846385,6.96772543274E-8,0.0,32.10703873844153,120.856793175,28.2306082319,50.1396537677,-8.7909649895,20.912582484,29.5592609837,995.552819792,8.96059440567E-4,634.368879386,412.421392379,0.0,0.0,0.0,0.0,0.0,0.0,0.102842228388,4.69654398935
3.3,2.09554715049E7,5042.74841287,0.0,-105.952155787,1528.09708082,0.0,0.0,0.0254078507368,105.584429717,29825.7861737,7.64157975872E-8,0.0,32.10707065403057,124.792379246,27.2532068466,51.0653958471,-9.34774340479,20.5119257466,29.7559885528,995.597448255,8.96401401981E-4,634.667870072,412.458369112,0.0,0.0,0.0,0.0,0.0,0.0,0.106051329239,4.99657388418
3.4,2.09554607491E7,5195.55808193,0.0,-109.162864394,1528.09629649,0.0,0.0,0.0269710633341,108.78399498,29815.0677524,8.35753735211E-8,0.0,32.10710355182716,128.652984824,26.1826979563,51.8395645698,-9.89707802765,20.0839591156,29.9605383975,995.64344787,8.96753990244E-4,634.976180305,412.496483643,0.0,0.0,0.0,0.0,0.0,0.0,0.109259995188,5.30607465902
3.5,2.09554496723E7,5348.36767138,0.0,-112.373576333,1528.09548874,0.0,0.0,0.0285809403866,111.983563565,29804.0293745,9.11687414971E-8,0.0,32.10713743163131,132.437665494,25.0267744492,52.4590545694,-10.438205254,19.6285907028,30.1719764176,995.690818453,8.97117214921E-4,635.293821018,412.535735975,0.0,0.0,0.0,0.0,0.0,0.0,0.112468213161,5.62506817375
3.6,2.09554382744E7,5501.1771789,0.0,-115.584291704,1528.09465757,0.0,0.0,0.0302374820171,115.183135568,29792.6710396,9.92086609686E-8,0.0,32.107172293543044,136.146833388,23.7931475802,52.9221320236,-10.9703183009,19.1457686977,30.3893157504,995.739559813,8.97491085867E-4,635.620803476,412.576126113,0.0,0.0,0.0,0.0,0.0,0.0,0.115675970089,5.95357695801
3.7,2.09554265555E7,5653.98660212,0.0,-118.795010603,1528.093803,0.0,0.0,0.0319406883532,118.382711089,29780.9927473,1.07707891479E-7,0.0,32.107208137562374,139.78208122,22.4894514959,53.228258109,-11.49256811,18.6354887469,30.6115192574,995.789671756,8.97875613225E-4,635.957139276,412.617654063,0.0,0.0,0.0,0.0,0.0,0.0,0.118883252916,6.29162421275
3.8,2.09554145154E7,5806.79593871,0.0,-122.00573313,1528.092925,0.0,0.0,0.0336905595232,121.582290224,29768.9944973,1.1667919261E-7,0.0,32.10724496368933,143.346001109,21.1231676844,53.3779073001,-12.0040649061,18.0978014402,30.8375025933,995.841154079,8.98270807428E-4,636.302840348,412.660319829,0.0,0.0,0.0,0.0,0.0,0.0,0.122090048593,6.6392338118
3.9,2.09554021543E7,5959.60518634,0.0,-125.216459382,1528.0920236,0.0,0.0,0.0354870956618,124.781873072,29756.6762891,1.26135324054E-7,0.0,32.107282771823925,146.842008474,19.7015682535,53.3723907721,-12.503880446,17.5328198125,31.0661379048,995.894006578,8.986766792E-4,636.657918958,412.704123417,0.0,0.0,0.0,0.0,0.0,0.0,0.125296344083,6.99643030345
4.0,2.09553894721E7,6112.41434265,0.0,-128.427189457,1528.09109878,0.0,0.0,0.0373302969057,127.98145973,29744.0381225,1.36089045574E-7,0.0,32.107321562166184,150.274178232,18.2316762214,53.2136920977,-12.9910509864,16.9407267622,31.296258194,995.948229041,8.99093239555E-4,637.022387702,412.749064833,0.0,0.0,0.0,0.0,0.0,0.0,0.128502126358,7.3632389122
4.1,2.09553764689E7,6265.22340531,0.0,-131.637923454,1528.09015054,0.0,0.0,0.0392201633956,131.181050295,29731.0799971,1.46553117017E-7,0.0,32.107361334716124,153.647097723,16.7202406275,52.9043196861,-13.4645809895,16.321782276,31.5266623759,996.003821249,8.99520499798E-4,637.396259516,412.79514408,0.0,0.0,0.0,0.0,0.0,0.0,0.131707382401,7.73968554036
4.2,2.09553631445E7,6418.03237198,0.0,-134.84866147,1528.08917889,0.0,0.0,0.0411566952755,134.380644866,29717.8019123,1.57540298317E-7,0.0,32.107402089273755,156.965738561,15.1737241553,52.4471781614,-13.9234475763,15.6763303417,31.756121046,996.060782982,8.99958471523E-4,637.779547668,412.842361166,0.0,0.0,0.0,0.0,0.0,0.0,0.134912099206,8.1257967699
4.3,2.09553494991E7,6570.84124031,0.0,-138.059403603,1528.08818382,0.0,0.0,0.0431398926949,137.58024354,29704.203868,1.69063349518E-7,0.0,32.10744382593912,160.235347809,13.5983010358,51.8454591746,-14.366605724,15.0048054215,31.9833829613,996.119114011,9.00407166618E-4,638.172265762,412.890716096,0.0,0.0,0.0,0.0,0.0,0.0,0.138116263777,8.52159986422
4.4,2.09553355327E7,6723.65000796,0.0,-141.270149952,1528.08716534,0.0,0.0,0.0451697558036,140.779846415,29690.2858635,1.81135030704E-7,0.0,32.107486544812225,163.461357678,11.9998631943,51.1025509602,-14.792994192,14.3077383547,32.207182223,996.178814102,9.00866597262E-4,638.574427739,412.940208876,0.0,0.0,0.0,0.0,0.0,0.0,0.14131986313,8.92712276997
4.5,2.09553212451E7,6876.4586726,0.0,-144.480900614,1528.08612345,0.0,0.0,0.0472462847568,143.979453588,29676.0478985,1.93768102084E-7,0.0,32.1075302458931,166.649312146,10.3840328548,50.2219652109,-15.2015421433,13.5857615556,32.426246133,996.239883017,9.01336775925E-4,638.98604788,412.990839512,0.0,0.0,0.0,0.0,0.0,0.0,0.144522884292,9.34239411897
4.6,2.09553066365E7,7029.26723187,0.0,-147.691655688,1528.08505813,0.0,0.0,0.0493694797131,147.179065158,29661.4899726,2.06975323967E-7,0.0,32.10757492908177,169.804808407,8.75618008985,49.2072794569,-15.5911764155,12.8396133696,32.6393036773,996.302320511,9.01817715371E-4,639.4071408,413.04260801,0.0,0.0,0.0,0.0,0.0,0.0,0.147725314303,9.76744323018
4.7,2.09552917068E7,7182.07568345,0.0,-150.902415272,1528.08396941,0.0,0.0,0.0515393408345,150.378681221,29646.6120854,2.20769456733E-7,0.0,32.10762059437825,172.933450891,7.12144406655,48.0620930189,-15.9608293752,12.0701414606,32.8450945731,996.366126335,9.02309428656E-4,639.837721454,413.095514377,0.0,0.0,0.0,0.0,0.0,0.0,0.150927140214,10.2023001116
4.8,2.0955276456E7,7334.88402497,0.0,-154.113179463,1528.08285726,0.0,0.0,0.0537558682874,153.578301877,29631.4142362,2.35163260892E-7,0.0,32.107667241882574,176.040815514,5.48475696891,46.7899946629,-16.309447273,11.2783051016,33.0423787947,996.431300234,9.02811929131E-4,640.277805137,413.149558618,0.0,0.0,0.0,0.0,0.0,0.0,0.154128349088,10.6469954624
4.9,2.09552608841E7,7487.69225412,0.0,-157.323948359,1528.08172171,0.0,0.0,0.0560190622403,156.777927221,29615.8964248,2.50169497021E-7,0.0,32.10771487159476,179.132421917,3.85086977471,45.3945402705,-16.6359990033,10.4651762598,33.2299464775,996.497841947,9.03325230439E-4,640.727407484,413.204740742,0.0,0.0,0.0,0.0,0.0,0.0,0.157328928002,11.101560675
5.0,2.09552449912E7,7640.50036854,0.0,-160.53472206,1528.08056273,0.0,0.0,0.0583289228663,159.977557353,29600.0586506,2.65800925835E-7,0.0,32.10776348351483,-177.786288441,2.22437921439,43.8792390909,-16.9394851494,9.63193937745,33.4066280795,996.565751209,9.03849346518E-4,641.18654447,413.261060753,0.0,0.0,0.0,0.0,0.0,0.0,0.160528864044,11.5660278371
5.1,2.09552287772E7,7793.30836588,0.0,-163.745500662,1528.07938034,0.0,0.0,0.0606854503415,163.177192369,29583.9009132,2.82070308135E-7,0.0,32.10781307764282,-174.709970305,0.609755349337,42.2475474294,-17.218947188,8.77988977188,33.5713046647,996.635027748,9.043842916E-4,641.655232411,413.31851866,0.0,0.0,0.0,0.0,0.0,0.0,0.163728144316,12.0404297338
5.2,2.09552122421E7,7946.11624382,0.0,-166.956284264,1528.07817453,0.0,0.0,0.0630886448464,166.376832368,29567.423212,2.98990404823E-7,0.0,32.107863653878745,-171.633390578,-0.988630725619,40.5028689184,-17.4734767087,7.91043060027,33.7229181599,996.705671287,9.04930080215E-4,642.133487965,413.377114469,0.0,0.0,0.0,0.0,0.0,0.0,0.166926755934,12.5247998502
5.3,2.09551953859E7,8098.92400001,0.0,-170.167072964,1528.07694531,0.0,0.0,0.065538506563,169.576477447,29550.6255465,3.16573976911E-7,0.0,32.107915212422654,-168.551443864,-2.56647951937,38.6485608064,-17.7022244977,7.0250683626,33.8604814241,996.777681546,9.05486727183E-4,642.621328136,413.436848188,0.0,0.0,0.0,0.0,0.0,0.0,0.170124686027,13.0191723731
5.4,2.09551782087E7,8251.7316321,0.0,-173.377866859,1528.07569267,0.0,0.0,0.0680350356805,172.776127704,29533.5079163,3.34833785542E-7,0.0,32.10796775317455,-165.459169116,-4.1195365878,36.6879459518,-17.9044093271,6.12540694417,33.9830879632,996.851058235,9.06054247626E-4,643.118770267,413.497719823,0.0,0.0,0.0,0.0,0.0,0.0,0.173321921737,13.5235821938
5.5,2.09551607104E7,8404.53913776,0.0,-176.588666049,1528.07441662,0.0,0.0,0.0705782323872,175.975783237,29516.0703208,3.53782591958E-7,0.0,32.108021276134465,-162.351768747,-5.64356727939,34.6243304336,-18.0793262909,5.21314023169,34.0899211213,996.925801063,9.06632656959E-4,643.625832048,413.559729383,0.0,0.0,0.0,0.0,0.0,0.0,0.176518450222,14.0380649102
5.6,2.0955142891E7,8557.34651465,0.0,-179.799470631,1528.07311714,0.0,0.0,0.0731680968789,179.175444143,29498.3127595,3.73433157508E-7,0.0,32.108075781302446,-159.22463144,-7.13433333229,32.4610268619,-18.2263545271,4.29004336885,34.1802625801,997.001909732,9.07221970895E-4,644.142531515,413.622876875,0.0,0.0,0.0,0.0,0.0,0.0,0.179714258652,14.5626568294
5.7,2.09551247505E7,8710.15376041,0.0,-183.010280703,1528.07179425,0.0,0.0,0.0758046293533,182.37511052,29480.2352318,3.93798243688E-7,0.0,32.10813126877849,-156.073359702,-8.58757194149,30.2013835798,-18.3449641764,3.35796274982,34.2535000043,997.079383937,9.07822205445E-4,644.668887048,413.687162306,0.0,0.0,0.0,0.0,0.0,0.0,0.182909334213,15.0973949698
5.8,2.09551062889E7,8862.96087272,0.0,-186.221096363,1528.07044795,0.0,0.0,0.0784878300107,185.574782465,29461.8377372,4.14890612064E-7,0.0,32.10818773846267,-152.893803036,-9.99897799354,27.8488199933,-18.434722434,2.41880488051,34.3091336838,997.158223371,9.08433376917E-4,645.204917376,413.752585685,0.0,0.0,0.0,0.0,0.0,0.0,0.186103664107,15.642317064
5.9,2.09550875063E7,9015.76784922,0.0,-189.431917709,1528.06907822,0.0,0.0,0.0812176990568,188.774460078,29443.1202751,4.36723024383E-7,0.0,32.10824519045497,-149.68209733,-11.3641902472,25.4068682128,-18.4952985715,1.47452426633,34.3467820389,997.238427719,9.09055501918E-4,645.750641574,413.819147019,0.0,0.0,0.0,0.0,0.0,0.0,0.189297235548,16.1974615611
6.0,2.09550684025E7,9168.57468758,0.0,-192.642744839,1528.06768508,0.0,0.0,0.0839942366989,191.974143454,29424.082845,4.59308242481E-7,0.0,32.10830362475545,-146.434710803,-12.6787823102,22.8792210446,-18.5264678196,0.5271105109,34.3661858748,997.319996661,9.09688597354E-4,646.306079066,413.886846316,0.0,0.0,0.0,0.0,0.0,0.0,0.192490035768,16.7628676297
6.1,2.09550489777E7,9321.38138546,0.0,-195.853577852,1528.06626852,0.0,0.0,0.0868174431504,195.173832692,29404.7254462,4.82659028325E-7,0.0,32.10836304126413,-143.148496391,-13.9382593156,20.2697861119,-18.5281140304,-0.421425168803,34.3672112962,997.402929873,9.10332680431E-4,646.871249626,413.955683586,0.0,0.0,0.0,0.0,0.0,0.0,0.195682052013,17.3385751598
6.2,2.09550292318E7,9474.1879405,0.0,-199.064416845,1528.06482854,0.0,0.0,0.0896873186257,198.37352789,29385.0480783,5.06788144016E-7,0.0,32.10842344008105,-139.820750027,-15.1380612178,17.5827454964,-18.5002310603,-1.36906378933,34.3498512216,997.487227025,9.10987768654E-4,647.446173379,414.025658836,0.0,0.0,0.0,0.0,0.0,0.0,0.198873271547,17.9246247662
6.3,2.09550091648E7,9626.99435038,0.0,-202.275261916,1528.06336515,0.0,0.0,0.0926038633451,201.573229146,29365.0507405,5.31708351778E-7,0.0,32.10848482130623,-136.449273641,-16.2735736014,14.8226197941,-18.4429228428,-2.31379257822,34.3142254628,997.57288778,9.11653879831E-4,648.0308708,414.096772075,0.0,0.0,0.0,0.0,0.0,0.0,0.202063681648,18.5210577909
6.4,2.09549887768E7,9779.80061275,0.0,-205.486113164,1528.06187834,0.0,0.0,0.0955670775297,204.772936556,29344.7334322,5.57432413971E-7,0.0,32.10854718473971,-133.032441064,-17.3401467979,11.9943348539,-18.3564021514,-3.25361884706,34.2605793706,997.6599118,9.12331032069E-4,648.625362717,414.169023311,0.0,0.0,0.0,0.0,0.0,0.0,0.205253269611,19.1279163061
6.5,2.09549680676E7,9932.60672527,0.0,-208.696970686,1528.06036811,0.0,0.0,0.098576961407,207.972650219,29324.0961529,5.83973093111E-7,0.0,32.10861053058152,-129.569264235,-18.3331239317,9.10328877347,-18.2409880771,-4.18658352781,34.189281073,997.748298736,9.13019243778E-4,649.229670311,414.242412554,0.0,0.0,0.0,0.0,0.0,0.0,0.208442022747,19.7452431167
6.6,2.09549470374E7,10085.4126856,0.0,-211.907834581,1528.05883446,0.0,0.0,0.101633515206,211.172370233,29303.138902,6.11343151814E-7,0.0,32.1086748586317,-126.059456406,-19.2478782495,6.15541598874,-18.0971022778,-5.11077414972,34.1008173662,997.838048239,9.13718533669E-4,649.843815117,414.316939813,0.0,0.0,0.0,0.0,0.0,0.0,0.211629928386,20.3730817637
6.7,2.0954925686E7,10238.2184914,0.0,-215.118704947,1528.05727739,0.0,0.0,0.104736739161,214.372096695,29281.8616787,6.39555352854E-7,0.0,32.10874016919027,-122.503488275,-20.0798597171,3.15724460172,-17.9252640791,-6.02433704901,33.9957883438,997.929159951,9.14428920757E-4,650.467819026,414.392605096,0.0,0.0,0.0,0.0,0.0,0.0,0.214816973873,21.0114765266
6.8,2.09549040136E7,10391.0241403,0.0,-218.329581881,1528.0556969,0.0,0.0,0.107886633508,217.571829703,29260.2644824,6.6862245917E-7,0.0,32.10880646205728,-118.902632474,-20.8246504043,0.115942532705,-17.7260845307,-6.9254886245,33.8749008748,998.021633511,9.15150424362E-4,651.101704284,414.469408413,0.0,0.0,0.0,0.0,0.0,0.0,0.218003146571,21.6604724268
6.9,2.09548820201E7,10543.82963,0.0,-221.540465482,1528.05409299,0.0,0.0,0.111083198488,220.771569354,29238.3473125,6.98557233794E-7,0.0,32.10887373723276,-115.258991493,-21.4780276331,-2.96065222358,-17.5002595425,-7.8125254772,33.738961063,998.115468551,9.15883064106E-4,651.745493494,414.547349773,0.0,0.0,0.0,0.0,0.0,0.0,0.22118843386,22.3201152305
7.0,2.09548597055E7,10696.6349581,0.0,-224.751355849,1528.05246567,0.0,0.0,0.114326434345,223.971315747,29216.1101683,7.29372439941E-7,0.0,32.108941994916755,-111.575504236,-22.0360332653,-6.0640218995,-17.2485622399,-8.68383330091,33.5888658347,998.210664698,9.16626859916E-4,652.399209618,414.626429186,0.0,0.0,0.0,0.0,0.0,0.0,0.224372823139,22.9904514516
7.1,2.09548370698E7,10849.4401223,0.0,-227.962253077,1528.05081492,0.0,0.0,0.117616341326,227.171068979,29193.5530491,7.61080840971E-7,0.0,32.10901123490928,-107.855926929,-22.4950469087,-9.18498394979,-16.9718346887,-9.53789442164,33.4255938167,998.307221576,9.17381832025E-4,653.062875978,414.706646661,0.0,0.0,0.0,0.0,0.0,0.0,0.227556301825,23.6715283552
7.2,2.09548141131E7,11002.2451203,0.0,-231.173157267,1528.04914076,0.0,0.0,0.120952919683,230.370829148,29170.6759543,7.93695200365E-7,0.0,32.10908145731039,-104.104785182,-22.851860275,-12.313733826,-16.6709791481,-10.3732939161,33.2501956711,998.405138801,9.18148000973E-4,653.736516254,414.788002209,0.0,0.0,0.0,0.0,0.0,0.0,0.230738857351,24.3633939605
7.3,2.09547908352E7,11155.0499497,0.0,-234.384068516,1528.04744317,0.0,0.0,0.12433616967,233.570596352,29147.4788831,8.27228281791E-7,0.0,32.10915266212012,-100.327295601,-23.1037495149,-15.4399170462,-16.3469490123,-11.1887242726,33.0637840571,998.504415984,9.18925387605E-4,654.420154489,414.870495838,0.0,0.0,0.0,0.0,0.0,0.0,0.233920477172,25.0660970443
7.4,2.09547672363E7,11307.8546082,0.0,-237.594986923,1528.04572217,0.0,0.0,0.127766091547,236.770370688,29123.9618348,8.61692849068E-7,0.0,32.10922484943849,-96.5292573948,-23.2485421301,-18.5527300776,-16.0007395981,-11.9829885879,32.8675233872,998.605052734,9.19714013075E-4,655.113815089,414.954127561,0.0,0.0,0.0,0.0,0.0,0.0,0.23710114876,25.7796871439
7.5,2.09547433162E7,11460.6590934,0.0,-240.805912584,1528.04397774,0.0,0.0,0.131242685573,239.970152254,29100.1248087,8.97101666147E-7,0.0,32.10929801906556,-92.7169166553,-23.2846751029,-21.6410472995,-15.6333789317,-12.7550023251,32.6626195392,998.707048649,9.20513898843E-4,655.817522821,415.038897386,0.0,0.0,0.0,0.0,0.0,0.0,0.240280859605,26.5042145609
7.6,2.09547190751E7,11613.4634029,0.0,-244.016845599,1528.0422099,0.0,0.0,0.134765952017,243.169941148,29075.9678041,9.33467497147E-7,0.0,32.10937217130136,-88.8968083249,-23.2112411959,-24.6935690607,-15.2459186789,-13.5037936831,32.4503096736,998.810403328,9.2132506668E-4,656.531302819,415.124805324,0.0,0.0,0.0,0.0,0.0,0.0,0.243459597218,27.2397303642
7.7,2.09546945128E7,11766.2675346,0.0,-247.227786065,1528.04041863,0.0,0.0,0.138335891145,246.369737467,29051.4908202,9.70803106362E-7,0.0,32.10944730594593,-85.0755828122,-23.0280209664,-27.6989838789,-14.8394253481,-14.2285026528,32.2318522955,998.915116361,9.22147538664E-4,657.255180582,415.211851385,0.0,0.0,0.0,0.0,0.0,0.0,0.24663734913,27.9862863937
7.8,2.09546696295E7,11919.0714859,0.0,-250.43873408,1528.03860394,0.0,0.0,0.141952503231,249.56954131,29026.6938564,1.00912125825E-6,0.0,32.10952342299931,-81.2598256771,-22.7354988696,-30.6461364178,-14.4149718844,-14.9283788549,32.0085176803,999.021187333,9.22981337187E-4,657.989181977,415.300035581,0.0,0.0,0.0,0.0,0.0,0.0,0.249814102889,28.7439352638
7.9,2.09546444251E7,12071.8752546,0.0,-253.649689743,1528.03676583,0.0,0.0,0.145615788551,252.769352774,29001.5769117,1.04843471744E-6,0.0,32.109600522661545,-77.4558794607,-22.3348628034,-33.5241922376,-13.973629755,-15.6027782694,31.7815787697,999.128615825,9.23826484947E-4,658.733333236,415.389357921,0.0,0.0,0.0,0.0,0.0,0.0,0.252989846065,29.5127303666
8.0,2.09546188996E7,12224.6788383,0.0,-256.860653152,1528.0349043,0.0,0.0,0.149325747384,255.969171956,28976.1399855,1.08875624866E-6,0.0,32.10967860473267,-73.6696765294,-21.827987485,-36.3227905383,-13.5164616104,-16.2511589807,31.5523026209,999.237401413,9.24683004956E-4,659.487660964,415.479818418,0.0,0.0,0.0,0.0,0.0,0.0,0.256164566249,30.2927258761
8.1,2.0954593053E7,12377.4822346,0.0,-260.071624404,1528.03301935,0.0,0.0,0.153082380014,259.168998955,28950.3830771,1.13009861689E-6,0.0,32.10975766941272,-69.9065907659,-21.2174030271,-39.0321771754,-13.044514587,-16.8730760667,31.3219424786,999.347543665,9.25550920539E-4,660.252192135,415.571417082,0.0,0.0,0.0,0.0,0.0,0.0,0.25933825105,31.0839767511
8.2,2.09545668853E7,12530.2854414,0.0,-263.282603598,1528.03111098,0.0,0.0,0.156885686728,262.368833868,28924.3061855,1.17247458726E-6,0.0,32.10983771650176,-66.1713142151,-20.5062509051,-41.6433119626,-12.5588143024,-17.4681757686,31.0917305148,999.459042149,9.26430255332E-4,661.026954094,415.664153923,0.0,0.0,0.0,0.0,0.0,0.0,0.2625108881,31.8865387397
8.3,2.09545403964E7,12683.0884561,0.0,-266.493590832,1528.02917918,0.0,0.0,0.160735667816,265.568676793,28897.90931,1.21589692503E-6,0.0,32.109918746299805,-62.4677626433,-19.698230099,-44.1479464494,-12.0603595756,-18.0361890739,30.862871269,999.571896422,9.27321033286E-4,661.81197456,415.758028955,0.0,0.0,0.0,0.0,0.0,0.0,0.26568246505,32.7004683822
8.4,2.09545135865E7,12835.8912764,0.0,-269.704586204,1528.02722397,0.0,0.0,0.164632323572,268.768527828,28871.1924498,1.26037839573E-6,0.0,32.11000075850692,-58.7990116717,-18.7975365217,-46.5386706735,-11.55011789,-18.5769248466,30.636535801,999.68610604,9.28223278667E-4,662.607281627,415.853042187,0.0,0.0,0.0,0.0,0.0,0.0,0.268852969574,33.5258230159
8.5,2.09544864555E7,12988.6939001,0.0,-272.915589811,1528.02524533,0.0,0.0,0.168575654294,271.968387071,28844.1556042,1.30593176495E-6,0.0,32.11008375342313,-55.1672629777,-17.8087988987,-48.8089295774,-11.0290216053,-19.0902626311,30.4138565551,999.801670553,9.29137016054E-4,663.412903762,415.949193632,0.0,0.0,0.0,0.0,0.0,0.0,0.272022389365,34.3626607781
8.6,2.09544590034E7,13141.4963247,0.0,-276.126601753,1528.02324326,0.0,0.0,0.172565660283,275.168254618,28816.7987721,1.35256979853E-6,0.0,32.110167730848495,-51.5738382428,-16.7370140897,-50.9530116195,-10.497964908,-19.5761452496,30.1959229199,999.918589504,9.30062270344E-4,664.228869812,416.046483302,0.0,0.0,0.0,0.0,0.0,0.0,0.275190712141,35.2110406102
8.7,2.09544312302E7,13294.2985479,0.0,-279.337622127,1528.02121778,0.0,0.0,0.176602341842,278.368130569,28789.121953,1.40030526249E-6,0.0,32.11025269088306,-48.0191971909,-15.5874844749,-52.9660134722,-9.95780148329,-20.0345713042,29.9837774579,1000.03686243,9.3099906675E-4,665.055208999,416.144911208,0.0,0.0,0.0,0.0,0.0,0.0,0.278357925638,36.0710222621
8.8,2.09544031359E7,13447.1005675,0.0,-282.548651032,1528.01916887,0.0,0.0,0.18068569928,281.56801502,28761.1251457,1.449150923E-6,0.0,32.11033863352685,-44.5029752685,-14.3657595512,-54.8437855319,-9.40934288169,-20.4655876851,29.7784127678,1000.15648887,9.31947430803E-4,665.891950927,416.244477362,0.0,0.0,0.0,0.0,0.0,0.0,0.281524017617,36.9426662958
8.9,2.09543747205E7,13599.9023809,0.0,-285.759688564,1528.01709653,0.0,0.0,0.184815732909,284.76790807,28732.8083497,1.49911954647E-6,0.0,32.11042555877993,-41.0240362273,-13.0775833451,-56.5828633029,-8.85335754424,-20.8692821745,29.5807689355,1000.27746836,9.32907388352E-4,666.73912558,416.345181777,0.0,0.0,0.0,0.0,0.0,0.0,0.28468897586,37.8260340895
9.0,2.0954345984E7,13752.703986,0.0,-288.970734823,1528.01500078,0.0,0.0,0.188992443047,287.967809816,28704.1715638,1.5502238995E-6,0.0,32.11051346674234,-37.5805350132,-11.7288487146,-58.18038963,-8.2905704485,-21.2457762267,29.3917315247,1000.39980041,9.33878965566E-4,667.596763323,416.447024466,0.0,0.0,0.0,0.0,0.0,0.0,0.287852788172,38.721187842
9.1,2.09543169263E7,13905.5053803,0.0,-292.181789907,1528.0128816,0.0,0.0,0.19321583001,291.167720356,28675.2147874,1.60247674879E-6,0.0,32.11060235731413,-34.169986829,-10.3255591194,-59.6340323616,-7.72166333103,-21.5952179919,29.212130052,1000.52348454,9.34862188932E-4,668.464894907,416.550005439,0.0,0.0,0.0,0.0,0.0,0.0,0.291015442379,39.6281905765
9.2,2.09542875476E7,14058.3065615,0.0,-295.392853914,1528.01073899,0.0,0.0,0.19748589412,294.367639787,28645.9380195,1.65589086133E-6,0.0,32.11069223059534,-30.7893389075,-8.87379801218,-60.9419014453,-7.14727544083,-21.9177756425,29.0427368913,1000.64852027,9.3585708526E-4,669.343551465,416.654124711,0.0,0.0,0.0,0.0,0.0,0.0,0.294176926333,40.5471061451
9.3,2.09542578478E7,14211.1075273,0.0,-298.603926941,1528.00857296,0.0,0.0,0.201802635705,297.567568208,28616.3412591,1.71047900425E-6,0.0,32.110783086586025,-27.4350423046,-7.37970565937,-62.1024687809,-6.56800477715,-22.2136310499,28.8842665495,1000.7749071,9.3686368168E-4,670.232764519,416.759382293,0.0,0.0,0.0,0.0,0.0,0.0,0.297337227907,41.4779992332
9.4,2.09542278268E7,14363.9082753,0.0,-301.815009087,1528.00638351,0.0,0.0,0.206166055094,300.767505717,28586.4245055,1.76625394491E-6,0.0,32.11087492518623,-24.1031218162,-5.84946293448,-63.1144934896,-5.9844097644,-22.4829738504,28.7373752561,1000.90264455,9.37882005647E-4,671.132565977,416.8657782,0.0,0.0,0.0,0.0,0.0,0.0,0.300496334998,42.4209353632
9.5,2.09541974848E7,14516.7088032,0.0,-305.02610045,1528.00417063,0.0,0.0,0.21057615262,303.96745241,28556.1877577,1.82322845085E-6,0.0,32.110967746596,-20.7892428744,-4.28928143667,-63.9769546404,-5.39701131854,-22.7259959319,28.6026608128,1001.0317321,9.38912084936E-4,672.042988137,416.973312443,0.0,0.0,0.0,0.0,0.0,0.0,0.303654235526,43.3759808999
9.6,2.09541668216E7,14669.5091087,0.0,-308.237201127,1528.00193432,0.0,0.0,0.21503292862,307.167408386,28525.6310147,1.88141528982E-6,0.0,32.11106155071539,-17.4887749554,-2.7053991547,-64.6889929607,-4.80629526006,-22.9428863633,28.4806626471,1001.16216926,9.39953947649E-4,672.964063687,417.081985035,0.0,0.0,0.0,0.0,0.0,0.0,0.306810917436,44.343203054
9.7,2.09541358373E7,14822.3091893,0.0,-311.448311219,1527.99967459,0.0,0.0,0.219536383434,310.367373743,28494.7542757,1.94082722976E-6,0.0,32.11115633754445,-14.1968516108,-1.10408081194,-65.2498626502,-4.21271503115,-23.1338267862,28.3718620217,1001.29395551,9.41007622213E-4,673.895825709,417.191795992,0.0,0.0,0.0,0.0,0.0,0.0,0.309966368697,45.3226698873
9.8,2.09541045319E7,14975.1090428,0.0,-314.659430821,1527.99739144,0.0,0.0,0.224086517406,313.567348578,28463.5575397,2.00147703884E-6,0.0,32.11125210718323,-10.9084277132,0.508378027567,-65.6588941284,-3.61669467684,-23.2989872785,28.2766823517,1001.42709033,9.42073137378E-4,674.838307676,417.302745324,0.0,0.0,0.0,0.0,0.0,0.0,0.3131205773,46.3144503168
9.9,2.09540729054E7,15127.9086668,0.0,-317.870560033,1527.99508485,0.0,0.0,0.228683330883,316.767332989,28432.0408057,2.06337748542E-6,0.0,32.11134885963178,-7.61833488508,2.12564405037,-65.9154683536,-3.01863205239,-23.4385226993,28.1954895885,1001.56157321,9.43150522224E-4,675.791543458,417.414833047,0.0,0.0,0.0,0.0,0.0,0.0,0.316273531264,47.3186141196
10.0,2.09540409578E7,15280.708059,0.0,-321.081698952,1527.99275484,0.0,0.0,0.233326824216,319.967327074,28400.2040727,2.12654133805E-6,0.0,32.11144659489015,-4.32133636889,3.74133747365,-66.0190032425,-2.41890222177,-23.5525695195,28.12859263,1001.69740361,9.44239806159E-4,676.755567322,417.528059174,0.0,0.0,0.0,0.0,0.0,0.0,0.319425218629,48.3352319375
10.1,2.09540086891E7,15433.507217,0.0,-324.292847677,1527.99040141,0.0,0.0,0.238016997761,323.167330931,28368.0473399,2.19098136555E-6,0.0,32.11154531295839,-1.01218279231,5.34902254301,-65.9689526743,-1.81786101474,-23.6412431401,28.0762437261,1001.834581,9.45341018918E-4,677.730413932,417.642423719,0.0,0.0,0.0,0.0,0.0,0.0,0.322575627464,49.3643752817
10.2,2.09539760992E7,15586.3061385,0.0,-327.504006305,1527.98802454,0.0,0.0,0.242753851874,326.367344656,28335.5706062,2.25671033693E-6,0.0,32.111645013836565,2.31432960379,6.94219832402,-65.7648185338,-1.21584871204,-23.7046356971,28.0386388493,1001.97310486,9.46454190567E-4,678.716118353,417.757926696,0.0,0.0,0.0,0.0,0.0,0.0,0.325724745859,50.4061165375
10.3,2.09539431883E7,15739.1048212,0.0,-330.715174935,1527.98562425,0.0,0.0,0.247537386919,329.567368349,28302.7738707,2.32374102139E-6,0.0,32.11174569752471,5.6632966882,8.51429092252,-65.4061762281,-0.61319383067,-23.7428143562,28.0159180084,1002.11297463,9.47579351501E-4,679.712716051,417.874568119,0.0,0.0,0.0,0.0,0.0,0.0,0.328872561932,51.4605289696
10.4,2.09539099562E7,15891.9032626,0.0,-333.926353666,1527.98320054,0.0,0.0,0.25236760326,332.767402107,28269.6571322,2.39208618832E-6,0.0,32.111847364122895,9.03963860989,10.0586483393,-64.8927140362,-0.0102169826244,-23.7558200914,28.0081654857,1002.25418977,9.48716532448E-4,680.720242894,417.992348002,0.0,0.0,0.0,0.0,0.0,0.0,0.332019063826,52.5276867263
10.5,2.0953876403E7,16044.7014605,0.0,-337.137542594,1527.98075339,0.0,0.0,0.257244501266,335.967446028,28236.2203899,2.46175860747E-6,0.0,32.11195001363116,12.4480251186,11.5685392403,-64.2242865089,0.592765218027,-23.7436669506,28.0154099854,1002.39674973,9.49865764469E-4,681.738735157,418.11126636,0.0,0.0,0.0,0.0,0.0,0.0,0.335164239709,53.6076648451
10.6,2.09538425287E7,16197.4994125,0.0,-340.348741818,1527.97828282,0.0,0.0,0.26216808131,339.167500209,28202.4636427,2.53277104867E-6,0.0,32.112053645949565,15.8927930922,13.037156993,-63.400981859,1.19543622389,-23.7063418056,28.0376246852,1002.54065396,9.51027078957E-4,682.768229519,418.231323208,0.0,0.0,0.0,0.0,0.0,0.0,0.338308077776,54.7005392572
10.7,2.09538083333E7,16350.2971163,0.0,-343.559951437,1527.97578881,0.0,0.0,0.267138343767,342.367564749,28168.3868895,2.605136282E-6,0.0,32.11215826127817,19.3778558552,14.4576303712,-62.4232028549,1.7974756226,-23.6438045851,28.0747271878,1002.68590189,9.5220050764E-4,683.808763069,418.352518559,0.0,0.0,0.0,0.0,0.0,0.0,0.341450566248,55.8063867931
10.8,2.09537738167E7,16503.0945695,0.0,-346.771171548,1527.97327138,0.0,0.0,0.272155289018,345.567639744,28133.9901294,2.67886707787E-6,0.0,32.11226385951703,22.9066046067,15.8230423347,-61.2917600997,2.39855522852,-23.5559889941,28.1265793763,1002.83249295,9.53386082583E-4,684.860373304,418.474852429,0.0,0.0,0.0,0.0,0.0,0.0,0.344591693371,56.9252851873
10.9,2.0953738979E7,16655.8917698,0.0,-349.98240225,1527.97073052,0.0,0.0,0.277218917444,348.767725293,28099.2733612,2.75397620677E-6,0.0,32.11237044066618,26.4818032197,17.1264582295,-60.007975731,2.99833522197,-23.4428037172,28.1929871792,1002.98042658,9.54583836186E-4,685.923098133,418.598324833,0.0,0.0,0.0,0.0,0.0,0.0,0.347731447419,58.0573130838
11.0,2.09537038202E7,16808.6887148,0.0,-353.19364364,1527.96816623,0.0,0.0,0.282329229434,351.967821494,28064.2365839,2.83047643952E-6,0.0,32.11247800482571,30.1054788402,18.3609645925,-58.5737945117,3.59646036104,-23.3041341088,28.2737002594,1003.1297022,9.55793801186E-4,686.996975879,418.722935786,0.0,0.0,0.0,0.0,0.0,0.0,0.350869816693,59.2025500412
11.1,2.09536683403E7,16961.4854022,0.0,-356.404895817,1527.96557851,0.0,0.0,0.287486225377,355.167928445,28028.8797965,2.90838054714E-6,0.0,32.112586551995655,33.7788120475,19.5197194494,-56.991898034,4.19255629255,-23.1398443707,28.3684116451,1003.28031922,9.57016010659E-4,688.082045278,418.848685303,0.0,0.0,0.0,0.0,0.0,0.0,0.354006789519,60.361076538
11.2,2.09536325392E7,17114.2818297,0.0,-359.616158879,1527.96296736,0.0,0.0,0.292689905667,358.368046242,27993.2029979,2.9877013009E-6,0.0,32.112696082176086,37.5020317679,20.5960145428,-55.265816411,4.78622599014,-22.9497802178,28.4767573249,1003.43227707,9.58250498022E-4,689.178345485,418.9755734,0.0,0.0,0.0,0.0,0.0,0.0,0.357142354253,61.5329739781
11.3,2.09535964171E7,17267.0779949,0.0,-362.827432924,1527.96033278,0.0,0.0,0.297940270702,361.568174984,27957.2061869,3.06845147229E-6,0.0,32.112806595367054,41.2743215147,21.583349301,-53.4000305154,5.37704634991,-22.7337720308,28.5983158374,1003.58557515,9.59497297031E-4,690.285916071,419.103600092,0.0,0.0,0.0,0.0,0.0,0.0,0.360276499276,62.7183246962
11.4,2.09535599738E7,17419.8738955,0.0,-366.03871805,1527.95767477,0.0,0.0,0.303237320882,364.76831477,27920.8893625,3.15064383308E-6,0.0,32.11291809166862,45.0937446682,22.4755155537,-51.4000567526,5.96456497597,-22.4916384949,28.7326078858,1003.74021287,9.60756441784E-4,691.404797028,419.232765395,0.0,0.0,0.0,0.0,0.0,0.0,0.363409212997,63.917211963
11.5,2.09535232093E7,17572.6695291,0.0,-369.250014355,1527.95499333,0.0,0.0,0.308581056612,367.968465695,27884.2525236,3.23429115523E-6,0.0,32.11303057088083,48.9571971638,23.26669106,-49.2725057449,6.54829719105,-22.2231907201,28.8790960177,1003.89618962,9.62027966723E-4,692.535028771,419.363069324,0.0,0.0,0.0,0.0,0.0,0.0,0.366540483854,65.1297199914
11.6,2.09534861238E7,17725.4648934,0.0,-372.461321938,1527.95228845,0.0,0.0,0.313971478301,371.16862786,27847.295669,3.31940621098E-6,0.0,32.11314403330376,52.8603958758,23.9515388896,-47.0251064369,7.12772330976,-21.9282368337,29.0371844114,1004.05350481,9.63311906631E-4,693.676652137,419.494511897,0.0,0.0,0.0,0.0,0.0,0.0,0.369670300313,66.3559339416
11.7,2.09534487171E7,17878.259986,0.0,-375.672640897,1527.94956015,0.0,0.0,0.319408586359,374.36880136,27810.0187976,3.40600177279E-6,0.0,32.11325847883747,56.7979099386,24.5253086975,-44.6666882057,7.70228621455,-21.6065870351,29.2062188159,1004.21215782,9.64608296639E-4,694.829708391,419.627093128,0.0,0.0,0.0,0.0,0.0,0.0,0.372798650866,67.5959399267
11.8,2.09534109892E7,18031.0548046,0.0,-378.883971329,1527.94680841,0.0,0.0,0.324892381202,377.568986294,27772.4219084,3.49409061337E-6,0.0,32.11337390738201,60.7632401215,24.9839350857,-42.2071157238,8.27138927696,-21.258059095,29.385486694,1004.37214804,9.65917172222E-4,695.994239222,419.760813034,0.0,0.0,0.0,0.0,0.0,0.0,0.375925524034,68.8498250191
11.9,2.09533729403E7,18183.8493469,0.0,-382.095313333,1527.94403324,0.0,0.0,0.330422863249,380.76918276,27734.505,3.58368550575E-6,0.0,32.113490319137455,64.748948189,25.3241276897,-39.6571745214,8.83439466857,-20.8824842755,29.5742176229,1004.53347484,9.67238569203E-4,697.170286753,419.895671631,0.0,0.0,0.0,0.0,0.0,0.0,0.37905090837,70.1176772555
12.0,2.09533345702E7,18336.6436105,0.0,-385.306667007,1527.94123464,0.0,0.0,0.336000032923,383.969390856,27696.2680714,3.67479922311E-6,0.0,32.11360771410386,68.7468341887,25.5434475085,-37.028409211,9.39062210776,-20.4797136405,29.7715840064,1004.69613761,9.68572523752E-4,698.357893534,420.031668936,0.0,0.0,0.0,0.0,0.0,0.0,0.38217479245,71.3995856433
12.1,2.09532958789E7,18489.437593,0.0,-388.518032449,1527.9384126,0.0,0.0,0.341623890648,387.169610679,27657.7111214,3.76744453894E-6,0.0,32.11372609218129,72.7481552387,25.6403643884,-34.3329207153,9.93934808896,-20.0496247184,29.9767021578,1004.86013572,9.6991907239E-4,699.557102551,420.168804966,0.0,0.0,0.0,0.0,0.0,0.0,0.385297164884,72.6956401664
12.2,2.09532568666E7,18642.2312922,0.0,-391.729409757,1527.93556713,0.0,0.0,0.347294436856,390.369842327,27618.8341489,3.86163422702E-6,0.0,32.11384545346979,76.7438752409,25.6142915171,-31.583132996,10.4798056414,-19.5921284692,30.1886338084,1005.02546852,9.71278251989E-4,700.767957224,420.307079737,0.0,0.0,0.0,0.0,0.0,0.0,0.388418014308,74.0059317911
12.3,2.09532175331E7,18795.0247057,0.0,-394.94079903,1527.93269823,0.0,0.0,0.353011671978,393.570085898,27579.6371526,3.95738106131E-6,0.0,32.113965797969456,80.7249316639,25.4655942046,-28.7915430728,11.0111846633,-19.1071764966,30.4063881007,1005.19213539,9.72650099769E-4,701.990501411,420.446493267,0.0,0.0,0.0,0.0,0.0,0.0,0.391537329388,75.3305524722
12.4,2.09531778784E7,18947.8178311,0.0,-398.152200366,1527.92980589,0.0,0.0,0.358775596453,396.77034149,27540.1201313,4.05469781609E-6,0.0,32.11408712578033,84.6825036593,25.1955719857,-25.9704699995,11.5326328739,-18.5947684399,30.6289241172,1005.36013568,9.74034653306E-4,703.224779409,420.587045572,0.0,0.0,0.0,0.0,0.0,0.0,0.394655098821,76.6695951592
12.5,2.09531379026E7,19100.6106661,0.0,-401.363613862,1527.92689012,0.0,0.0,0.364586210718,399.9706092,27500.2830839,4.15359726585E-6,0.0,32.114209436802476,88.6082656369,24.8064149643,-23.1318186088,12.0432574252,-18.0549594639,30.8551539979,1005.52946875,9.7543195053E-4,704.470835955,420.728736669,0.0,0.0,0.0,0.0,0.0,0.0,0.397771311332,78.0231538024
12.6,2.09530976057E7,19253.4032083,0.0,-404.575039617,1527.92395092,0.0,0.0,0.370443515219,403.170889127,27460.1260091,4.25409218543E-6,0.0,32.11433273113597,92.4946120477,24.3011370958,-20.2868722092,12.5421272053,-17.4878677581,31.0839466888,1005.70013393,9.76842029724E-4,705.728716231,420.871566577,0.0,0.0,0.0,0.0,0.0,0.0,0.400885955675,79.3913233593
12.7,2.09530569876E7,19406.1954555,0.0,-407.786477729,1527.92098827,0.0,0.0,0.376347510404,406.371181369,27419.6489056,4.35619534988E-6,0.0,32.114457008680866,96.3348422242,23.6834905606,-17.4461253177,13.028275863,-16.8936819441,31.3141323584,1005.87213058,9.7826492953E-4,706.998465862,421.015535312,0.0,0.0,0.0,0.0,0.0,0.0,0.403999020637,80.7741998005
12.8,2.09530160484E7,19558.9874052,0.0,-410.997928297,1527.9180022,0.0,0.0,0.382298196723,409.571486022,27378.8517724,4.45991953451E-6,0.0,32.11458226963724,100.123298191,22.9578663654,-14.6191634442,13.5007055711,-16.2726682808,31.5445075101,1006.04545803,9.79700688945E-4,708.280130923,421.160642892,0.0,0.0,0.0,0.0,0.0,0.0,0.407110495033,82.1718801166
12.9,2.0952974788E7,19711.7790551,0.0,-414.209391418,1527.91499268,0.0,0.0,0.38829557463,412.771803185,27337.734608,4.56527751493E-6,0.0,32.11470851390516,103.855452741,22.1291867465,-11.8145925568,13.9583915381,-15.6251775475,31.7738408046,1006.22011561,9.81149347326E-4,709.573757936,421.306889335,0.0,0.0,0.0,0.0,0.0,0.0,0.410220367709,83.5844623243
13.0,2.09529332065E7,19864.570403,0.0,-417.42086719,1527.91195973,0.0,0.0,0.394339644583,415.972132956,27296.2974113,4.67228206701E-6,0.0,32.11483574158468,107.527949177,21.2027948614,-9.04001675197,14.4002872621,-14.9516514781,32.0008795967,1006.39610265,9.8261094439E-4,710.879393876,421.454274658,0.0,0.0,0.0,0.0,0.0,0.0,0.413328627541,85.0120454732
13.1,2.09528913038E7,20017.3614463,0.0,-420.632355712,1527.90890335,0.0,0.0,0.400430407045,419.172475432,27254.540181,4.7809459669E-6,0.0,32.11496395257588,111.138597467,20.184346728,-6.3020593034,14.8253305127,-14.2526286133,32.2243571708,1006.57341849,9.84085520216E-4,712.197086171,421.602798881,0.0,0.0,0.0,0.0,0.0,0.0,0.416435263436,86.454729652
13.2,2.095284908E7,20170.1521829,0.0,-423.843857082,1527.90582353,0.0,0.0,0.406567862481,422.372830712,27212.4629158,4.89128199104E-6,0.0,32.115093146978815,114.686333876,19.0797095338,-3.6064199389,15.2324500048,-13.5287494386,32.4430006481,1006.75206243,9.85573115243E-4,713.526882706,421.75246202,0.0,0.0,0.0,0.0,0.0,0.0,0.419540264334,87.9126159955
13.3,2.09528065351E7,20322.9426102,0.0,-427.055371398,1527.90272027,0.0,0.0,0.412752011359,425.573198893,27170.0656144,5.00330291619E-6,0.0,32.11522332489357,118.171152383,17.8948694404,-0.957959963024,15.6205727167,-12.7807606697,32.6555395168,1006.93203379,9.87073770276E-4,714.868831821,421.903264096,0.0,0.0,0.0,0.0,0.0,0.0,0.422643619202,89.385806691
13.4,2.0952763669E7,20475.7327261,0.0,-430.266898759,1527.89959357,0.0,0.0,0.418982854152,428.773580073,27127.3482756,5.11702151927E-6,0.0,32.1153544862202,121.594016419,16.6358509821,1.6391934049,15.9886317868,-12.009518559,32.8607147186,1007.11333189,9.88587526485E-4,716.22298232,422.055205124,0.0,0.0,0.0,0.0,0.0,0.0,0.425745317042,90.8744049853
13.5,2.09527204817E7,20628.5225282,0.0,-433.478439261,1527.89644343,0.0,0.0,0.425260391335,431.97397435,27084.310898,5.23245057758E-6,0.0,32.115486631058786,124.956758954,15.3086492073,4.18153157773,16.3355749046,-11.2159910968,33.0572882088,1007.29595602,9.90114425404E-4,717.589383466,422.208285126,0.0,0.0,0.0,0.0,0.0,0.0,0.428845346885,92.3785151915
13.6,2.09526769733E7,20781.312014,0.0,-436.689993005,1527.89326986,0.0,0.0,0.431584623388,435.174381822,27040.9534803,5.34960286872E-6,0.0,32.115619759309396,128.261977892,13.919174904,6.66604508227,16.6603730952,-10.4012589983,33.2440528838,1007.4799055,9.91654508936E-4,718.968084988,422.362504118,0.0,0.0,0.0,0.0,0.0,0.0,0.431943697795,93.8982426959
13.7,2.09526331437E7,20934.1011814,0.0,-439.901560087,1527.89007284,0.0,0.0,0.437955550795,438.374802586,26997.2760212,5.46849117052E-6,0.0,32.1157538711721,131.512932416,12.4732126208,9.09010570002,16.9620297831,-9.56651537994,33.4198427579,1007.66517961,9.93207819355E-4,720.359137083,422.517862121,0.0,0.0,0.0,0.0,0.0,0.0,0.435040358867,95.433693965
13.8,2.0952588993E7,21086.8900278,0.0,-443.113140606,1527.88685239,0.0,0.0,0.444373174042,441.575236741,26953.2785193,5.58912826118E-6,0.0,32.11588896644695,134.713444535,10.9763907454,11.4513545947,17.2395900026,-8.71306404959,33.5835432499,1007.85177765,9.94774399301E-4,721.762590415,422.674359153,0.0,0.0,0.0,0.0,0.0,0.0,0.438135319228,96.9849765524
13.9,2.09525445211E7,21239.6785511,0.0,-446.32473466,1527.8836085,0.0,0.0,0.450837493619,444.775684383,26908.9609734,5.71152691908E-6,0.0,32.116025045434064,137.867808724,9.43416261991,13.7475994364,17.492149612,-7.84231635882,33.7341014309,1008.03969891,9.96354291788E-4,723.178496121,422.831995233,0.0,0.0,0.0,0.0,0.0,0.0,0.441228568039,98.5521991062
14.0,2.0952499728E7,21392.4667487,0.0,-449.536342347,1527.88034116,0.0,0.0,0.45734851002,447.976145612,26864.323382,5.835699923E-6,0.0,32.11616210793346,140.980711445,7.85179752268,15.9767223849,17.7188643604,-6.95578659188,33.8705360724,1008.22894266,9.97947540203E-4,724.60690581,422.990770381,0.0,0.0,0.0,0.0,0.0,0.0,0.44432009449,100.135471376
14.1,2.09524546138E7,21545.2546185,0.0,-452.747963766,1527.87705039,0.0,0.0,0.463906223742,451.176620525,26819.3657438,5.96166005199E-6,0.0,32.11630015404526,144.057161325,6.23438030994,18.1365998629,17.9189586479,-6.05508589611,33.9919473268,1008.4195082,9.99554188306E-4,726.047871569,423.150684616,0.0,0.0,0.0,0.0,0.0,0.0,0.447409887805,101.73490422
14.2,2.09524091784E7,21698.042158,0.0,-455.959599015,1527.87373618,0.0,0.0,0.470510635287,454.377109219,26774.0880574,6.08942008537E-6,0.0,32.11643918376951,147.102430057,4.58681854089,20.2250343438,18.0917338189,-5.14191478969,34.0975258707,1008.61139478,0.00100117428023,727.501445962,423.311737958,0.0,0.0,0.0,0.0,0.0,0.0,0.450497937242,103.350609613
14.3,2.09523634219E7,21850.829365,0.0,-459.171248191,1527.87039852,0.0,0.0,0.477161745158,457.577611794,26728.4903215,6.21899280275E-6,0.0,32.11657919720627,150.122003533,2.91385599314,22.239697879,18.236575831,-4.2180543154,34.1865613436,1008.80460169,0.0010028078605,728.967682034,423.473930426,0.0,0.0,0.0,0.0,0.0,0.0,0.453584232089,104.982700653
14.4,2.09523173442E7,22003.616237,0.0,-462.382911394,1527.86703742,0.0,0.0,0.483859553864,460.778128345,26682.5725346,6.35039098411E-6,0.0,32.11672019435565,153.121542328,1.22009158079,24.1780867837,18.3529621478,-3.28535594126,34.2584499209,1008.99912819,0.00100445497399,730.446633315,423.63726204,0.0,0.0,0.0,0.0,0.0,0.0,0.456668761668,106.631291568
14.5,2.09522709453E7,22156.4027717,0.0,-465.594588721,1527.86365288,0.0,0.0,0.490604061917,463.978658972,26636.3346953,6.4836274097E-6,0.0,32.1168621751177,156.106850379,-0.489997199422,26.0374867368,18.4404677154,-2.34573034032,34.3127008725,1009.19497353,0.00100611566598,731.938353818,423.801732821,0.0,0.0,0.0,0.0,0.0,0.0,0.459751515336,108.296497727
14.6,2.09522242252E7,22309.1889667,0.0,-468.80628027,1527.8602449,0.0,0.0,0.497395269832,467.179203773,26589.7768023,6.61871486007E-6,0.0,32.11700513969251,159.083850544,-2.21202706004,27.8149475235,18.4987698991,-1.40113521027,34.3489419747,1009.39213698,0.00100778998212,733.442898045,423.967342788,0.0,0.0,0.0,0.0,0.0,0.0,0.462832482481,109.978435643
14.7,2.0952177184E7,22461.9748199,0.0,-472.01798614,1527.85681348,0.0,0.0,0.504233178127,470.379762844,26542.8988541,6.75566611612E-6,0.0,32.117149087980145,162.058565608,-3.9416786245,29.5072667132,18.5276522746,-0.453562319315,34.3669236634,1009.59061778,0.00100947796845,734.960320989,424.134091962,0.0,0.0,0.0,0.0,0.0,0.0,0.465911652525,111.677222985
14.8,2.09521298216E7,22614.7603287,0.0,-475.229706429,1527.85335861,0.0,0.0,0.511117787326,473.580336284,26495.7008493,6.89449395905E-6,0.0,32.11729401998068,165.037103174,-5.67466363575,31.1109817117,18.5270071926,0.494976014821,34.3665218425,1009.79041519,0.00101117967138,736.490678136,424.301980364,0.0,0.0,0.0,0.0,0.0,0.0,0.468989014923,113.39297858
14.9,2.09520821381E7,22767.5454908,0.0,-478.441441235,1527.8498803,0.0,0.0,0.518049097954,476.780924191,26448.1827864,7.0352111703E-6,0.0,32.11743993589422,168.025642854,-7.40669021835,32.6223698363,18.4968370603,1.4424607903,34.347739287,1009.99152845,0.00101289513772,738.034025467,424.471008013,0.0,0.0,0.0,0.0,0.0,0.0,0.472064559164,115.125822428
15.0,2.09520341334E7,22920.3303039,0.0,-481.653190657,1527.84637854,0.0,0.0,0.525027110539,479.981526663,26400.3446639,7.17783053171E-6,0.0,32.1175868355208,171.030423999,-9.13342671737,34.0374563219,18.4372543136,2.38688029893,34.3107056116,1010.19395679,0.00101462441466,739.590419462,424.64117493,0.0,0.0,0.0,0.0,0.0,0.0,0.475138274772,116.875875705
15.1,2.09519858075E7,23073.1147657,0.0,-484.864954792,1527.84285334,0.0,0.0,0.532051825617,483.182143797,26352.1864805,7.32236482545E-6,0.0,32.11773471906052,174.057732151,-10.8504646442,35.3520304669,18.3484800775,3.32624398132,34.2556758055,1010.39769945,0.00101636754978,741.159917099,424.812481137,0.0,0.0,0.0,0.0,0.0,0.0,0.478210151303,118.643260772
15.2,2.09519371604E7,23225.8988738,0.0,-488.076733738,1527.83930469,0.0,0.0,0.539123243723,486.382775692,26303.7082347,7.46882683399E-6,0.0,32.11788358651347,177.113882204,-12.5532812994,36.561670468,18.2308415468,4.25859592769,34.1830273636,1010.60275566,0.00101812459104,742.742575864,424.984926654,0.0,0.0,0.0,0.0,0.0,0.0,0.481280178348,120.428101185
15.3,2.09518881921E7,23378.6826259,0.0,-491.288527595,1527.8357326,0.0,0.0,0.546241365398,489.583422444,26254.9099249,7.61722934008E-6,0.0,32.11803343777971,-179.794803908,-14.2372027209,37.6617778484,18.0847681435,5.18202780239,34.0932560763,1010.80912464,0.0010198955868,744.338453744,425.158511503,0.0,0.0,0.0,0.0,0.0,0.0,0.484348345534,122.230521699
15.4,2.09518389027E7,23531.4660196,0.0,-494.50033646,1527.83213706,0.0,0.0,0.553406191185,492.784084154,26205.7915497,7.76758512686E-6,0.0,32.118184273059335,-176.662027362,-15.8973677207,38.6476227552,17.9107865318,6.09469098606,33.9869705653,1011.01680563,0.00102168058583,745.947609236,425.333235704,0.0,0.0,0.0,0.0,0.0,0.0,0.487414642519,124.050648281
15.5,2.0951789292E7,23684.2490525,0.0,-497.712160431,1527.82851808,0.0,0.0,0.560617721633,495.984760917,26156.3531076,7.91990697774E-6,0.0,32.1183360922524,-173.481553022,-17.5286939372,39.5144017539,17.7095145991,6.99480775009,33.8648856775,1011.22579783,0.00102347963725,747.57010135,425.50909928,0.0,0.0,0.0,0.0,0.0,0.0,0.490479058999,125.888608116
15.6,2.09517393602E7,23837.0317224,0.0,-500.923999607,1527.82487565,0.0,0.0,0.567875957291,499.185452832,26106.594597,8.07420767651E-6,0.0,32.11848889545901,-170.247263163,-19.1258470371,40.2573100533,17.4816545262,7.88068130378,33.7278148714,1011.43610045,0.00102529279063,749.205989607,425.686102251,0.0,0.0,0.0,0.0,0.0,0.0,0.493541584702,127.744529613
15.7,2.09516891072E7,23989.8140269,0.0,-504.135854085,1527.82120977,0.0,0.0,0.575180898714,502.386159997,26056.5160165,8.23050000724E-6,0.0,32.11864268257925,-166.953227154,-20.6832144486,40.8716302959,17.227985088,8.75070458334,33.5766617437,1011.64771271,0.00102712009588,750.855334046,425.86424464,0.0,0.0,0.0,0.0,0.0,0.0,0.496602209392,129.618542418
15.8,2.09516385331E7,24142.5959636,0.0,-507.347723965,1527.81752044,0.0,0.0,0.582532546461,505.586882509,26006.1173645,8.38879675441E-6,0.0,32.11879745381317,-163.593789798,-22.194885307,41.3528400792,16.9493533365,9.60336768317,33.4124108594,1011.86063381,0.00102896160337,752.518195224,426.043526468,0.0,0.0,0.0,0.0,0.0,0.0,0.499660922868,131.51077742
15.9,2.09515876377E7,24295.3775302,0.0,-510.559609344,1527.81380767,0.0,0.0,0.589930901094,508.787620468,25955.3986395,8.54911070276E-6,0.0,32.11895320906089,-160.163680731,-23.6546386009,41.6967401413,16.6466658235,10.4372638623,33.2361180515,1012.07486295,0.00103081736381,754.194634221,426.223947757,0.0,0.0,0.0,0.0,0.0,0.0,0.502717714964,133.421366761
16.0,2.09515364211E7,24448.1587243,0.0,-513.771510321,1527.81007145,0.0,0.0,0.597375963177,511.988373969,25904.3598399,8.71145463743E-6,0.0,32.11910994842247,-156.658146509,-25.0559418314,41.8996045317,16.320879525,11.2510940915,33.0489003606,1012.29039933,0.00103268742836,755.884712642,426.405508529,0.0,0.0,0.0,0.0,0.0,0.0,0.50577257555,135.350443841
16.1,2.09514848834E7,24600.9395437,0.0,-516.983426993,1527.80631178,0.0,0.0,0.60486773328,515.189143112,25853.0009642,8.87584134381E-6,0.0,32.119267671798,-153.073105886,-26.3919627659,41.9583529752,15.9729926229,12.0436701373,32.8519257828,1012.50724213,0.00103457184856,757.588492617,426.588208808,0.0,0.0,0.0,0.0,0.0,0.0,0.50882549453,137.298143331
16.2,2.09514330245E7,24753.7199859,0.0,-520.19535946,1527.80252865,0.0,0.0,0.612406211975,518.389927995,25801.3220107,9.04228360775E-6,0.0,32.11942637938757,-149.405326914,-27.6555970438,41.8707439044,15.6040352987,12.8139162099,32.6464029837,1012.72539054,0.00103647067635,759.30603681,426.772048613,0.0,0.0,0.0,0.0,0.0,0.0,0.511876461844,139.264601182
16.3,2.09513808443E7,24906.5000486,0.0,-523.407307818,1527.79872208,0.0,0.0,0.619991399837,521.590728714,25749.322978,9.21079421543E-6,0.0,32.11958607119125,-145.652622039,-28.8395143865,41.6355842013,15.2150606795,13.5608692283,32.4335711307,1012.94484376,0.00103838396409,761.037408414,426.95702797,0.0,0.0,0.0,0.0,0.0,0.0,0.514925467468,141.249954628
16.4,2.0951328343E7,25059.2797295,0.0,-526.619272168,1527.79489206,0.0,0.0,0.627623297446,524.791545369,25697.0038645,9.38138595323E-6,0.0,32.11974674710914,-141.814054153,-29.9362258815,41.2529485548,14.8071360678,14.2836777778,32.2146899788,1013.16560095,0.00104031176455,762.782671161,427.1431469,0.0,0.0,0.0,0.0,0.0,0.0,0.517972501414,143.254342203
16.5,2.09512755205E7,25212.0590263,0.0,-529.831252605,1527.79103859,0.0,0.0,0.635301905386,527.992378057,25644.3646684,9.55407160813E-6,0.0,32.119908407241304,-137.89014283,-30.9381741602,40.7243976501,14.3813345702,14.9815998581,31.9910303292,1013.38766129,0.00104225413091,764.541889319,427.330405425,0.0,0.0,0.0,0.0,0.0,0.0,0.52101755373,145.277903744
16.6,2.09512223767E7,25364.8379365,0.0,-533.04324923,1527.78716166,0.0,0.0,0.643027224244,531.193226876,25591.4053883,9.72886396725E-6,0.0,32.12007105158786,-133.883056023,-31.837847171,40.0531804949,13.9387272249,15.6539995318,31.7638649654,1013.61102396,0.00104421111673,766.315127702,427.51880357,0.0,0.0,0.0,0.0,0.0,0.0,0.524060614498,147.320780404
