time,gePosition_ft_X,gePosition_ft_Y,gePosition_ft_Z,feVelocity_ft_s_X,feVelocity_ft_s_Y,feVelocity_ft_s_Z,altitudeMsl_ft,longitude_deg,latitude_deg,localGravity_ft_s2,eulerAngle_deg_Yaw,eulerAngle_deg_Pitch,eulerAngle_deg_Roll,bodyAngularRateWrtEi_deg_s_Roll,bodyAngularRateWrtEi_deg_s_Pitch,bodyAngularRateWrtEi_deg_s_Yaw,altitudeRateWrtMsl_ft_min,speedOfSound_ft_s,airDensity_slug_ft3,ambientPressure_lbf_ft2,ambientTemperature_dgR,aero_bodyForce_lbf_X,aero_bodyForce_lbf_Y,aero_bodyForce_lbf_Z,aero_bodyMoment_ftlbf_L,aero_bodyMoment_ftlbf_M,aero_bodyMoment_ftlbf_N,mach,dynamicPressure_lbf_ft2,trueAirspeed_nmi_h
0.0,2.09556463253E7,0.0,0.0,0.0,0.0,0.0,30000.0,0.0,0.0,32.1065364063,0.0,-0.0,0.0,9.999999999960824,19.999999999978947,29.999999999939774,0.0,994.853991834,8.91300230208E-4,630.333405472,411.83924,0.0,0.0,-0.0,0.0,-0.0,0.0,0.0,0.0,0.0
0.1,2.09556461659E7,7.77706631909E-7,0.0,0.0,2.32534282532E-5,3.19951050252,29999.8405577,2.12636285968E-12,0.0,32.1065368662,3.008085855166492,1.9953043942142732,1.0247242068416562,9.452156675152027,20.433139441110235,29.79407512141682,-191.9706301512,994.85468063,8.91305280419E-4,630.337770167,411.839806896,0.0,0.0,0.0,0.0,-0.0,0.0,0.00321606954163,0.0045621193314,1.8956648569
0.2,2.09556456859E7,6.22165305763E-6,0.0,0.0,9.32470270527E-5,6.3990210999,29999.3606311,1.70109032735E-11,0.0,32.1065383065,6.036798517153996,3.9776690376542088,2.0997397400216387,8.896728572923807,20.838948887144365,29.59580012126767,-383.941265994,994.856753928,8.91320481722E-4,630.350908046,411.841513271,0.0,0.0,0.0,0.0,-0.0,0.0,0.00643212568852,0.0182487886116,3.79132971965
0.3,2.09556448861E7,2.09980791367E-5,0.0,0.0,2.09903031191E-4,9.59853188979,29998.5607535,5.74118009231E-11,0.0,32.1065407287,9.092766107164723,5.941688656472935,3.2253100335020344,8.334444040720381,21.21754743394807,29.40606485182144,-575.9119133874,994.860209425,8.91345817228E-4,630.372804512,411.844357229,0.0,0.0,0.0,0.0,-0.0,0.0,0.00964815514105,0.0410609425071,5.68699465009
0.4,2.09556437662E7,4.97732248721E-5,0.0,0.0,3.73221449308E-4,12.7980429699,29997.4409248,1.36087239779E-10,0.0,32.106544133,12.182528624540884,7.8818271845047425,4.402001577948641,7.765988148134563,21.569081404285214,29.225703220834134,-767.882578194,994.86504712,8.91381286938E-4,630.403459565,411.848338772,0.0,0.0,0.0,0.0,-0.0,0.0,0.0128641446006,0.0730001393412,7.5826597104
0.5,2.09556423265E7,9.72133304695E-5,0.0,0.0,5.83202293683E-4,15.9975544379,29996.0011449,2.65795410207E-10,0.0,32.1065485192,15.312510927736648,9.792393767678037,5.630632902317165,7.19200340098508,21.893717648679647,29.05549206407955,-959.853266274,994.871267015,8.91426890853E-4,630.442873206,411.853457897,0.0,0.0,0.0,0.0,-0.0,0.0,0.0160800807696,0.114068561102,9.47832496307
0.6,2.09556405667E7,1.67984636415E-4,0.0,0.0,8.39845580231E-4,19.1970663914,29994.2414139,4.59294511135E-10,0.0,32.1065538874,18.48898440639811,11.667521944069783,6.91221141678422,6.6130909429236535,22.19163719360511,28.89615039454538,-1151.823983484,994.878869109,8.91482628973E-4,630.491045436,411.859714607,0.0,0.0,0.0,0.0,-0.0,0.0,0.0192959503516,0.164269013448,11.3739904708
0.7,2.0955638487E7,2.66753383551E-4,0.0,0.0,0.00114315132873,22.3965789283,29992.1617316,7.29342752202E-10,0.0,32.1065602376,21.7180149852142,13.501153021437299,8.2478564165073,6.029812198391476,22.463029276020546,28.748338969964692,-1343.7947356979998,994.887853403,8.91548501302E-4,630.547976257,411.867108901,0.0,0.0,0.0,0.0,-0.0,0.0,0.0225117400516,0.223604925717,13.2696562966
0.8,2.09556360874E7,3.98185813144E-4,0.0,0.0,0.00149311956261,25.5960921461,29989.762098,1.0886983559E-9,0.0,32.1065675699,25.00539519759283,15.287024926714716,9.638706474697006,5.442690910211831,22.70808579627921,28.61266012356418,-1535.765528766,994.898219896,8.9162450784E-4,630.61366567,411.875640778,0.0,0.0,0.0,0.0,-0.0,0.0,0.0257274365757,0.292080350927,15.1653225036
0.9,2.09556333678E7,5.66948166948E-4,0.0,0.0,0.00188975030778,28.7956061425,29987.0425131,1.55011955967E-9,0.0,32.1065758841,28.356558335555636,17.018668064559446,11.085809586680245,4.85221552703647,22.92699621290282,28.489657804113918,-1727.73636855,994.90996859,8.9171064859E-4,630.688113678,411.885310241,0.0,0.0,0.0,0.0,-0.0,0.0,0.0289430266319,0.369699965784,17.0609891551
1.0,2.09556303283E7,7.77706687291E-4,0.0,0.0,0.0023330435954,31.9951210153,29984.0029768,2.12636461814E-9,0.0,32.1065851803,31.776473202031973,18.689409988218724,12.589994847023751,4.25884189865367,23.119942897440833,28.379817775030197,-1919.707260918,994.923099483,8.91806923554E-4,630.771320283,411.896117288,0.0,0.0,0.0,0.0,-0.0,0.0,0.0321584969297,0.456469070686,18.9566563144
1.1,2.09556269688E7,0.00103512761714,0.0,0.0,0.00282299945843,35.1946368621,29980.6434889,2.83019180518E-9,0.0,32.1065954585,35.26951886686854,20.29239091052843,14.1517252312945,3.662996237910751,23.287096961561527,28.283567924746762,-2111.678211726,994.937612578,8.91913332737E-4,630.863285487,411.90806192,0.0,0.0,0.0,0.0,-0.0,0.0,0.0353738341804,0.552393589722,20.8523240451
1.2,2.09556232894E7,0.00134387720015,0.0,0.0,0.00335961793462,38.3941537806,29976.9640494,3.67435941606E-9,0.0,32.1066067187,38.83934014166333,21.82059223142443,15.770932309080372,3.0650783118598035,23.428614564339004,28.20127864641393,-2303.649226836,994.953507874,8.9202987614E-4,630.964009293,411.921144138,0.0,0.0,0.0,0.0,-0.0,0.0,0.0385890250973,0.657480070684,22.7479924107
1.3,2.095561929E7,0.00170862168079,0.0,0.0,0.00394289906512,41.5936718685,29972.9646581,4.67162576963E-9,0.0,32.1066189609,42.48868631861697,23.2668802647637,17.446835494999874,2.4654648266319197,23.544633705064648,28.133263247964504,-2495.62031211,994.970785371,8.92156553767E-4,631.073491705,411.935363942,0.0,0.0,0.0,0.0,-0.0,0.0,0.0418040563958,0.77173568506,24.6436614749
1.4,2.09556149706E7,0.00213402730433,0.0,0.0,0.00457284289359,44.7931912235,29968.645315,5.83474921042E-9,0.0,32.1066321851,46.21923808387884,24.624067145857865,19.177750777571138,1.8645129733068253,23.635271503244567,28.07977835862732,-2687.59147341,994.989445071,8.92293365623E-4,631.191732724,411.950721332,0.0,0.0,0.0,0.0,-0.0,0.0,0.0450189147937,0.895168228045,26.5393313014
1.5,2.09556103313E7,0.00262476031701,0.0,0.0,0.00524944946892,47.9927119433,29964.0060198,7.17648811084E-9,0.0,32.1066463913,50.03143034908478,25.88499041508179,20.960896668376183,1.2625641042392803,23.700621966699813,28.041024303469754,-2879.562716598,995.009486974,8.92440311711E-4,631.318732356,411.967216309,0.0,0.0,0.0,0.0,-0.0,0.0,0.0482335870109,1.02778611854,28.4350019537
1.6,2.09556053721E7,0.00318548696605,0.0,0.0,0.00597271884271,51.1922341256,29959.0467725,8.70960087327E-9,0.0,32.1066615795,53.92428184282249,27.042611935312667,22.792208196469332,0.659947511515201,23.740754247425564,28.01714542190496,-3071.5340475360003,995.03091108,8.92597392036E-4,631.454490604,411.984848873,0.0,0.0,0.0,0.0,-0.0,0.0,0.0514480597701,1.16959839915,30.3306734956
1.7,2.09556000929E7,0.00382087349972,0.0,0.0,0.00674265106954,54.391757868,29953.7675729,1.04468459322E-8,0.0,32.1066777498,57.89524530881071,28.09013557218993,24.666172762787117,0.05698428089926968,23.75571138326119,28.00823031142813,-3263.50547208,995.05371739,8.92764606603E-4,631.599007472,412.003619025,0.0,0.0,0.0,0.0,-0.0,0.0,0.0546623197967,1.32061473619,32.2263459907
1.8,2.09555944937E7,0.00453558616744,0.0,0.0,0.00755924620876,57.5912832683,29948.1684209,1.24009817564E-8,0.0,32.106694902,61.940094524466204,29.02114145669048,26.575704028298755,-0.5460088039415538,23.745509525600447,28.01431198346099,-3455.476996098,995.077905905,8.92941955417E-4,631.752282965,412.023526765,0.0,0.0,0.0,0.0,-0.0,-0.0,0.0578763538189,1.4808454197,34.1220195026
1.9,2.09555885746E7,0.00533429121981,0.0,0.0,0.00842250432197,60.7908104242,29942.2493162,1.45847668511E-8,0.0,32.1067130363,66.05286543562092,29.829732746377154,28.512071080895502,-1.1487153312111182,23.71013765148021,28.035367922309177,-3647.4486254519998,995.103476626,8.93129438482E-4,631.914317086,412.044572094,0.0,0.0,0.0,0.0,-0.0,-0.0,0.061090148568,1.65030136342,36.0176940947
2.0,2.09555823356E7,0.00622165490875,0.0,0.0,0.00933242547512,63.9903394332,29936.0102588,1.701095976E-8,0.0,32.1067321526,70.22586778555987,30.51068878555443,30.46489921289439,-1.7508153285369548,23.64955775981849,28.071320044883304,-3839.420365992,995.130429552,8.93327055806E-4,632.085109842,412.066755013,0.0,0.0,0.0,0.0,-0.0,-0.0,0.0643036907783,1.82899410481,37.9133698307
2.1,2.09555757766E7,0.0072023434875,0.0,0.0,0.0102890097387,67.1898703933,29929.4512483,1.96923190676E-8,0.0,32.1067522509,74.44978020699298,31.059616704916277,32.42225522402609,-2.3519813519961783,23.563705552489374,28.12203456278801,-4031.392223598,995.158764686,8.93534807393E-4,632.264661237,412.090075522,0.0,0.0,0.0,0.0,-0.0,-0.0,0.0675169671877,2.01693580504,39.8090467737
2.2,2.09555688976E7,0.00828102321071,0.0,0.0,0.0112922571846,70.3894034019,29922.5722846,2.26416034011E-8,0.0,32.1067733313,78.71383565869952,31.473092139980672,34.37082406850573,-2.951874620748828,23.452491600349443,28.18732175417017,-4223.364204114,995.188482028,8.93752693251E-4,632.452971277,412.114533623,0.0,0.0,0.0,0.0,-0.0,-0.0,0.0707299645374,2.21413924899,41.7047249872
2.3,2.09555616987E7,0.00946236033457,0.0,0.0,0.0123421678898,73.5889385569,29915.3733675,2.58715714328E-8,0.0,32.1067953936,83.00609568781955,31.7487792145825,36.296175288772844,-3.550141222345839,23.315802995476144,28.2669356582178,-4415.336313414,995.219581579,8.93980713386E-4,632.650039968,412.140129315,0.0,0.0,0.0,0.0,-0.0,-0.0,0.0739426695722,2.42061784528,43.600404534
2.4,2.09555541798E7,0.0107510211168,0.0,0.0,0.0134387419339,76.7884759558,29907.8544968,2.93949818823E-8,0.0,32.1068184381,87.31380237433628,31.885520501721842,38.1831080203088,-4.146408414968292,23.153505491165188,28.3605737094411,-4607.308557347999,995.25206334,8.94218867804E-4,632.855867315,412.166862599,0.0,0.0,0.0,0.0,-0.0,-0.0,0.0771550690408,2.63638562623,45.4960854773
2.5,2.0955546341E7,0.0121516718167,0.0,0.0,0.0145819794011,79.9880156965,29900.0156723,3.3224593518E-8,0.0,32.1068424645,91.62378738398053,31.883389423476437,40.01605395193741,-4.740281054645953,22.965446129400362,28.467876335054996,-4799.28094179,995.285927312,8.94467156514E-4,633.070453324,412.194733477,0.0,0.0,0.0,0.0,-0.0,-0.0,0.0803671496954,2.86145724785,47.3917678796
2.6,2.09555381822E7,0.0136689786954,0.0,0.0,0.0157718803785,83.1875578766,29891.8568936,3.73731651601E-8,0.0,32.106867473,95.92291015317457,31.743700366399636,41.77951019870498,-5.331338177500999,22.75145635608241,28.588426543251693,-4991.2534725959995,995.321173495,8.94725579522E-4,633.293798004,412.22374195,0.0,0.0,0.0,0.0,-0.0,-0.0,0.0835788982927,3.09584798989,49.2874518035
2.7,2.09555297035E7,0.0153076080157,0.0,0.0,0.0170084449571,86.3871025937,29883.3781606,4.18534556823E-8,0.0,32.1068934635,100.19849325960698,31.46897531102603,43.45847009881976,-5.919129769400508,22.511355622527088,28.721749535193627,-5183.226155622,995.357801891,8.94994136837E-4,633.525901359,412.253888017,0.0,0.0,0.0,0.0,-0.0,-0.0,0.0867903015933,3.33957375579,51.1831373111
2.8,2.09555209048E7,0.0170722260424,0.0,0.0,0.0182916732308,89.5866499456,29874.579473,4.66782240139E-8,0.0,32.1069204361,104.43872342106962,31.062869490597553,45.03882030554682,-6.503173757796255,22.24495546767491,28.867312377911887,-5375.1989967360005,995.395812502,8.95272828466E-4,633.766763398,412.28517168,0.0,0.0,0.0,0.0,-0.0,-0.0,0.0900013463619,3.59265107268,53.0788244644
2.9,2.09555117861E7,0.0189674990419,0.0,0.0,0.0196215652979,92.7862000301,29865.4608305,5.18602291421E-8,0.0,32.1069483908,108.63299112879567,30.530061949306372,46.50767713812837,-7.082953263034178,21.952064075168224,29.024523780909963,-5567.1720018060005,995.435205327,8.95561654419E-4,634.016384127,412.317592941,0.0,0.0,0.0,0.0,-0.0,-0.0,0.0932120193677,3.85509709141,54.9745133248
3.0,2.09555023475E7,0.0209980932829,0.0,0.0,0.0209981212595,95.9857529446,29856.0222329,5.74122301141E-8,0.0,32.1069773275,112.77214981174032,29.87611937629662,47.85364301282641,-7.657914149784857,21.63249129280532,29.19273402248135,-5759.145176676,995.47598037,8.95860614704E-4,634.274763554,412.351151799,0.0,0.0,0.0,0.0,-0.0,-0.0,0.0964223073845,4.12692958647,56.8702039536
3.1,2.0955492589E7,0.0231686750361,0.0,0.0,0.0224213412209,99.1853087871,29846.2636798,6.33469860391E-8,0.0,32.1070072462,116.8486849565331,29.10734296573404,49.06697333510066,-8.227462919429728,21.286054097469126,29.371235074958165,-5951.118527226,995.518137629,8.9616970933E-4,634.541901688,412.385848256,0.0,0.0,0.0,0.0,-0.0,-0.0,0.0996321971903,4.40816695605,58.7658964113
3.2,2.09554825105E7,0.0254839105742,0.0,0.0,0.0238912252908,102.384867655,29836.185171,6.96772560909E-8,0.0,32.1070381471,120.85679317565362,28.230608232073156,50.13965376829574,-8.79096498946882,20.912582483987464,29.559260983608088,-6143.092059299999,995.561677108,8.96488938307E-4,634.817798536,412.421682314,0.0,0.0,0.0,0.0,-0.0,-0.0,0.102841675568,4.698828222,60.6615907582
3.3,2.0955472112E7,0.0279484661723,0.0,0.0,0.0254077735815,105.584429646,29825.7867062,7.64157995093E-8,0.0,32.10707003,124.79237924695866,27.25320684677678,51.065395847706505,-9.347743404766796,20.511925746526636,29.755988552751372,-6335.06577876,995.606598807,8.96818301644E-4,635.102454107,412.458653972,0.0,0.0,0.0,0.0,-0.0,-0.0,0.106050729305,4.99893302981,62.5572870539
3.4,2.09554613936E7,0.0305670081075,0.0,0.0,0.026970986208,108.783994859,29815.068285,8.35753756029E-8,0.0,32.107102895,128.6529848245544,26.182697956398435,51.83956457045846,-9.8970780276198,20.08395911550534,29.960538397482125,-6527.039691540001,995.652902728,8.97157799351E-4,635.395868408,412.496763233,0.0,0.0,0.0,0.0,-0.0,-0.0,0.109259345194,5.3085016486,64.4529853574
3.5,2.09554503552E7,0.0333442026596,0.0,0.0,0.0285808632905,111.98356339,29804.0299071,9.11687437511E-8,0.0,32.1071367421,132.4376654946587,25.026774449362836,52.459054570046206,-10.43820525391218,19.62859070281719,30.171976417544982,-6719.0138034,995.700588871,8.9750743144E-4,635.698041451,412.536010097,0.0,0.0,0.0,0.0,-0.0,-0.0,0.112467510032,5.6275549711,66.3486857269
3.6,2.09554389969E7,0.0362847161105,0.0,0.0,0.0302374049511,115.183135337,29792.6715722,9.92086634058E-8,0.0,32.1071715712,136.14683338867835,23.79314758031412,52.922132024328995,-10.970318300855876,19.145768697664934,30.38931575037632,-6910.9881202199995,995.74965724,8.97867197919E-4,636.008973242,412.576394566,0.0,0.0,0.0,0.0,-0.0,-0.0,0.115675210621,5.95611451365,68.24438822
3.7,2.09554273186E7,0.0393932147448,0.0,0.0,0.0319406113163,118.382710798,29780.9932799,1.07707894094E-7,0.0,32.1072073825,139.78208122042184,22.48945149592389,53.22825810964426,-11.492568110029216,18.63548874682984,30.61151925734,-7102.96264788,995.800107834,8.98237098801E-4,636.328663793,412.617916641,0.0,0.0,0.0,0.0,-0.0,-0.0,0.118882433769,6.29420241615,70.1400928937
3.8,2.09554153203E7,0.0426743648495,0.0,0.0,0.0336904825169,121.582289871,29768.9950299,1.1667919542E-7,0.0,32.1072441759,143.3460011088231,21.123167684447203,53.3779073007646,-12.004064906108596,18.097801440193383,30.83750259329151,-7294.93739226,995.851940656,8.98617134097E-4,636.657113113,412.660576323,0.0,0.0,0.0,0.0,-0.0,-0.0,0.122089166289,6.64184144206,72.0357998037
3.9,2.09554030021E7,0.0461328327144,0.0,0.0,0.0354870186859,124.781872654,29756.6768219,1.26135327068E-7,0.0,32.1072819514,146.84200847477942,19.701568253531057,53.37239077287224,-12.50388044601429,17.532819812530963,31.066137904791308,-7486.91235924,995.905155707,8.99007303818E-4,636.994321211,412.704373613,0.0,0.0,0.0,0.0,-0.0,-0.0,0.125295394997,6.9990549784,73.9315090052
4.0,2.0955390364E7,0.0497732846319,0.0,0.0,0.03733021996,127.981459243,29744.0386553,1.36089048802E-7,0.0,32.107320709,150.27417823251795,18.231676221374457,53.21369209846275,-12.991050986373478,16.94072676222674,31.296258193980574,-7678.88755458,995.959752988,8.99407607976E-4,637.340288098,412.749308513,0.0,0.0,0.0,0.0,-0.0,-0.0,0.128501106717,7.36586703566,75.8272205524
4.1,2.09553774058E7,0.0536003868971,0.0,0.0,0.0392200864801,131.181049738,29731.0805299,1.46553120471E-7,0.0,32.1073604487,153.64709772336178,16.720240627441726,52.904319686820514,-13.464580989468562,16.321782276042217,31.52666237585051,-7870.862984280001,996.015732503,8.99818046583E-4,637.695013785,412.795381025,0.0,0.0,0.0,0.0,-0.0,-0.0,0.131706288278,7.74230224786,77.7229344984
4.2,2.09553641278E7,0.0576188058081,0.0,0.0,0.0411566183909,134.380644235,29717.8024452,1.57540302009E-7,0.0,32.1074011706,156.96573856168683,15.173724155199107,52.44717816209837,-13.923447576265133,15.676330341680183,31.756121045921965,-8062.8386541,996.073094251,9.00238619653E-4,638.058498283,412.842591148,0.0,0.0,0.0,0.0,-0.0,-0.0,0.134910926514,8.12838587248,79.6186508955
4.3,2.09553505297E7,0.0618332076659,0.0,0.0,0.0431398158398,137.580242833,29704.2044009,1.69063353437E-7,0.0,32.1074428745,160.23534780903722,13.598301035719423,51.84545917532354,-14.366605723998626,15.00480542146294,31.983382961200242,-8254.81456998,996.131838235,9.00669327197E-4,638.430741601,412.890938886,0.0,0.0,0.0,0.0,-0.0,-0.0,0.138115008265,8.52414379045,81.5143697947
4.4,2.09553366117E7,0.0662482587743,0.0,0.0,0.045169678978,140.779845628,29690.2863965,1.81135034869E-7,0.0,32.1074855607,163.46135767884155,11.999863194201453,51.10255096100437,-14.792994191933012,14.307738354714319,32.2071822229459,-8446.79073768,996.191964457,9.01110169229E-4,638.811743753,412.94042424,0.0,0.0,0.0,0.0,-0.0,-0.0,0.141318520378,8.92960250616,83.4100912465
4.5,2.09553223737E7,0.0708686254404,0.0,0.0,0.0472462079608,143.979452719,29676.0484316,1.93768106508E-7,0.0,32.107529229,166.6493121462489,10.384032854640337,50.22196521161547,-15.201542143205929,13.58576155551822,32.42624613295747,-8638.767163139999,996.253472918,9.01561145763E-4,639.20150475,412.99104721,0.0,0.0,0.0,0.0,-0.0,-0.0,0.144521449704,9.34478914742,85.3058152999
4.6,2.09553078158E7,0.0756989739743,0.0,0.0,0.0493694029469,147.179064203,29661.4905058,2.06975328653E-7,0.0,32.1075738794,169.80480840731195,8.756180089696734,49.20727945763876,-15.591176415548505,12.839613369604264,32.63930367724292,-8830.74385218,996.316363621,9.02022256811E-4,639.600024603,413.042807798,0.0,0.0,0.0,0.0,-0.0,-0.0,0.147723783102,9.76973146546,87.2015420033
4.7,2.09552929379E7,0.0807439706892,0.0,0.0,0.0515392640975,150.378680179,29646.6126186,2.20769461698E-7,0.0,32.107619512,172.93345089110267,7.121444066372941,48.062093019656785,-15.960829375161635,12.07014146058567,32.845094573023225,-9022.72081074,996.380636567,9.02493502389E-4,640.007303324,413.095706007,0.0,0.0,0.0,0.0,-0.0,-0.0,0.150925507438,10.2044578349,89.097271404
4.8,2.09552777401E7,0.0860082819019,0.0,0.0,0.0537557915795,153.578300743,29631.4147696,2.35163266136E-7,0.0,32.1076661268,176.0408155140213,5.484756968685326,46.78999466362464,-16.309447273018936,11.278305101561244,33.04237879461411,-9214.69804458,996.446291758,9.0297488251E-4,640.423340926,413.149741838,0.0,0.0,0.0,0.0,-0.0,-0.0,0.154126609583,10.6489972539,90.9930035487
4.9,2.09552622223E7,0.0914965739323,0.0,0.0,0.0560189855603,156.777925994,29615.8969583,2.50169502563E-7,0.0,32.1077137238,179.13242191712635,3.8508697744568483,45.394540271215014,-16.635999003271515,10.465176259781785,33.22994647745988,-9406.67555964,996.513329197,9.0346639719E-4,640.848137422,413.204915292,0.0,0.0,0.0,0.0,-0.0,-0.0,0.157327076418,11.1033793439,92.888738483
5.0,2.09552463845E7,0.0972135131036,0.0,0.0,0.058328846214,159.977556029,29600.0591843,2.65800931675E-7,0.0,32.1077623029,-177.78628843984006,2.2243792141100465,43.87923909163861,-16.939485149392073,9.631939377436426,33.40662807936806,-9598.65336174,996.581748885,9.03968046442E-4,641.281692825,413.261226371,0.0,0.0,0.0,0.0,-0.0,-0.0,0.160526894831,11.5676343499,94.7844762522
5.1,2.09552302268E7,0.103163765743,0.0,0.0,0.0606853737163,163.177190946,29583.901447,2.82070314274E-7,0.0,32.1078118643,-174.7099703039599,0.6097553490279372,42.24754743011298,-17.218947187997088,8.779889771897187,33.57130466458611,-9790.63145676,996.651550824,9.04479830284E-4,641.724007148,413.318675077,0.0,0.0,0.0,0.0,-0.0,-0.0,0.163726051715,12.0417931403,96.6802169009
5.2,2.09552137491E7,0.10935199818,0.0,0.0,0.0630885682472,166.376830842,29567.4237459,2.98990411269E-7,0.0,32.1078624078,-171.63339057674995,-0.9886307259595091,40.50286891910071,-17.473476708711733,7.910430600245861,33.72291815986057,-9982.60985052,996.722735017,9.05001748729E-4,642.175080404,413.377261411,0.0,0.0,-0.0,0.0,-0.0,-0.0,0.166924533976,12.5258872071,98.5759604733
5.3,2.09551969514E7,0.11578287675,0.0,0.0,0.0655384299907,169.576475816,29550.6260806,3.16573983678E-7,0.0,32.1079139336,-168.55144386334567,-2.5664795197382717,38.6485608070942,-17.70222449761358,7.025068362586647,33.86048142405574,-10174.58854896,996.795301466,9.05533801795E-4,642.634912607,413.436985375,0.0,0.0,-0.0,0.0,-0.0,-0.0,0.170122328525,13.0199486657,100.471707014
5.4,2.09551798338E7,0.12246106779,0.0,0.0,0.0680349591332,172.776125965,29533.5084506,3.34833792631E-7,0.0,32.1079664416,-165.45916911528582,-4.119536588196156,36.687945952455756,-17.904409327035463,6.125406944144527,33.98308796311143,-10366.5675579,996.869250172,9.06075989497E-4,643.103503772,413.497846972,0.0,0.0,-0.0,0.0,-0.0,-0.0,0.173319422286,13.5240102553,102.367456565
5.5,2.09551623962E7,0.129391237641,0.0,0.0,0.070578155865,175.975781386,29516.0708553,3.53782599373E-7,0.0,32.1080199318,-162.35176874610332,-5.6435672798130865,34.624330434249494,-18.079326290840843,5.213140231689928,34.089921121202764,-10558.54688316,996.943893091,9.06663351517E-4,643.621165134,413.559856707,0.0,0.0,-0.0,0.0,-0.0,-0.0,0.176515924012,14.0386478878,104.263209173
5.6,2.09551446386E7,0.136578052649,0.0,0.0,0.0731680203808,179.175442178,29498.3132941,3.73433165261E-7,0.0,32.1080744043,-159.22463143905617,-7.134333332724411,32.461026862456244,-18.226354527092774,4.290043368850594,34.18026258005335,-10750.52653068,997.019542789,9.07279970117E-4,644.169584199,413.623009812,0.0,0.0,-0.0,0.0,-0.0,-0.0,0.179711770897,14.5636997643,106.158964881
5.7,2.09551265611E7,0.144026179163,0.0,0.0,0.0758045528778,182.375108439,29480.2357667,3.93798251773E-7,0.0,32.108129859,-156.07335970181379,-8.587571942000066,30.20138358037187,-18.344964176339847,3.357962749827687,34.25350000419768,-10942.50650634,997.096555588,9.07907699319E-4,644.727885007,413.687300846,0.0,0.0,-0.0,0.0,-0.0,-0.0,0.182906888119,15.0989329768,108.054723733
5.8,2.09551081636E7,0.151740283536,0.0,0.0,0.0784877535577,185.574780265,29461.8382723,4.14890620505E-7,0.0,32.1081862959,-152.89380303498376,-9.998977994056805,27.84881999387247,-18.434722433998548,2.418804880511823,34.309133683739184,-11134.4868159,997.174931491,9.08546539143E-4,645.296067575,413.752729813,0.0,0.0,-0.0,0.0,-0.0,-0.0,0.186101262822,15.6443861465,109.950485776
5.9,2.09550894461E7,0.159725032126,0.0,0.0,0.0812176226254,188.774457755,29443.1208104,4.36723033178E-7,0.0,32.1082437152,-149.6820973292628,-11.364190247718337,25.406868213299365,-18.495298571526202,1.4745242663329083,34.34678203887035,-11326.467465299998,997.254670501,9.09196489608E-4,645.87413192,413.819296714,0.0,0.0,-0.0,0.0,-0.0,-0.0,0.189294882161,16.2000985786,111.846251056
6.0,2.09550704087E7,0.167985091294,0.0,0.0,0.0839941602885,191.974141006,29424.0833805,4.59308251634E-7,0.0,32.1083021167,-146.43471080232783,-12.678782310777486,22.879221045148885,-18.526467819585136,0.5271105109075815,34.36618587471465,-11518.44846036,997.335772619,9.09857550734E-4,646.462078059,413.887001551,0.0,0.0,-0.0,0.0,-0.0,-0.0,0.1924877333,16.7661102624,113.74201962
6.1,2.09550510513E7,0.176525127406,0.0,0.0,0.08681736676,195.173830116,29404.725982,4.82659037843E-7,0.0,32.1083615005,-143.14849639067,-13.938259316153422,20.269786112347877,-18.52811403040565,-0.4214251687940728,34.367211296191975,-11710.42980696,997.418237848,9.10529722542E-4,647.059906011,413.955844327,0.0,0.0,-0.0,0.0,0.0,-0.0,0.19567980342,17.342461871,115.637791516
6.2,2.09550313739E7,0.185349806831,0.0,0.0,0.0896872422541,198.373525183,29385.0486143,5.06788153903E-7,0.0,32.1084218666,-139.8207500262777,-15.13806121846165,17.582745496811057,-18.50023106021861,-1.3690637893143671,34.34985122154398,-11902.41151098,997.502066191,9.11213005051E-4,647.667615793,414.025825044,0.0,0.0,-0.0,0.0,0.0,-0.0,0.19887107971,17.929194762,117.533566794
6.3,2.09550113766E7,0.194463795944,0.0,0.0,0.0926037869908,201.573226304,29365.0512768,5.31708362044E-7,0.0,32.108483215,-136.4492736407947,-16.27357360211795,14.822619794460925,-18.442922842765903,-2.3137925782139575,34.314225462777344,-12094.39357824,997.587257651,9.11907398283E-4,648.285207425,414.096943703,0.0,0.0,-0.0,0.0,0.0,-0.0,0.202061549376,18.5263509771,119.429345506
6.4,2.09549910593E7,0.203871761123,0.0,0.0,0.0955670011924,204.772933578,29344.7339688,5.57432424628E-7,0.0,32.1085455458,-133.0324410631151,-17.340146798590894,11.99433485426848,-18.35640215136786,-3.253618847047371,34.26057937056129,-12286.37601468,997.673812229,9.12612902259E-4,648.912680925,414.169200307,0.0,0.0,-0.0,0.0,0.0,-0.0,0.205251199635,19.1339732422,121.325127704
6.5,2.0954970422E7,0.213578368752,0.0,0.0,0.0985768850851,207.972647101,29324.0966899,5.83973104152E-7,0.0,32.1086088588,-129.5692642343966,-18.333123932399424,9.103288773807128,-18.240988077049483,-4.186583527801459,34.18928107297209,-12478.35882606,997.761729928,9.13329516999E-4,649.550036313,414.242594858,0.0,0.0,-0.0,0.0,0.0,-0.0,0.208440017719,19.752104968,123.220913442
6.6,2.09549494647E7,0.223588285217,0.0,0.0,0.101633438899,211.172366973,29303.1394392,6.1134316325E-7,0.0,32.1086731542,-126.05945640473269,-19.24787825028723,6.155415988993845,-18.09710227778686,-5.110774149705343,34.10081736618246,-12670.34201838,997.851010752,9.14057242527E-4,650.197273607,414.317127358,0.0,0.0,-0.0,0.0,0.0,-0.0,0.211627990874,20.3807902494,125.116702777
6.7,2.09549281875E7,0.233906176913,0.0,0.0,0.104736662867,214.372093289,29281.8622163,6.39555364695E-7,0.0,32.108738432,-122.50348827442184,-20.079859717874886,3.1572446019256803,-17.925264079087754,-6.024337048995414,33.99578834372709,-12862.32559734,997.941654702,9.14796078865E-4,650.854392827,414.39279781,0.0,0.0,-0.0,0.0,0.0,-0.0,0.214815106359,21.0200738659,127.012495765
6.8,2.09549065903E7,0.244536710234,0.0,0.0,0.107886557226,217.571826149,29260.2650203,6.68622471403E-7,0.0,32.1088046921,-118.90263247325443,-20.82465040508349,0.11594253285475026,-17.72608453070038,-6.925488624493589,33.874900874753195,-13054.30956894,998.033661782,9.15546026034E-4,651.521393995,414.469606216,0.0,0.0,-0.0,0.0,0.0,-0.0,0.218001351449,21.6700012816,128.908292466
6.9,2.09548846732E7,0.255484551584,0.0,0.0,0.111083122217,220.771565649,29238.3478508,6.98557246432E-7,0.0,32.1088719346,-115.25899149163205,-21.478027633933184,-2.960652223486233,-17.50025954252175,-7.812525477184122,33.73896106297926,-13246.29393894,998.127031995,9.16307084058E-4,652.198277129,414.547552578,0.0,0.0,-0.0,0.0,0.0,-0.0,0.221186713433,22.3306186455,130.804092942
7.0,2.0954862436E7,0.266754367369,0.0,0.0,0.114326358084,223.971311888,29216.110707,7.29372452986E-7,0.0,32.1089401594,-111.57550423463188,-22.036033266214744,-6.0640218994732,-17.248562239908274,-8.683833300885663,33.58886583464324,-13438.27871328,998.221765342,9.17079252961E-4,652.885042251,414.626636899,0.0,0.0,-0.0,0.0,0.0,-0.0,0.224371179613,23.0019727909,132.699897254
7.1,2.09548398789E7,0.278350824,0.0,0.0,0.117616265074,227.171064964,29193.5535882,7.61080854417E-7,0.0,32.1090093667,-107.85592692818805,-22.495046909562223,-9.184983949853061,-16.971834688618213,-9.537894421613789,33.42559381667071,-13630.263897840001,998.317861828,9.17862532764E-4,653.581689381,414.70685918,0.0,0.0,-0.0,0.0,0.0,-0.0,0.227554737309,23.6841112362,134.595705466
7.2,2.09548170018E7,0.290278587894,0.0,0.0,0.120952843438,230.370824973,29170.6764938,7.93695214228E-7,0.0,32.1090795564,-104.10478518085895,-22.85186027597289,-12.313733826102714,-16.670979148095277,-10.373293916140018,33.25019567104876,-13822.24949838,998.415321455,9.18656923494E-4,654.288218541,414.788219425,0.0,0.0,-0.0,0.0,0.0,-0.0,0.230737373851,24.3770821843,136.491517643
7.3,2.09547938047E7,0.302542325472,0.0,0.0,0.124336093431,233.570592014,29147.479423,8.27228296073E-7,0.0,32.1091507284,-100.327295600336,-23.1037495158381,-15.439917046407718,-16.346949012318337,-11.188724272602398,33.063784057063735,-14014.23552084,998.514144226,9.19462425173E-4,655.004629753,414.870717636,0.0,0.0,-0.0,0.0,0.0,-0.0,0.233919076587,25.0809345232,138.387333853
7.4,2.09547702877E7,0.315146703162,0.0,0.0,0.127766015312,236.770366185,29123.9623751,8.6169286376E-7,0.0,32.109222883,-96.52925739383946,-23.248542130991297,-18.552730077865377,-16.000739598015176,-11.98298858789648,32.86752338715971,-14206.2219711,998.614330145,9.20279037827E-4,655.730923038,414.954353816,0.0,0.0,-0.0,0.0,0.0,-0.0,0.23709983288,25.7957178253,140.283154163
7.5,2.09547464507E7,0.328096387394,0.0,0.0,0.131242609341,239.970147582,29100.1253495,8.97101681255E-7,0.0,32.1092960199,-92.71691665447045,-23.284675103911937,-21.641047299806814,-15.633378931673027,-12.755002325108764,32.662619539080126,-14398.20885492,998.715879213,9.21106761479E-4,656.467098418,415.039127966,0.0,0.0,-0.0,0.0,0.0,-0.0,0.240279630104,26.5214823481,142.178978642
7.6,2.09547222937E7,0.341396044606,0.0,0.0,0.134765875785,243.169936305,29075.9683454,9.33467512681E-7,0.0,32.1093701393,-88.89680832398102,-23.21124119689791,-24.69356906107599,-15.245918678871842,-13.50379368307448,32.450309673548425,-14590.196178299999,998.818791435,9.21945596157E-4,657.213155916,415.12504009,0.0,0.0,-0.0,0.0,0.0,-0.0,0.243458455651,27.2582790338,144.074807359
7.7,2.09546978167E7,0.355050341241,0.0,0.0,0.138335814913,246.369732451,29051.491362,9.70803122323E-7,0.0,32.1094452412,-85.0755828111618,-23.028020967400156,-27.698983879339462,-14.839425348121612,-14.228502652773392,32.23185229539827,-14782.18394706,998.923066813,9.22795541884E-4,657.969095555,415.212090191,0.0,0.0,-0.0,0.0,0.0,-0.0,0.246636296925,28.0061595091,145.970640385
7.8,2.09546730197E7,0.369063943745,0.0,0.0,0.141952426997,249.569536116,29026.6943986,1.00912127463E-6,0.0,32.1095213256,-81.25982567629423,-22.735498870600438,-30.64613641838906,-14.41497188436832,-14.928378854872488,32.00851768025099,-14974.17216696,999.02870535,9.23656598688E-4,658.734917358,415.30027827,0.0,0.0,-0.0,0.0,0.0,-0.0,0.249813141346,28.7651760859,147.866477791
7.9,2.09546479028E7,0.383441518574,0.0,0.0,0.145615712313,252.7693474,29001.5774545,1.04843473421E-6,0.0,32.1095983925,-77.45587945961097,-22.33486280436824,-33.52419223820242,-13.973629755014382,-15.602778269397476,31.78157876964324,-15166.160844,999.135707051,9.24528766594E-4,659.510621348,415.389604331,0.0,0.0,-0.0,0.0,0.0,-0.0,0.252988976347,29.5353817606,149.762319648
8.0,2.09546224658E7,0.398187732185,0.0,0.0,0.14932567114,255.9691664,28976.1405289,1.08875626585E-6,0.0,32.1096764418,-73.66967652830756,-21.827987485921675,-36.32279053901681,-13.516461610329298,-16.251158980604423,31.552302620892412,-15358.149984,999.244071917,9.25412045629E-4,660.296207548,415.480068376,0.0,0.0,-0.0,0.0,0.0,-0.0,0.256163789374,30.3168302143,151.658166028
8.1,2.09545967089E7,0.413307251044,0.0,0.0,0.153082303763,259.168993214,28950.383621,1.13009863449E-6,0.0,32.1097554737,-69.90659076469836,-21.217403028014516,-39.032177176116825,-13.044514586948122,-16.873076066654594,31.32194247856396,-15550.139592840002,999.353799953,9.2630643582E-4,661.091675984,415.571670408,0.0,0.0,-0.0,0.0,0.0,-0.0,0.25933756789,31.1095758129,153.554017004
8.2,2.0954570632E7,0.428804741619,0.0,0.0,0.156885610468,262.368827938,28924.30673,1.17247460525E-6,0.0,32.1098354881,-66.17131421413275,-20.506250905926404,-41.64331196342758,-12.55881430241434,-17.468175768565672,31.09173051475237,-15742.12967628,999.464891162,9.27211937194E-4,661.897026678,415.66441043,0.0,0.0,-0.0,0.0,0.0,-0.0,0.26251029937,31.913673607,155.449872647
8.3,2.09545442352E7,0.444684870389,0.0,0.0,0.160735591545,265.568670672,28897.9098551,1.21589694343E-6,0.0,32.1099164851,-62.46776264207,-19.698230099888512,-44.14794645030084,-12.06035957554566,-18.036189073829288,30.862871268943593,-15934.12024032,999.577345546,9.2812854978E-4,662.712259656,415.758288445,0.0,0.0,-0.0,0.0,0.0,-0.0,0.265681971304,32.7291793316,157.345733029
8.4,2.09545175183E7,0.460952303833,0.0,0.0,0.164632247288,268.768521513,28871.1929956,1.26037841451E-6,0.0,32.1099984646,-58.7990116704845,-18.797536522558353,-46.53867067441278,-11.55011788998339,-18.57692484658978,30.636535800923422,-16126.11129078,999.691163111,9.29056273604E-4,663.537374943,415.853304455,0.0,0.0,-0.0,0.0,0.0,-0.0,0.268852571194,33.5561494068,159.241598223
8.5,2.09544904815E7,0.47761170844,0.0,0.0,0.168575577995,271.968380559,28844.1561506,1.30593178411E-6,0.0,32.1100814267,-55.16726297656442,-17.80879889954215,-48.80892957832255,-11.029021605337125,-19.090262631122382,30.41385655501303,-16318.10283354,999.806343858,9.29995108695E-4,664.372372563,415.949458463,0.0,0.0,-0.0,0.0,0.0,-0.0,0.27202208656,34.3946409369,161.1374683
8.6,2.09544631246E7,0.494667750703,0.0,0.0,0.172565583966,275.168247906,28816.7993192,1.35256981808E-6,0.0,32.1101653714,-51.57383824158991,-16.73701409042386,-50.95301162061836,-10.497964907960645,-19.5761452495623,30.195922919817942,-16510.09487436,999.922887792,9.30945055082E-4,665.217252543,416.046750474,0.0,0.0,-0.0,0.0,0.0,-0.0,0.275190504932,35.244711711,163.033343332
8.7,2.09544354478E7,0.512125097123,0.0,0.0,0.176602265507,278.368123654,28789.1225007,1.40030528243E-6,0.0,32.1102502987,-48.019197189707036,-15.587484475593547,-52.966013473294794,-9.957801483253599,-20.03457130417898,29.98377745782194,-16702.08741924,1000.04079492,9.31906112794E-4,666.072014907,416.145180488,0.0,0.0,-0.0,0.0,0.0,-0.0,0.278357813856,36.106420203,164.92922339
8.8,2.0954407451E7,0.529988414206,0.0,0.0,0.180685622925,281.5680079,28761.1256942,1.44915094334E-6,0.0,32.1103362086,-44.502975267294005,-14.365759551851843,-54.84378553300811,-9.409342881700445,-20.465587685036247,29.778412767698335,-16894.080474,1000.16006523,9.32878281861E-4,666.936659683,416.24474851,0.0,0.0,-0.0,0.0,0.0,-0.0,0.281524000892,36.979825571,166.825108544
8.9,2.09543791342E7,0.548262368462,0.0,0.0,0.184815656532,284.767900741,28732.8088989,1.4991195672E-6,0.0,32.1104231011,-41.02403622610558,-13.077583345655952,-56.58286330410908,-8.853357544211951,-20.86928217448223,29.580768935449868,-17086.07404446,1000.28069875,9.33861562311E-4,667.811186896,416.345454542,0.0,0.0,-0.0,0.0,0.0,-0.0,0.284689053615,37.8649876581,168.720998866
9.0,2.09543504974E7,0.566951626411,0.0,0.0,0.188992366644,287.967802276,28704.1721138,1.55022392058E-6,0.0,32.1105109763,-37.58053501198,-11.728848715094529,-58.18038963125337,-8.290570448495652,-21.245776226677943,29.3917315246447,-17278.06813656,1000.40269546,9.34855954175E-4,668.695596574,416.447298588,0.0,0.0,-0.0,0.0,0.0,-0.0,0.287852959613,38.7619669918,170.616894426
9.1,2.09543215406E7,0.586060854577,0.0,0.0,0.19321575358,291.167712602,28675.2153381,1.60247677024E-6,0.0,32.1105998341,-34.169986827796585,-10.325559119794468,-59.63403236261613,-7.721663331019689,-21.595217991893428,29.21213005194758,-17470.062756119998,1000.52605539,9.35861457484E-4,669.589888742,416.55028065,0.0,0.0,-0.0,0.0,0.0,-0.0,0.291015706491,39.6708247842,172.512795292
9.2,2.09542922639E7,0.605594719492,0.0,0.0,0.197485817661,294.367631816,28645.938571,1.65589088313E-6,0.0,32.1106896746,-30.789338906294443,-8.873798012541457,-60.941901446566,-7.147275440853383,-21.917775642466182,29.04273689128076,-17662.057908960003,1000.65077851,9.36878072267E-4,670.494063429,416.654400732,0.0,0.0,-0.0,0.0,0.0,-0.0,0.294177281865,40.5916229321,174.408701534
9.3,2.09542626671E7,0.625557887692,0.0,0.0,0.201802559215,297.567560018,28616.3418115,1.7104790264E-6,0.0,32.1107804978,-27.435042303460328,-7.379705659699411,-62.10246878231799,-6.568004777141485,-22.2136310498108,28.88426654943348,-17854.05360108,1000.77686486,9.37905798557E-4,671.408120663,416.759658837,0.0,0.0,-0.0,0.0,0.0,-0.0,0.29733767337,41.5244240169,176.304613222
9.4,2.09542327504E7,0.645955025723,0.0,0.0,0.206165978569,300.767497303,28586.4250587,1.7662539674E-6,0.0,32.1108723037,-24.10312181513602,-5.8494629347554765,-63.114493491110984,-5.9844097643754655,-22.482973850352394,28.737375256053344,-18046.049838180003,1000.90431441,9.38944636383E-4,672.33206047,416.866054968,0.0,0.0,-0.0,0.0,0.0,-0.0,0.300496868653,42.4692913047,178.200530421
9.5,2.09542025136E7,0.666790800134,0.0,0.0,0.210576076058,303.967443771,28556.1883117,1.82322847367E-6,0.0,32.1109650924,-20.789242873335944,-4.289281436843509,-63.9769546417952,-5.397011318536629,-22.725995931839154,28.602660812786553,-18238.04662626,1001.03312719,9.39994585779E-4,673.265882879,416.973589129,0.0,0.0,-0.0,0.0,0.0,-0.0,0.303654855378,43.4262887462,180.096453202
9.6,2.09541719569E7,0.688069877483,0.0,0.0,0.215032852019,307.167399519,28525.6315696,1.88141531295E-6,0.0,32.1110588637,-17.48877495434043,-2.7053991547885636,-64.68899296211681,-4.806295260056296,-22.942886363296086,28.480662647078628,-18430.04397114,1001.16330319,9.41055646776E-4,674.209587919,417.082261322,0.0,0.0,-0.0,0.0,0.0,-0.0,0.306811621223,44.3954809768,181.992381631
9.7,2.09541410801E7,0.709796924334,0.0,0.0,0.219536306792,310.367364644,28494.7548315,1.9408272532E-6,0.0,32.1111536178,-14.196851609775749,-1.1040808119587353,-65.24986265124856,-4.21271503114263,-23.13382678620983,28.371862021647782,-18622.04187864,1001.29484242,9.42127819407E-4,675.163175619,417.192071551,0.0,0.0,-0.0,0.0,0.0,-0.0,0.309967153882,45.3769333167,183.888315775
9.8,2.09541098834E7,0.731976607259,0.0,0.0,0.22408644072,313.567339245,28463.5580964,2.00147706257E-6,0.0,32.1112493547,-10.908427712202522,0.5083780276270805,-65.6588941295116,-3.6166946768399426,-23.298987278460906,28.276682351674374,-18814.040354700002,1001.42774489,9.43211103704E-4,676.126646007,417.303019819,0.0,0.0,0.0,0.0,0.0,-0.0,0.313121441067,46.3707117707,185.7842557
9.9,2.09540783667E7,0.754613592834,0.0,0.0,0.228683254151,316.767323419,28432.0413633,2.06337750943E-6,0.0,32.1113460744,-7.618334884084149,2.1256440505110623,-65.91546835496943,-3.0186320523891315,-23.438522699196778,28.195489588510704,-19006.03940514,1001.56201058,9.443054997E-4,677.099999114,417.41510613,0.0,0.0,0.0,0.0,0.0,-0.0,0.316274470502,47.3768830284,187.680201472
10.0,2.09540465299E7,0.777712547646,0.0,0.0,0.233326747436,319.967317264,28400.2046314,2.12654136235E-6,0.0,32.1114437768,-4.321336367926564,3.7413374738658383,-66.01900324375518,-2.41890222177841,-23.55256951951579,28.12859263003343,-19198.03903584,1001.69763952,9.45411007429E-4,678.083234968,417.528330488,0.0,0.0,0.0,0.0,0.0,-0.0,0.31942622993,48.3955144642,189.576153158
10.1,2.09540143732E7,0.801278138285,0.0,0.0,0.23801692093,323.167320878,28368.0478995,2.19098139011E-6,0.0,32.1115424621,-1.0121827913723647,5.349022543316038,-65.96895267541682,-1.8178610147455143,-23.641243139993378,28.076243726068483,-19390.03925268,1001.8346317,9.46527626924E-4,679.0763536,417.642692895,0.0,0.0,0.0,0.0,0.0,-0.0,0.322576707109,49.4266741373,191.472110823
10.2,2.09539818965E7,0.825315031351,0.0,0.0,0.242753774989,326.367334358,28335.5711669,2.25671036172E-6,0.0,32.1116421302,2.314329604697028,6.942198324377799,-65.76481853534418,-1.2158487120422397,-23.70463569711314,28.038638849266636,-19582.04006148,1001.97298713,9.4765535822E-4,680.07935504,417.758193354,0.0,0.0,0.0,0.0,0.0,-0.0,0.325725889814,50.4704307916,193.368074532
10.3,2.09539490997E7,0.849827893451,0.0,0.0,0.247537309978,329.567357802,28302.7744323,2.3237410464E-6,0.0,32.1117427812,5.663296689086783,8.514290922986792,-65.40617622915248,-0.6131938306743853,-23.742814356139085,28.015918008396852,-19774.04146812,1002.11270582,9.48794201351E-4,681.092239319,417.874831871,0.0,0.0,0.0,0.0,0.0,-0.0,0.328873765837,51.5268538561,195.264044349
10.4,2.0953915983E7,0.874821391197,0.0,0.0,0.25236752626,332.767391309,28269.657695,2.39208621357E-6,0.0,32.111844415,9.039638610737379,10.058648339855942,-64.89271403743437,-0.010216982631098602,-23.755820091345797,28.00816548572268,-19966.04347854,1002.25378776,9.49944156352E-4,682.115006467,417.992608448,0.0,0.0,0.0,0.0,0.0,-0.0,0.332020322985,52.5960134443,197.160020338
10.5,2.09538825463E7,0.900300191211,0.0,0.0,0.257244424204,335.967434975,28236.2209538,2.46175863291E-6,0.0,32.1119470317,12.448025119525912,11.568539240948096,-64.22428651026995,0.5927652180219546,-23.743666950627087,28.015409985398335,-20158.0460985,1002.39623296,9.51105223258E-4,683.147656516,418.111523088,0.0,0.0,0.0,0.0,0.0,0.0,0.335165549085,53.6779803548,199.056002564
10.6,2.09538487895E7,0.92626896012,0.0,0.0,0.262168004183,339.167488899,28202.4642076,2.53277107428E-6,0.0,32.1120506314,15.89279309303083,13.037156993711598,-63.4009818602413,1.1954362238774765,-23.70634180557181,28.037624685149478,-20350.049333939998,1002.54004143,9.52277402104E-4,684.190189498,418.231575796,0.0,0.0,0.0,0.0,0.0,0.0,0.338309431977,54.7728260711,200.95199109
10.7,2.09538147128E7,0.95273236456,0.0,0.0,0.267138266573,342.367553179,28168.3874556,2.60513630778E-6,0.0,32.1121552139,19.37785585608307,14.457630371994547,-62.42320285605196,1.797475622585672,-23.64380458505876,28.07472718774371,-20542.05319074,1002.68521316,9.53460692926E-4,685.242605444,418.352766575,0.0,0.0,0.0,0.0,0.0,0.0,0.341451959522,55.8806227613,202.84798598
10.8,2.0953780316E7,0.979695071175,0.0,0.0,0.272155211753,345.567627911,28133.9906967,2.67886710377E-6,0.0,32.1122607794,22.906604607560002,15.823042335538673,-61.29176010062877,2.398555228505152,-23.555988994089525,28.12657937626141,-20734.057674659998,1002.83174818,9.54655095761E-4,686.304904386,418.475095429,0.0,0.0,0.0,0.0,0.0,0.0,0.344593119595,57.0014432788,204.743987295
10.9,2.09537455992E7,1.00716174662,0.0,0.0,0.277218840107,348.767713195,28099.2739297,2.75397623278E-6,0.0,32.1123673278,26.48180322052137,17.12645823038905,-60.00797573189921,2.998335221954719,-23.44280371711443,28.192987179183064,-20926.0627917,1002.97964647,9.55860610644E-4,687.377086358,418.598562361,0.0,0.0,0.0,0.0,0.0,0.0,0.347732900091,58.1353611616,206.639995099
11.0,2.09537105625E7,1.03513705754,0.0,0.0,0.28232915202,351.967809127,28064.2371537,2.83047646563E-6,0.0,32.1124748592,30.10547884101768,18.36096459349211,-58.57379451300531,3.5964603610284156,-23.30413410871641,28.273700259387745,-21118.06854762,1003.12890804,9.57077237613E-4,688.45915139,418.723167376,0.0,0.0,0.0,0.0,0.0,0.0,0.350871288921,59.2824506326,208.536009452
11.1,2.09536752057E7,1.06362567061,0.0,0.0,0.287486147884,355.167915806,28028.8803675,2.90838057333E-6,0.0,32.1125833736,33.77881204835661,19.519719450425928,-56.99189803505353,4.192556292538011,-23.13984437067877,28.36841164499644,-21310.07494836,1003.2795329,9.58304976705E-4,689.551099518,418.848910476,0.0,0.0,0.0,0.0,0.0,0.0,0.354008274014,60.4427865996,210.432030416
11.2,2.09536395289E7,1.09263225251,0.0,0.0,0.292689828091,358.368033329,27993.2035702,2.98770132714E-6,0.0,32.112692871,37.50203176874194,20.596014543945284,-55.265816411913775,4.786225990129189,-22.949780217785854,28.476757324863804,-21502.08199974,1003.43152106,9.59543827956E-4,690.652930773,418.975791667,0.0,0.0,0.0,0.0,0.0,0.0,0.357143843316,61.6164446552,212.328058052
11.3,2.09536035321E7,1.12216146992,0.0,0.0,0.297940193041,361.568161795,27957.2067605,3.06845149857E-6,0.0,32.1128033514,41.274321515600505,21.58334930220276,-53.4000305163446,5.377046349898114,-22.73377203075257,28.598315837423694,-21694.089707699997,1003.58487251,9.60793791406E-4,691.76464519,419.103810951,0.0,0.0,0.0,0.0,0.0,0.0,0.360277984791,62.8035010768,214.224092419
11.4,2.09535672152E7,1.15221798952,0.0,0.0,0.303237243132,364.7683013,27920.8899374,3.15064385937E-6,0.0,32.1129148149,45.09374466906753,22.47551555497053,-51.400056753396214,5.964564975972147,-22.4916384949074,28.732607885776087,-21886.098078000003,1003.73958726,9.62054867092E-4,692.886242802,419.232968333,0.0,0.0,0.0,0.0,0.0,0.0,0.36341068642,64.0040328266,216.120133576
11.5,2.09535305784E7,1.18280647802,0.0,0.0,0.308580978771,367.968451943,27884.2530999,3.2342911815E-6,0.0,32.1130272614,48.95719716474152,23.26669106132279,-49.272505745612655,6.548297191045252,-22.223190720102757,28.879096017632857,-22078.10711658,1003.89566532,9.63327055053E-4,694.017723644,419.363263816,0.0,0.0,0.0,0.0,0.0,0.0,0.366541936203,65.2181175516,218.016181582
11.6,2.09534936216E7,1.21393160211,0.0,0.0,0.313971400364,371.168613821,27847.2962467,3.3194062372E-6,0.0,32.113140691,52.86039587673581,23.95153889094145,-47.02510643748079,7.127723309723422,-21.928236833659252,29.03718441137537,-22270.11682926,1004.05310669,9.64610355327E-4,695.159087751,419.494697406,0.0,0.0,0.0,0.0,0.0,0.0,0.369671722156,66.4458335833,219.912236493
11.7,2.09534563447E7,1.24559802852,0.0,0.0,0.319408508324,374.368787032,27810.0193767,3.40600179895E-6,0.0,32.1132551038,56.7979099396196,24.52530869893285,-44.66668820619828,7.702286214546504,-21.60658703505666,29.20621881583657,-22462.12722192,1004.21191138,9.65904767954E-4,696.310335156,419.627269104,0.0,0.0,0.0,0.0,0.0,0.0,0.372800032314,67.687259938,221.808298367
11.8,2.09534187478E7,1.27781042397,0.0,0.0,0.324892303066,377.568971675,27772.4224889,3.49409063946E-6,0.0,32.1133704996,60.7632401225532,24.983935087096686,-42.207115724221815,8.271389276942092,-21.258059095010935,29.385486693998832,-22654.1383005,1004.37207939,9.67210292973E-4,697.471465896,419.760978917,0.0,0.0,0.0,0.0,0.0,0.0,0.375926854728,68.9424763166,223.704367257
11.9,2.09533808309E7,1.31057345519,0.0,0.0,0.330422785008,380.769167847,27734.505582,3.58368553172E-6,0.0,32.1134868786,64.74894818998014,25.32412769116878,-39.65717452171908,8.834394668547011,-20.882484275503362,29.57421762286119,-22846.15007082,1004.53361073,9.68526930424E-4,698.642480006,419.895826847,0.0,0.0,0.0,0.0,0.0,0.0,0.379052177469,70.2115631043,225.600443219
12.0,2.0953342594E7,1.34389178891,0.0,0.0,0.335999954573,383.969375645,27696.268655,3.67479924894E-6,0.0,32.1136042407,68.74683419000957,25.543447509972054,-37.02840921124784,9.390622107747554,-20.479713640452278,29.771584006370713,-23038.162538700002,1004.69650539,9.69854680347E-4,699.823377521,420.031812899,0.0,0.0,0.0,0.0,0.0,0.0,0.382175988623,71.4946013709,227.496526305
12.1,2.0953304037E7,1.37777009189,0.0,0.0,0.341623812187,387.169595168,27657.7117065,3.76744456461E-6,0.0,32.113722586,72.74815523989744,25.640364389813765,-34.33292071535657,9.93934808893665,-20.0496247184101,29.976702157739812,-23230.17571008,1004.86076339,9.71193542784E-4,701.014158478,420.168937078,0.0,0.0,0.0,0.0,0.0,0.0,0.385298276295,72.7916728705,229.392616566
12.2,2.095326516E7,1.41221303088,0.0,0.0,0.34729435828,390.369826513,27618.8347355,3.86163425247E-6,0.0,32.1138419146,76.74387524231028,25.614291518492816,-31.583132995985498,10.479805641413236,-19.592128469157156,30.188633808387852,-23422.189590780003,1005.02638474,9.72543517774E-4,702.214822912,420.307199386,0.0,0.0,0.0,0.0,0.0,0.0,0.388419028607,74.1028600418,231.288714052
12.3,2.09532259631E7,1.44722527265,0.0,0.0,0.353011593284,393.570069778,27579.6377408,3.95738108652E-6,0.0,32.1139622263,80.72493166536081,25.46559420599257,-28.791543072636856,11.011184663244746,-19.107176496552775,30.40638810063109,-23614.20418668,1005.19336942,9.73904605359E-4,703.425370862,420.446599829,0.0,0.0,0.0,0.0,0.0,0.0,0.391538233699,75.4282460072,233.18481881
12.4,2.0953186446E7,1.48281148397,0.0,0.0,0.358775517636,396.770325062,27540.1207212,4.05469784101E-6,0.0,32.1140835213,84.68250366050006,25.19557198711277,-25.97046999925154,11.532632873866755,-18.594768439920017,30.628924117119464,-23806.21950372,1005.36171746,9.7527680558E-4,704.645802363,420.58713841,0.0,0.0,0.0,0.0,0.0,0.0,0.394655879729,76.7679145737,235.080930889
12.5,2.0953146609E7,1.51897633162,0.0,0.0,0.364586131777,399.97059246,27500.2836754,4.15359729049E-6,0.0,32.1142057995,88.60826563816754,24.806414965695225,-23.131818608442803,12.043257425182999,-18.054959463921886,30.85515399784154,-23998.235547599998,1005.53142886,9.7666011848E-4,705.876117452,420.728815135,0.0,0.0,0.0,0.0,0.0,0.0,0.397771954872,78.1219502324,236.977050331
12.6,2.09531064519E7,1.5557244824,0.0,0.0,0.370443436149,403.170872073,27460.1266023,4.25409220972E-6,0.0,32.1143290611,92.49461204944758,24.30113709712628,-20.286872208719597,12.54212720525678,-17.487867758120466,31.08394668875825,-24190.25232438,1005.70250362,9.78054544101E-4,707.116316168,420.871630007,0.0,0.0,0.0,0.0,0.0,0.0,0.400886447321,79.4904381581,238.873177181
12.7,2.09530659748E7,1.5930606031,0.0,0.0,0.3763474312,406.371163997,27419.6495006,4.35619537378E-6,0.0,32.1144533059,96.3348422256918,23.68349056191428,-17.44612531719326,13.028275862897877,-16.893681944060734,31.314132358390705,-24382.26983982,1005.87494174,9.79460082485E-4,708.366398549,421.01558303,0.0,0.0,0.0,0.0,0.0,0.0,0.403999345286,80.8734642101,240.76931148
12.8,2.09530251777E7,1.63098936053,0.0,0.0,0.382298117382,409.57146833,27378.8523691,4.45991955799E-6,0.0,32.114578534,100.12329819263046,22.957866366679454,-14.619163443578286,13.500705571135812,-16.27266828078778,31.544507509978853,-24574.2880998,1006.04874323,9.80876733675E-4,709.626364632,421.16067421,0.0,0.0,0.0,0.0,0.0,0.0,0.407110636996,82.2711149314,242.665453268
12.9,2.09529840605E7,1.66951542151,0.0,0.0,0.388295495149,412.77178517,27337.7352065,4.56527753795E-6,0.0,32.1147047455,103.85545274257998,22.12918674772202,-11.814592556051062,13.958391538059288,-15.625177547559614,31.773840804566134,-24766.3071102,1006.22390811,9.82304497714E-4,710.896214455,421.30690355,0.0,0.0,0.0,0.0,0.0,0.0,0.410220310697,83.683477549,244.561602582
13.0,2.09529426233E7,1.70864345287,0.0,0.0,0.394339564959,415.972114615,27296.2980116,4.67228208954E-6,0.0,32.1148319404,107.52794917880634,21.202794862551848,-9.040016751193827,14.40028726209967,-14.951651478048618,32.00087959661448,-24958.3268769,1006.40043636,9.83743374646E-4,712.175948059,421.454271055,0.0,0.0,0.0,0.0,0.0,0.0,0.413328354656,85.110639974,246.457759458
13.1,2.09529008661E7,1.74837812145,0.0,0.0,0.400430327272,419.172456763,27254.5407832,4.78094598892E-6,0.0,32.1149601187,111.13859746868638,20.184346729074267,-6.302059302516023,14.82533051273634,-14.252628613334602,32.2243571706904,-25150.34740578,1006.578328,9.85193364516E-4,713.465565481,421.60277673,0.0,0.0,0.0,0.0,0.0,0.0,0.416434757156,86.5526908014,248.353923931
13.2,2.09528587888E7,1.78872409408,0.0,0.0,0.406567782556,422.372811711,27212.4635199,4.8912820125E-6,0.0,32.1150892803,114.6863338776853,19.079709534863365,-3.606419937956444,15.23245000471016,-13.528749438586038,32.443000648110726,-25342.36870266,1006.75758304,9.86654467366E-4,714.765066762,421.752420578,0.0,0.0,0.0,0.0,0.0,0.0,0.419539506499,88.0097193106,250.250096035
13.3,2.09528163915E7,1.82968603763,0.0,0.0,0.412751931278,425.573179557,27170.0662204,5.00330293701E-6,0.0,32.1152194254,118.17115238458958,17.89486944137724,-0.9579599620227013,15.620572716642581,-12.78076066970109,32.65553951673715,-25534.39077342,1006.93820148,9.88126683243E-4,716.07445194,421.903202605,0.0,0.0,0.0,0.0,0.0,0.0,0.422642591008,89.4818154648,252.1462758
13.4,2.09527736742E7,1.87126861896,0.0,0.0,0.418982773911,428.7735604,27127.3488835,5.11702153944E-6,0.0,32.1153505539,121.59401642079656,16.635850983005593,1.6391934059586737,15.988631786795128,-12.009518558987622,32.86071471860252,-25726.413624,1007.12018331,9.8961001219E-4,717.393721056,422.055122816,0.0,0.0,0.0,0.0,0.0,0.0,0.425743999026,90.9690699117,254.042463257
13.5,2.09527306368E7,1.91347650495,0.0,0.0,0.42526031093,431.973954336,27084.3115079,5.23245059707E-6,0.0,32.1154826659,124.95675895564214,15.308649208125697,4.181531578841163,16.335574904551972,-11.215991096810813,33.05728820868038,-25918.43726016,1007.30352856,9.91104454253E-4,718.72287415,422.208181214,0.0,0.0,0.0,0.0,0.0,0.0,0.428843718915,92.4715739834,255.938658437
13.6,2.09526872794E7,1.95631436247,0.0,0.0,0.431584542816,435.174361465,27040.9540922,5.34960288747E-6,0.0,32.1156157615,128.26197789321512,13.919174904738274,6.666045083407038,16.660373095123425,-10.40125899828378,33.24405288372783,-26110.4616879,1007.48823723,9.92610009478E-4,720.061911263,422.362377804,0.0,0.0,0.0,0.0,0.0,0.0,0.431941739057,93.9894196967,257.834861368
13.7,2.09526436019E7,1.99978685842,0.0,0.0,0.43795547005,438.374781883,26997.2766352,5.4684911885E-6,0.0,32.1157498405,131.5129324179894,12.473212621396808,9.090105701230033,16.962029783108022,-9.566515379947495,33.41984275784412,-26302.486912980003,1007.67430931,9.94126677911E-4,721.410832436,422.517712592,0.0,0.0,0.0,0.0,0.0,0.0,0.435038047859,95.5226997531,259.731072078
13.8,2.09525996044E7,2.0438986597,0.0,0.0,0.444373093121,441.575215689,26953.2791354,5.58912827831E-6,0.0,32.1158849031,134.71344453603766,10.976390745976403,11.451354595950024,17.239590002617184,-8.71306404960636,33.58354324981325,-26494.51294134,1007.86174483,9.95654459598E-4,722.769637709,422.674185582,0.0,0.0,0.0,0.0,0.0,0.0,0.438132633747,97.0715075393,261.627290596
13.9,2.09525552869E7,2.08865443323,0.0,0.0,0.450837412517,444.77566298,26908.9615916,5.71152693533E-6,0.0,32.1160209492,137.8678087253167,9.434162620411886,13.747599437669587,17.49214961198354,-7.842316358841845,33.73410143085523,-26686.5397788,1008.05054377,9.97193354585E-4,724.138327124,422.831796778,0.0,0.0,0.0,0.0,0.0,0.0,0.441225485171,98.6359371273,263.523516952
14.0,2.09525106493E7,2.13405884592,0.0,0.0,0.457348428733,447.976123854,26864.3240024,5.83569993832E-6,0.0,32.1161579789,140.9807114471292,7.851797523086969,15.976722386161287,17.718864360359692,-6.9557865919054676,33.87053607235772,-26878.56743124,1008.24070615,9.9874336292E-4,725.516900724,422.990546186,0.0,0.0,0.0,0.0,0.0,0.0,0.444316590606,100.216083275,265.419751173
14.1,2.09524656917E7,2.18011656471,0.0,0.0,0.463906142267,451.176598409,26819.3663664,5.96166006631E-6,0.0,32.1162959923,144.05716132663295,6.234380310277248,18.136599864285873,17.91895864784181,-6.055085896090367,33.99194732680016,-27070.59590454,1008.43223198,0.00100030448465,726.90535855,423.150433811,0.0,0.0,0.0,0.0,0.0,0.0,0.447405938548,101.812041426,267.315993291
14.2,2.0952420414E7,2.22683225655,0.0,0.0,0.470510553618,454.377086743,26774.0886822,6.08942009863E-6,0.0,32.1164349892,147.10243005797352,4.586818541166871,20.225034345132244,18.09173381886183,-5.141914789700816,34.09752587067042,-27262.62520458,1008.62512126,0.00100187671982,728.303700645,423.311459656,0.0,0.0,0.0,0.0,0.0,0.0,0.450493517521,103.42390771,269.212243336
14.3,2.09523748163E7,2.27421058838,0.0,0.0,0.477161663292,457.577588954,26728.4909486,6.21899281492E-6,0.0,32.1165749698,150.1220035344224,2.9138559933385086,22.239697880437713,18.23657583099838,-4.2180543154062375,34.18656134356025,-27454.65533724,1008.81937399,0.00100346006849,729.71192705,423.473623728,0.0,0.0,0.0,0.0,0.0,0.0,0.453579316073,105.051778943,271.108501343
14.4,2.09523288985E7,2.32225622716,0.0,0.0,0.483859471797,460.77810514,26682.573164,6.35039099514E-6,0.0,32.1167159341,153.1215423297588,1.220091580917283,24.178086785126816,18.35296214777362,-3.2853559412699234,34.25844992083382,-27646.6863084,1009.01499019,0.00100505453069,731.130037811,423.636926031,0.0,0.0,0.0,0.0,0.0,0.0,0.456663322781,106.695752631,273.004767346
14.5,2.09522826606E7,2.37097383987,0.0,0.0,0.490603979643,463.978635398,26636.3353271,6.48362741954E-6,0.0,32.1168578822,156.10685037982375,-0.48999719937459096,26.037486738222817,18.44046771534791,-2.345730340327453,34.312700872447486,-27838.71812388,1009.21196985,0.00100666010648,732.558032968,423.80136657,0.0,0.0,-0.0,0.0,0.0,0.0,0.459745526246,108.355926963,274.901041384
14.6,2.09522361027E7,2.42036809349,0.0,0.0,0.497395187347,467.179179826,26589.7774364,6.61871486867E-6,0.0,32.1170008139,159.08385054529708,-2.2120270600707244,27.814947524977352,18.498769899124174,-1.4011352102774655,34.34894197459348,-28030.75078956,1009.41031299,0.00100827679591,733.995912567,423.96694535,0.0,0.0,-0.0,0.0,0.0,0.0,0.462825915098,110.032400818,276.797323495
14.7,2.09521892248E7,2.47044365501,0.0,0.0,0.504233095428,470.379738523,26542.8994907,6.7556661234E-6,0.0,32.1171447294,162.05856560897917,-3.9416786246028424,29.50726671467793,18.527652274608528,-0.45356231932817825,34.36692366330011,-28222.78431138,1009.6100196,0.00100990459902,735.443676651,424.133662377,0.0,0.0,-0.0,0.0,0.0,0.0,0.465904477997,111.725273764,278.693613724
14.8,2.09521420268E7,2.52120519144,0.0,0.0,0.511117704406,473.580311585,26495.7014883,6.89449396493E-6,0.0,32.1172896286,165.0371031754884,-5.674663635929221,31.11098171315036,18.52700719254237,0.49497601480729986,34.366521842383406,-28414.8186951,1009.8110897,0.00101154351587,736.901325265,424.301517655,0.0,0.0,-0.0,0.0,-0.0,0.0,0.46898120363,113.434646055,280.589912117
14.9,2.09520945087E7,2.57265736979,0.0,0.0,0.518049014809,476.780899112,26448.1834279,7.03521117476E-6,0.0,32.1174355117,168.025642855341,-7.406690218599182,32.62236983781624,18.496837060322473,1.4424607902833466,34.34773928690713,-28606.85394672,1010.0135233,0.00101319354651,738.368858452,424.470511189,0.0,0.0,-0.0,0.0,-0.0,0.0,0.472056080714,115.160618636,282.486218723
15.0,2.09520466706E7,2.62480485709,0.0,0.0,0.525027027166,479.9815012,26400.345308,7.1778305347E-6,0.0,32.1175823786,171.03042400021664,-9.133426717716462,34.03745632334572,18.43725431358227,2.386880298914253,34.31070561161288,-28798.890072000002,1010.21732039,0.00101485469098,739.846276258,424.640642985,0.0,0.0,-0.0,0.0,-0.0,0.0,0.475129097994,116.903293139,284.382533596
15.1,2.09519985124E7,2.67765232037,0.0,0.0,0.532051742011,483.182117948,26352.1871271,7.32236482688E-6,0.0,32.1177302293,174.05773215250647,-10.850464644555398,35.35203046835303,18.34848007741867,3.3262439813049784,34.25567580546593,-28990.927076879998,1010.42248099,0.00101652694934,741.333578728,424.811913047,0.0,0.0,-0.0,0.0,-0.0,0.0,0.478200244248,118.662771886,286.278856791
15.2,2.09519500342E7,2.73120442667,0.0,0.0,0.539123159879,486.382749454,26303.7088839,7.46882683378E-6,0.0,32.1178790639,177.1138822049378,-12.553281299922718,36.561670469449986,18.230841546829044,4.258595927671686,34.18302736354305,-29182.96496724,1010.62900509,0.00101821032163,742.830765907,424.984321382,0.0,0.0,-0.0,0.0,-0.0,0.0,0.481269508282,120.439157888,288.175188369
15.3,2.09519012359E7,2.78546584305,0.0,0.0,0.54624128131,489.583395815,26254.9105768,7.61722933818E-6,0.0,32.1180288825,-179.79480390647154,-14.237202721475404,37.66177784993609,18.084768143482187,5.182027802365848,34.09325607625112,-29375.003748900002,1010.83689272,0.00101990480792,744.337837841,425.157867993,0.0,0.0,-0.0,0.0,-0.0,0.0,0.484336878931,122.232554846,290.071528393
15.4,2.09518521175E7,2.84044123658,0.0,0.0,0.553406106849,492.784057129,26205.7922042,7.76758512318E-6,0.0,32.1181796849,-176.6620273603016,-15.897367721279837,38.6476227566959,17.91078653178767,6.094690986030225,33.98697056520055,-29567.04342774,1011.04367875,0.00102174413302,746.011603572,425.33261526,0.0,0.0,-0.0,0.0,-0.0,0.0,0.487403533442,124.059303898,291.967876931
15.5,2.09518026791E7,2.89613527434,0.0,0.0,0.560617637044,495.984733494,26156.3537648,7.91990697222E-6,0.0,32.1183314713,-173.48155302077564,-17.52869393794784,39.51440175536861,17.709514599057446,6.994807750074955,33.86488567746019,-29759.08400964,1011.25131565,0.00102362238264,747.727865351,425.508513787,0.0,0.0,-0.0,0.0,-0.0,0.0,0.490468535425,125.907117308,293.864234052
15.6,2.09517529206E7,2.95255262341,0.0,0.0,0.567875872445,499.185425009,26106.595257,8.07420766908E-6,0.0,32.1184842417,-170.24726316197584,-19.12584703786337,40.25731005477201,17.481654526154294,7.880681303750317,33.72781487134937,-29951.12550054,1011.46029681,0.00102551279219,749.455238345,425.685551094,0.0,0.0,-0.0,0.0,-0.0,0.0,0.49353163754,127.772903114,295.760599829
