time,feVelocity_ft_s_X,feVelocity_ft_s_Y,feVelocity_ft_s_Z,altitudeMsl_ft,longitude_deg,latitude_deg,localGravity_ft_s2,eulerAngle_deg_Yaw,eulerAngle_deg_Pitch,eulerAngle_deg_Roll,bodyAngularRateWrtEi_deg_s_Roll,bodyAngularRateWrtEi_deg_s_Pitch,bodyAngularRateWrtEi_deg_s_Yaw,altitudeRateWrtMsl_ft_min,speedOfSound_ft_s,airDensity_slug_ft3,ambientPressure_lbf_ft2,ambientTemperature_dgR,aero_bodyForce_lbf_X,aero_bodyForce_lbf_Y,aero_bodyForce_lbf_Z,aero_bodyMoment_ftlbf_L,aero_bodyMoment_ftlbf_M,aero_bodyMoment_ftlbf_N,mach,trueAirspeed_nmi_h
0.0,0.0,0.0,0.0,30000.0,0.0,0.0,32.10653699,0.0,0.0,0.0,9.999999988558965,19.99999997711793,30.000000022972678,0.0,994.8492583,8.90951E-4,629.8546116,411.8392612,0.0,0.0,0.0,0.0,0.0,0.0,1.01E-8,5.92E-6
0.1,0.0,2.1E-5,3.199510561,29999.84002,1.82E-12,0.0,32.10653738,3.004403429,2.000611467,1.014821452,9.452192519620873,20.43327736540144,29.79403573308942,-191.9706337,994.8499466,8.90956E-4,629.8591389,411.8398311,0.0,0.0,0.0,0.0,0.0,0.0,0.003216074,1.895658176
0.2,0.0,8.87E-5,6.399021221,29999.3601,1.58E-11,0.0,32.10653876,6.028403529,3.989381167,2.079550548,8.896758409471808,20.839087156986416,29.5957549791262,-383.9412732,994.8520117,8.90972E-4,629.872771,411.8415408,0.0,0.0,0.0,0.0,0.0,0.0,0.006432134,3.791316409
0.3,0.0,2.02981E-4,9.598532075,29998.56022,5.46E-11,0.0,32.10654111,9.078842191,5.960658753,3.194991034,8.334468229050435,21.2176856931904,29.406014390282504,-575.9119245,994.8554451,8.90998E-4,629.8954474,411.8443835,0.0,0.0,0.0,0.0,0.0,0.0,0.009648168,5.68697476
0.4,0.0,3.63967E-4,12.79804322,29997.44039,1.31E-10,0.0,32.10654445,12.16231386,7.908920289,4.361735209,7.766007006696616,21.56921925013849,29.225647849333377,-767.8825934,994.8602553,8.91034E-4,629.9271791,411.8483661,0.0,0.0,0.0,0.0,0.0,0.0,0.012864162,7.582633284
0.5,0.0,5.71614E-4,15.99755476,29996.00061,2.58E-10,0.0,32.10654877,15.2853095,9.828488548,5.580641716,7.1920172572818055,21.89385484502797,29.05543222975323,-959.8532857,994.866442,8.91081E-4,629.9680164,411.8534885,0.0,0.0,0.0,0.0,0.0,0.0,0.016080103,9.478292042
0.6,0.0,8.25925E-4,19.19706679,29994.24088,4.48E-10,0.0,32.10655408,18.45418082,11.71351076,6.85277516,6.613100128124659,22.191773417930538,28.896086536279167,-1151.824007,994.8739972,8.91138E-4,630.0179494,411.8597438,0.0,0.0,0.0,0.0,0.0,0.0,0.019295978,11.37395109
0.7,0.0,0.001126897,22.3965794,29992.1612,7.14E-10,0.0,32.10656036,21.67509109,13.55794025,8.179332036,6.029816945977062,22.46316438869326,28.748271561136317,-1343.794764,994.8829289,8.91205E-4,630.0768892,411.867139,0.0,0.0,0.0,0.0,0.0,0.0,0.022511774,13.26961049
0.8,0.0,0.001474532,25.5960927,29989.76156,1.07E-9,0.0,32.10656763,24.95395021,15.35552311,9.561551107,5.442691566151104,22.70821964088173,28.612589540263144,-1535.765562,994.8932372,8.91283E-4,630.1449367,411.875674,0.0,0.0,0.0,0.0,0.0,0.0,0.025727477,15.16527029
0.9,0.0,0.00186883,28.79560678,29987.04198,1.52E-9,0.0,32.10657588,28.2963319,17.09979149,11.00060642,4.852212320575571,22.92712870893458,28.489584497086117,-1727.736407,994.904922,8.91371E-4,630.2220928,411.8853488,0.0,0.0,0.0,0.0,0.0,0.0,0.028943074,17.06093056
1.0,0.0,0.00230979,31.99512173,29984.00244,2.09E-9,0.0,32.10658511,31.70737108,18.78406526,12.49748151,4.258835054472272,23.120073965317992,28.37974218522395,-1919.707304,994.9179749,8.9147E-4,630.3082478,411.8961566,0.0,0.0,0.0,0.0,0.0,0.0,0.032158552,18.95659136
1.1,0.0,0.002797413,35.19463767,29980.64296,2.79E-9,0.0,32.10659532,35.1916407,20.40146395,14.05282397,3.662985991145002,23.287226552525375,28.283490432262266,-2111.67826,994.9324043,8.91579E-4,630.4035637,411.9081042,0.0,0.0,0.0,0.0,0.0,0.0,0.035373898,20.85225273
1.2,0.0,0.003331698,38.39415468,29976.96352,3.63E-9,0.0,32.10660652,38.75300811,21.94493145,15.66678081,3.065064825951645,23.428742658851682,28.201199655415614,-2303.649281,994.9482101,8.91698E-4,630.5078915,411.9211917,0.0,0.0,0.0,0.0,0.0,0.0,0.038589099,22.74791475
1.3,0.0,0.003912646,41.59367286,29972.96412,4.62E-9,0.0,32.10661869,42.394473,23.40727544,17.33881661,2.465448278642498,23.54476036712554,28.133183205302156,-2495.620371,994.9653838,8.91827E-4,630.6213223,411.9354121,0.0,0.0,0.0,0.0,0.0,0.0,0.041804141,24.64357746
1.4,0.0,0.004540257,44.79319231,29968.64478,5.77E-9,0.0,32.10663185,46.11799117,24.78122401,19.06751878,1.8644935311070447,23.635396732624496,28.079697595126774,-2687.591539,994.9839338,8.91967E-4,630.743868,411.9507724,0.0,0.0,0.0,0.0,0.0,0.0,0.045019011,26.53924093
1.5,0.0,0.00521453,47.99271313,29964.00549,7.1E-9,0.0,32.10664599,49.92429125,26.05950103,20.85039706,1.2625418370080657,23.700745835018502,28.040943245526197,-2879.562788,995.0038599,8.92118E-4,630.8754302,411.9672725,0.0,0.0,0.0,0.0,0.0,0.0,0.048233696,28.43490521
1.6,0.0,0.005935467,51.19223541,29959.04624,8.63E-9,0.0,32.10666111,53.81269466,27.23492154,22.68368757,0.6599225324862011,23.74087683031344,28.01706442727324,-3071.534125,995.0251538,8.92279E-4,631.0161504,411.9849055,0.0,0.0,0.0,0.0,0.0,0.0,0.051448183,30.33057037
1.7,0.0,0.006703066,54.39175926,29953.76704,1.04E-8,0.0,32.10667722,57.7809524,28.30050682,24.56217497,0.05695664579406255,23.755832747639715,28.00814977693881,-3263.505556,995.0478237,8.9245E-4,631.1658907,412.0036784,0.0,0.0,0.0,0.0,0.0,0.0,0.054662458,32.22623646
1.8,0.0,0.007517328,57.59128477,29948.16789,1.23E-8,0.0,32.10669431,61.8251151,29.24961772,26.47904903,-0.5460390919992023,23.74562980170294,28.01423229689191,-3455.477086,995.0718694,8.92631E-4,631.3247532,412.0235912,0.0,0.0,0.0,0.0,0.0,0.0,0.057876508,34.12190354
1.9,0.0,0.008378253,60.79081203,29942.24878,1.45E-8,0.0,32.10671237,65.93945429,30.07610265,28.4258137,-1.148748293599123,23.710256819826103,28.035289469891193,-3647.448722,995.097291,8.92823E-4,631.4927402,412.0446437,0.0,0.0,0.0,0.0,0.0,0.0,0.061090321,36.01757166
2.0,0.0,0.009285841,63.99034116,29936.00972,1.69E-8,0.0,32.10673143,70.11645268,30.77445442,30.39226628,-1.7508510193728979,23.649675929498944,28.071243144493394,-3839.420469,995.1240799,8.93025E-4,631.6697932,412.0668292,0.0,0.0,0.0,0.0,0.0,0.0,0.064303882,37.91324089
2.1,0.0,0.010240092,67.18987223,29929.45071,1.96E-8,0.0,32.10675146,74.34687869,31.3399685,32.36656192,-2.3520198239406116,23.563822787561076,28.121959592349135,-4031.392334,995.1522443,8.93238E-4,631.8559251,412.0901546,0.0,0.0,0.0,0.0,0.0,0.0,0.06751718,39.80891128
2.2,0.0,0.011241006,70.38940536,29922.57175,2.25E-8,0.0,32.10677247,78.61995433,31.76889302,34.33537257,-2.9519159746537817,23.452607898004892,28.187249107132452,-4223.364322,995.1817843,8.93461E-4,632.0511385,412.1146198,0.0,0.0,0.0,0.0,0.0,0.0,0.0707302,41.7045829
2.3,0.0,0.012288584,73.58894064,29915.37283,2.57E-8,0.0,32.10679447,82.92361801,32.0585605,36.28414168,-3.5501855554823583,23.315918388144762,28.26686571806189,-4415.336438,995.2126995,8.93694E-4,632.255486,412.1402248,0.0,0.0,0.0,0.0,0.0,0.0,0.073942929,43.60025579
2.4,0.0,0.013382825,76.78847816,29907.85396,2.92E-8,0.0,32.10681745,87.24487297,32.20749096,38.19742555,-4.146455914676387,23.153620013969277,28.36050684612584,-4607.30869,995.2449816,8.93938E-4,632.4689599,412.1669627,0.0,0.0,0.0,0.0,0.0,0.0,0.077155354,45.49593003
2.5,0.0,0.014523729,79.98801803,29900.01514,3.3E-8,0.0,32.10684141,91.57020244,32.21545797,40.05930215,-4.740331883244568,22.965559681155582,28.46781290301209,-4799.281082,995.2786388,8.94192E-4,632.6915234,412.1948405,0.0,0.0,0.0,0.0,0.0,0.0,0.080367463,47.39160566
2.6,0.0,0.015711297,83.18756034,29891.85636,3.72E-8,0.0,32.10686635,95.88602344,32.08351154,41.85381937,-5.331392509094818,22.751568882816134,28.588366890037328,-4991.25362,995.3136627,8.94456E-4,632.9231689,412.2238513,0.0,0.0,0.0,0.0,0.0,0.0,0.083579242,49.28728274
2.7,0.0,0.016945528,86.38710519,29883.37762,4.16E-8,0.0,32.10689228,100.1791459,31.81395539,43.56544936,-5.919187791174843,22.5114670226539,28.7216941116683,-5183.226311,995.3500696,8.94731E-4,633.1639708,412.2540088,0.0,0.0,0.0,0.0,0.0,0.0,0.086790677,51.18296134
2.8,0.0,0.018226423,89.58665268,29874.57894,4.64E-8,0.0,32.10691919,104.4372033,31.41028021,45.17951469,-6.50323575738738,22.245065597554284,28.867261545268192,-5375.199161,995.3878428,8.95016E-4,633.4138611,412.2852992,0.0,0.0,0.0,0.0,0.0,0.0,0.090001757,53.07864151
2.9,0.0,0.019553982,92.7862029,29865.46029,5.16E-8,0.0,32.10694707,108.6490235,30.87705808,46.68255604,-7.083019485209661,21.9521727239517,29.024477898392433,-5567.172174,995.4269823,8.95312E-4,633.6728432,412.3177226,0.0,0.0,0.0,0.0,0.0,0.0,0.093212467,54.9743233
3.0,0.0,0.020928205,95.98575596,29856.0217,5.71E-8,0.0,32.10697595,112.8049187,30.21980647,48.06261865,-7.657984809862237,21.63259823715395,29.192693436901344,-5759.145357,995.4675043,8.95618E-4,633.9409916,412.3512927,0.0,0.0,0.0,0.0,0.0,0.0,0.096422794,56.87000679
3.1,0.0,0.022349092,99.18531195,29846.26314,6.3E-8,0.0,32.1070058,116.8968807,29.44483173,49.30944506,-8.227538261660913,21.2861590198497,29.371200214143258,-5951.118717,995.5093922,8.95934E-4,634.2182388,412.3859958,0.0,0.0,0.0,0.0,0.0,0.0,0.099632726,58.76569202
3.2,0.0,0.023816643,102.384871,29836.18463,6.94E-8,0.0,32.10703663,120.9186796,28.55906281,50.41457183,-8.791045347143363,20.91268501816535,29.55923218554609,-6143.092258,995.552654,8.96261E-4,634.5046491,412.4218387,0.0,0.0,0.0,0.0,0.0,0.0,0.102842249,60.66137905
3.3,0.0,0.025330858,105.5844331,29825.78617,7.61E-8,0.0,32.10706845,124.8658739,27.56988517,51.37133752,-9.347828944787299,20.51202548690502,29.755966125349804,-6335.065986,995.5972897,8.96598E-4,634.8001763,412.4588214,0.0,0.0,0.0,0.0,0.0,0.0,0.10605135,62.55706795
3.4,0.0,0.026891738,108.7839985,29815.06775,8.32E-8,0.0,32.10710125,128.7357442,26.48498319,52.1748154,-9.897169075827362,20.08405557856514,29.960522715226205,-6527.039908,995.6432906,8.96945E-4,635.1048138,412.4969371,0.0,0.0,0.0,0.0,0.0,0.0,0.109260016,64.45275876
3.5,0.0,0.028499282,111.9835672,29804.02937,9.08E-8,0.0,32.10713503,132.5271705,25.31219739,52.82168858,-10.438301987522648,19.62868339071537,30.17196780478611,-6719.014029,995.690665,8.97303E-4,635.4186262,412.5361926,0.0,0.0,0.0,0.0,0.0,0.0,0.112468234,66.34845155
3.6,0.0,0.03015349,115.1831393,29792.67103,9.88E-8,0.0,32.1071698,136.2404686,24.05940068,53.310086,-10.970420955297605,19.145857013379477,30.389314474227422,-6910.988356,995.7394126,8.97671E-4,635.7416179,412.576588,0.0,0.0,0.0,0.0,0.0,0.0,0.115675991,68.24414638
3.7,0.0,0.031854363,118.3827149,29780.99274,1.07E-7,0.0,32.10720554,139.8772056,22.73439542,53.63939669,-11.492676912995641,18.63557203478243,30.61152561264516,-7102.962893,995.7895249,8.9805E-4,636.0736822,412.6181163,0.0,0.0,0.0,0.0,0.0,0.0,0.118883274,70.13984331
3.8,0.0,0.033601901,121.5822941,29768.99449,1.16E-7,0.0,32.10724227,143.4400086,21.34483177,53.81007701,-12.004179942569351,18.097878932505992,30.83751678282049,-7294.937647,995.8410101,8.98439E-4,636.4149345,412.6607845,0.0,0.0,0.0,0.0,0.0,0.0,0.12209007,72.03554239
3.9,0.0,0.035396104,124.7818771,29756.67628,1.26E-7,0.0,32.10727998,146.9323772,19.89814613,53.82346244,-12.504001909686407,17.53289080841891,31.0661601173337,-7486.912624,995.8938678,8.98838E-4,636.7653793,412.7045924,0.0,0.0,0.0,0.0,0.0,0.0,0.125296366,73.93124367
4.0,0.0,0.037236973,127.9814638,29744.03811,1.36E-7,0.0,32.10731867,150.3585092,18.40151805,53.68159192,-12.991178870152282,16.94079037876206,31.296288558451884,-7678.88783,995.9480979,8.99248E-4,637.1249711,412.7495403,0.0,0.0,0.0,0.0,0.0,0.0,0.128502147,75.82694723
4.1,0.0,0.039124506,131.1810545,29731.07999,1.46E-7,0.0,32.10735835,153.7231442,16.86184297,53.38704987,-13.464715367093719,16.321837709078643,31.526700957453333,-7870.86327,996.0036919,8.99668E-4,637.4937043,412.795621,0.0,0.0,0.0,0.0,0.0,0.0,0.131707404,77.72265312
4.2,0.0,0.041058705,134.3806492,29717.8019,1.57E-7,0.0,32.107399,157.0314268,15.28571862,52.94282845,-13.923588384367513,15.676376631341524,31.75616786150126,-8062.838951,996.0606578,9.00098E-4,637.8716443,412.8428416,0.0,0.0,0.0,0.0,0.0,0.0,0.13491212,79.61836139
4.3,0.0,0.043039569,137.580248,29704.20386,1.68E-7,0.0,32.10744064,160.2887915,13.67944248,52.3522106,-14.366752846955341,15.004841619446745,31.983437988066882,-8254.814877,996.1189954,9.00539E-4,638.2587462,412.8912021,0.0,0.0,0.0,0.0,0.0,0.0,0.138116285,81.5140721
4.4,0.0,0.045067099,140.7798509,29690.28585,1.81E-7,0.0,32.10748326,163.5008671,12.0490181,51.61867324,-14.793147465133293,14.307763461495718,32.207245329606074,-8446.791056,996.1786962,9.0099E-4,638.6550044,412.9406955,0.0,0.0,0.0,0.0,0.0,0.0,0.141319884,83.40978532
4.5,0.0,0.047141295,143.9794582,29676.04789,1.93E-7,0.0,32.10752687,166.6733994,10.40016843,50.74580904,-15.201701266190707,13.585774588302705,32.42631711767274,-8638.767492,996.2397682,9.01451E-4,639.0604851,412.9913287,0.0,0.0,0.0,0.0,0.0,0.0,0.144522906,85.30550109
4.6,0.0,0.049262157,147.1790699,29661.48996,2.06E-7,0.0,32.10757145,169.8121901,8.738354451,49.73726479,-15.591341100177303,12.839613313282511,32.63938224539837,-8830.744193,996.3022111,9.01923E-4,639.4751937,413.0431018,0.0,0.0,0.0,0.0,0.0,0.0,0.147725335,87.20121949
4.7,0.0,0.051429685,150.378686,29646.61207,2.2E-7,0.0,32.10761702,172.9230498,7.068797688,48.59669424,-15.96099920294608,12.070127384788812,32.845180434816825,-9022.721163,996.3660247,9.02406E-4,639.8990352,413.0960147,0.0,0.0,0.0,0.0,0.0,0.0,0.15092716,89.09694056
4.8,0.0,0.053643879,153.5783068,29631.41422,2.34E-7,0.0,32.10766357,176.0117606,5.396505699,47.32772347,-16.309621675928675,11.278275991466433,33.04247140418896,-9214.698408,996.4312005,9.02898E-4,640.3321052,413.1500606,0.0,0.0,0.0,0.0,0.0,0.0,0.154128369,90.99266436
4.9,0.0,0.05590474,156.7779322,29615.89641,2.49E-7,0.0,32.1077111,179.0840492,3.726299462,45.93392676,-16.636177424276973,10.465131137350065,33.230045353130365,-9406.675935,996.4977464,9.03401E-4,640.7744201,413.2052463,0.0,0.0,0.0,0.0,0.0,0.0,0.157328948,92.88839096
5.0,0.0,0.058212267,159.9775625,29600.05864,2.65E-7,0.0,32.10775961,-177.8544349,2.062842077,44.41881155,-16.939666923117368,9.631877412681137,33.40673258830229,-9598.653749,996.5656623,9.03914E-4,641.2259354,413.2615718,0.0,0.0,0.0,0.0,0.0,0.0,0.160528883,94.78412041
5.1,0.0,0.060566462,163.1771976,29583.9009,2.81E-7,0.0,32.10780911,-174.7981367,0.410668154,42.78581122,-17.219131499467046,8.779810160442878,33.571414123130836,-9790.631856,996.6349394,9.04438E-4,641.6866466,413.3190303,0.0,0.0,0.0,0.0,0.0,0.0,0.163728164,96.67985277
5.2,0.0,0.062967323,166.3768377,29567.4232,2.98E-7,0.0,32.10785959,-171.7416102,-1.225786602,41.03828471,-17.473662671446057,7.910332554275564,33.723031761864185,-9982.610262,996.7055859,9.04972E-4,642.1566208,413.3776286,0.0,0.0,0.0,0.0,0.0,0.0,0.166926776,98.57558809
5.3,0.0,0.065414852,169.5764829,29550.62553,3.16E-7,0.0,32.10791105,-168.6795333,-2.842156084,39.17952245,-17.70241125830623,7.024951243997266,33.86059829822132,-10174.58897,996.7776014,9.05517E-4,642.6358138,413.4373668,0.0,0.0,0.0,0.0,0.0,0.0,0.170124705,100.4713264
5.4,0.0,0.067909048,172.7761332,29533.5079,3.34E-7,0.0,32.10796349,-165.6067231,-4.434115213,37.21275828,-17.90459586020657,6.125270224955453,33.9832071983788,-10366.56799,996.8509857,9.06072E-4,643.1242825,413.4982448,0.0,0.0,0.0,0.0,0.0,0.0,0.17332194,102.3670679
5.5,0.0,0.070449911,175.9757889,29516.07031,3.53E-7,0.0,32.10801691,-162.5181544,-5.997352596,35.14118722,-18.07951150987595,5.212983504167205,34.09004171099965,-10558.54733,996.9257301,9.06654E-4,643.6343932,413.5602557,0.0,0.0,0.0,0.0,0.0,0.0,0.176518468,104.2628125
5.6,0.0,0.073037442,179.1754499,29498.31274,3.72E-7,0.0,32.10807132,-159.4089813,-7.527544974,32.96798941,-18.226537350247565,4.289866334064953,34.18038346160035,-10750.52699,997.0018426,9.07257E-4,644.1604857,413.6234065,0.0,0.0,0.0,0.0,0.0,0.0,0.179714276,106.1585602
5.7,0.0,0.075671642,182.3751164,29480.23522,3.93E-7,0.0,32.10812671,-156.2745655,-9.020334082,30.6963604,-18.345143395360925,3.357765243030843,34.25362018748102,-10942.50698,997.079323,9.0787E-4,644.6962317,413.6876971,0.0,0.0,0.0,0.0,0.0,0.0,0.182909351,108.0543113
5.8,0.0,0.078352509,185.5747884,29461.83772,4.14E-7,0.0,32.10818308,-153.1105093,-10.47130664,28.32954806,-18.434896947489143,2.4185869200155072,34.30925198296539,-11134.4873,997.1581626,9.08495E-4,645.2416279,413.7531207,0.0,0.0,0.0,0.0,0.0,0.0,0.186103681,109.9500656
5.9,0.0,0.081080045,188.7744661,29443.12026,4.36E-7,0.0,32.10824043,-149.9126964,-11.87597828,25.87089675,-18.495467180801306,1.4742860105370323,34.34689743004928,-11326.46797,997.2383693,9.0913E-4,645.7965915,413.8196841,0.0,0.0,0.0,0.0,0.0,0.0,0.189297253,111.8458234
6.0,0.0,0.08385425,191.9741496,29424.08283,4.58E-7,0.0,32.10829877,-146.6773406,-13.22978236,23.32389858,-18.52662926665862,0.526852339722125,34.36629720803458,-11518.44898,997.3199429,9.09776E-4,646.3612306,413.8873874,0.0,0.0,0.0,0.0,0.0,0.0,0.192490052,113.7415845
6.1,0.0,0.086675123,195.173839,29404.72543,4.81E-7,0.0,32.10835809,-143.4010409,-14.52806461,20.69225202,-18.52826718110756,-0.4217028386809698,34.36731747398038,-11710.43034,997.402883,9.10433E-4,646.9355026,413.9562305,0.0,0.0,0.0,0.0,0.0,0.0,0.195682067,115.6373492
6.2,0.0,0.089542665,198.3735343,29385.04806,5.06E-7,0.0,32.10841839,-140.0808454,-15.7660846,17.9799272,-18.500374793499716,-1.369360306810655,34.34995123780154,-11902.41206,997.487181,9.111E-4,647.5194546,414.0262065,0.0,0.0,0.0,0.0,0.0,0.0,0.198873287,117.5331174
6.3,0.0,0.092456877,201.5732356,29365.05072,5.3E-7,0.0,32.10847967,-136.7143195,-16.93902522,15.19123712,-18.44305603837913,-2.31410714934108,34.31431830497306,-12094.39414,997.5728448,9.11779E-4,648.113055,414.0973224,0.0,0.0,0.0,0.0,0.0,0.0,0.202063697,119.4288892
6.4,0.0,0.095417758,204.7729431,29344.73341,5.56E-7,0.0,32.10854194,-133.2996204,-18.04201089,12.3309128,-18.356523769566692,-3.253950561765002,34.26066413061434,-12286.37659,997.6598741,9.12469E-4,648.7163117,414.1695781,0.0,0.0,0.0,0.0,0.0,0.0,0.205253284,121.3246647
6.5,0.0,0.098425308,207.9726569,29324.09613,5.83E-7,0.0,32.10860519,-129.835572,-19.07013553,9.404180229,-18.24109718185007,-4.186931314901976,34.18935684010877,-12478.35941,997.7482685,9.13169E-4,649.3292328,414.2429736,0.0,0.0,0.0,0.0,0.0,0.0,0.208442036,123.2204438
6.6,0.0,0.101479529,211.172377,29303.13888,6.1E-7,0.0,32.10866942,-126.3217385,-20.0185007,6.416835499,-18.097197914870698,-5.111136761040298,34.100883390286434,-12670.34262,997.8380194,9.1388E-4,649.951866,414.3175021,0.0,0.0,0.0,0.0,0.0,0.0,0.211629941,125.1162268
6.7,0.0,0.10458042,214.3721036,29281.86166,6.38E-7,0.0,32.10873463,-122.7584918,-20.88226411,3.375314003,-17.9253455267572,-6.024713267121163,33.99584395443773,-12862.32621,997.9291346,9.14602E-4,650.5841298,414.3931705,0.0,0.0,0.0,0.0,0.0,0.0,0.214816986,127.0120137
6.8,0.0,0.107727981,217.5718367,29260.26446,6.67E-7,0.0,32.10880082,-119.1470677,-21.65669819,0.286748713,-17.726151019702307,-6.925877043640993,33.874945505186055,-13054.3102,998.0216139,9.15335E-4,651.2261836,414.4699786,0.0,0.0,0.0,0.0,0.0,0.0,0.218003158,128.9078044
6.9,0.0,0.110922213,220.7715764,29238.34729,6.97E-7,0.0,32.108868,-115.4896043,-22.3372578,-2.840987974,-17.500310480131315,-7.812924629779087,33.73899425144494,-13246.29459,998.1154485,9.16079E-4,651.8778743,414.5479198,0.0,0.0,0.0,0.0,0.0,0.0,0.221188445,130.803599
7.0,0.0,0.114163116,223.9713229,29216.11014,7.28E-7,0.0,32.10893616,-111.789159,-22.91965542,-5.999264402,-17.248597171884537,-8.684241659651887,33.588887273234235,-13438.27938,998.2106464,9.16833E-4,652.539322,414.6270007,0.0,0.0,0.0,0.0,0.0,0.0,0.224372834,132.6993977
7.1,0.0,0.117450689,227.1710763,29193.55302,7.59E-7,0.0,32.1090053,-108.0496958,-23.39994157,-9.178697023,-16.971853228329252,-9.538310425355872,33.425603239763795,-13630.26458,998.3072071,9.17599E-4,653.2104853,414.7072215,0.0,0.0,0.0,0.0,0.0,0.0,0.227556312,134.5952005
7.2,0.0,0.120784934,230.3708365,29170.67593,7.92E-7,0.0,32.10907542,-104.276041,-23.77458741,-12.36918908,-16.67098100069701,-10.373716007615972,33.25019295562988,-13822.25019,998.4051221,9.18375E-4,653.8913622,414.7885753,0.0,0.0,0.0,0.0,0.0,0.0,0.230738869,136.4910074
7.3,0.0,0.124165851,233.5706038,29147.47886,8.26E-7,0.0,32.10914653,-100.4738046,-24.04056602,-15.56000301,-16.34693406264625,-11.189150859447915,33.063769276757974,-14014.23623,998.5044073,9.19162E-4,654.582034,414.8710757,0.0,0.0,0.0,0.0,0.0,0.0,0.233920487,138.3868185
7.4,0.0,0.12759344,236.7703783,29123.96181,8.6E-7,0.0,32.10921862,-96.6492654,-24.19542841,-18.73986675,-16.00070781375445,-11.983418072017681,32.86749662527512,-14206.2227,998.605046,9.1996E-4,655.2824377,414.9547092,0.0,0.0,0.0,0.0,0.0,0.0,0.237101158,140.2826338
7.5,0.0,0.131067701,239.9701599,29100.12478,8.95E-7,0.0,32.10929169,-92.8092243,-24.23737048,-21.89711128,-15.633330369489187,-12.755433150810642,32.6625810200443,-14398.2096,998.7070376,9.20769E-4,655.9925828,415.0394756,0.0,0.0,0.0,0.0,0.0,0.0,0.24028087,142.1784535
7.6,0.0,0.134588634,243.1699489,29075.96777,9.32E-7,0.0,32.10936575,-88.9608302,-24.16528706,-25.01983429,-15.245853451179203,-13.504224302110483,32.45025970612829,-14590.19694,998.8103984,9.21589E-4,656.7125004,415.1253886,0.0,0.0,0.0,0.0,0.0,0.0,0.243459606,144.0742775
7.7,0.0,0.13815624,246.3697454,29051.49079,9.69E-7,0.0,32.10944078,-85.1113864,-23.9788102,-28.09608191,-14.839343734351697,-14.228931688154049,32.231791299915685,-14782.18472,998.9151112,9.2242E-4,657.4422288,415.2124347,0.0,0.0,0.0,0.0,0.0,0.0,0.246637358,145.9701059
7.8,0.0,0.141770519,249.5695493,29026.69383,1.01E-6,0.0,32.1095168,-81.2681476,-23.67832947,-31.11403906,-14.414874254365383,-14.928804848821278,32.008446220725595,-14974.17296,999.0211841,9.23261E-4,658.1817382,415.3006206,0.0,0.0,0.0,0.0,0.0,0.0,0.249814112,147.8659388
7.9,0.0,0.145431471,252.7693609,29001.57688,1.05E-6,0.0,32.1095938,-77.4381171,-23.26499345,-34.06221759,-13.973516499592934,-15.603199894142007,31.781497408891486,-15166.16165,999.1286082,9.24113E-4,658.9310275,415.3899394,0.0,0.0,0.0,0.0,0.0,0.0,0.252989856,149.7617762
8.0,0.0,0.149139096,255.9691802,28976.13995,1.09E-6,0.0,32.10967179,-73.6278565,-22.74069248,-36.92963169,-13.51633319215276,-16.25157503522516,31.552212017873053,-15358.15081,999.2373997,9.24977E-4,659.6901791,415.480405,0.0,0.0,0.0,0.0,0.0,0.0,0.256164575,151.6576183
8.1,0.0,0.152893396,259.1690073,28950.38304,1.13E-6,0.0,32.10975075,-69.8433162,-22.10802438,-39.7059512,-13.044371584302798,-16.873485370342813,31.32184333555137,-15550.14044,999.3475416,9.25851E-4,660.4591308,415.5720035,0.0,0.0,0.0,0.0,0.0,0.0,0.25933826,153.553465
8.2,0.0,0.156694369,262.3688423,28924.30615,1.17E-6,0.0,32.1098307,-66.0896945,-21.37024541,-42.38162547,-12.55865721320055,-17.46857726994382,31.091623622256428,-15742.13054,999.4590418,9.26736E-4,661.2379036,415.6647418,0.0,0.0,0.0,0.0,0.0,0.0,0.262510897,155.4493164
8.3,0.0,0.160542017,265.5686853,28897.90927,1.21E-6,0.0,32.10991163,-62.3713302,-20.53120985,-44.94797294,-12.060189088057607,-18.03658178763914,30.862757407160913,-15934.12112,999.5718914,9.27631E-4,662.0264971,415.7586131,0.0,0.0,0.0,0.0,0.0,0.0,0.265682475,157.3451726
8.4,0.0,0.16443634,268.7685364,28871.19241,1.26E-6,0.0,32.10999355,-58.6916309,-19.59530171,-47.39723462,-11.549934648111043,-18.577307956595664,30.636415815998078,-16126.11219,999.6860983,9.28538E-4,662.8249832,415.8536243,0.0,0.0,0.0,0.0,0.0,0.0,0.26885298,159.2410336
8.5,0.0,0.168377337,271.9683958,28844.15557,1.3E-6,0.0,32.11007644,-55.0530361,-18.56736238,-49.7225922,-11.028826267580877,-19.090635283789066,30.41373129985,-16318.10375,999.8016621,9.29455E-4,663.633322,415.9497752,0.0,0.0,0.0,0.0,0.0,0.0,0.2720224,161.1368995
8.6,0.0,0.17236501,275.1682634,28816.79873,1.35E-6,0.0,32.11016032,-51.4570124,-17.45261779,-51.91815376,-10.497758161697964,-19.57650681721452,30.195793223372565,-16510.09581,999.9185823,9.30384E-4,664.4515242,416.047066,0.0,0.0,0.0,0.0,0.0,0.0,0.275190723,163.0327703
8.7,0.0,0.176399358,278.3681395,28789.12191,1.4E-6,0.0,32.11024518,-47.9040766,-16.25660797,-53.97891184,-9.957583980281271,-20.03492118177331,29.98364419786555,-16702.08837,1000.03685,9.31323E-4,665.2796404,416.1454898,0.0,0.0,0.0,0.0,0.0,0.0,0.278357938,164.9286462
8.8,0.0,0.180480382,281.568024,28761.12511,1.45E-6,0.0,32.11033103,-44.3938407,-14.98512169,-55.9006795,-9.4091153180476,-20.46592536000464,29.778276815413268,-16894.08144,1000.156482,9.32273E-4,666.1176529,416.2450603,0.0,0.0,0.0,0.0,0.0,0.0,0.281524029,166.8245271
8.9,0.0,0.184608083,284.7679172,28732.80831,1.5E-6,0.0,32.11041786,-40.9250734,-13.64413797,-57.68001036,-8.853120625991776,-20.869607186338502,29.58063112787017,-17086.07503,1000.277451,9.33234E-4,666.9655398,416.3457568,0.0,0.0,0.0,0.0,0.0,0.0,0.28468899,168.7204132
9.0,0.0,0.18878246,287.9678191,28704.17152,1.55E-6,0.0,32.11050567,-37.4957732,-12.23977566,-59.31410848,-8.290324810316202,-21.246088299714806,29.39159269880441,-17278.06914,1000.399784,9.34206E-4,667.8233962,416.4476001,0.0,0.0,0.0,0.0,0.0,0.0,0.287852802,170.6163044
9.1,0.0,0.193003513,291.1677297,28675.21474,1.6E-6,0.0,32.11059446,-34.1032467,-10.77825168,-60.80073344,-7.721409576205523,-21.59551680972359,29.211991056511774,-17470.06378,1000.523462,9.35188E-4,668.6911099,416.5505763,0.0,0.0,0.0,0.0,0.0,0.0,0.291015458,172.5122008
9.2,0.0,0.197271244,294.3676492,28645.93798,1.65E-6,0.0,32.11068423,-30.7441894,-9.265848088,-62.13810524,-7.1470142299675405,-21.918060994069283,29.04259849080433,-17662.05895,1000.648494,9.36182E-4,669.568805,416.6546924,0.0,0.0,0.0,0.0,0.0,0.0,0.294176943,174.4081026
9.3,0.0,0.201585652,297.5675778,28616.34121,1.71E-6,0.0,32.11077499,-27.4147653,-7.708887761,-63.32481256,-6.567736653061478,-22.21390276685184,28.88412953734838,-17854.05467,1000.774879,9.37186E-4,670.456493,416.7599483,0.0,0.0,0.0,0.0,0.0,0.0,0.297337246,176.3040097
9.4,0.0,0.205946739,300.7675154,28586.42446,1.76E-6,0.0,32.11086673,-24.1106829,-6.113717964,-64.35972755,-5.984135307450245,-22.48323183439723,28.737240347410903,-18046.05092,1000.902616,9.38201E-4,671.3540843,416.866344,0.0,0.0,0.0,0.0,0.0,0.0,0.300496353,178.1999222
9.5,0.0,0.210354503,303.9674622,28556.18771,1.82E-6,0.0,32.11095945,-20.8272676,-4.486701227,-65.24192896,-5.396731069065397,-22.726240137566823,28.602528687859557,-18238.04773,1001.031696,9.39228E-4,672.2616813,416.9738727,0.0,0.0,0.0,0.0,0.0,0.0,0.303654256,180.0958402
9.6,0.0,0.214808945,307.1674182,28525.63097,1.88E-6,0.0,32.11105316,-17.5595273,-2.834212521,-65.97063553,-4.806009634229864,-22.94311680972878,28.480533998458462,-18430.04509,1001.162128,9.40265E-4,673.1793069,417.0825412,0.0,0.0,0.0,0.0,0.0,0.0,0.30681094,181.9917637
9.7,0.0,0.219310067,310.3673837,28494.75423,1.94E-6,0.0,32.11114785,-14.3022152,-1.162641827,-66.54515035,-4.21242455633427,-23.13404347850417,28.371737506459745,-18622.04302,1001.293911,9.41312E-4,674.1068719,417.1923495,0.0,0.0,0.0,0.0,0.0,0.0,0.309966392,183.8876928
9.8,0.0,0.223857868,313.5673586,28463.55749,2.0E-6,0.0,32.11124352,-11.0498872,0.521598931,-66.96481717,-3.6163997095554543,-23.299190255062367,28.27656257037823,-18814.04152,1001.427036,9.42371E-4,675.044479,417.3032909,0.0,0.0,0.0,0.0,0.0,0.0,0.313120604,185.7836275
9.9,0.0,0.228452348,316.7673431,28432.04076,2.06E-6,0.0,32.11134017,-7.7969565,2.212065589,-67.22898918,-3.0183330130821338,-23.438712009895387,28.195375081061883,-19006.04059,1001.561511,9.4344E-4,675.9921009,417.415372,0.0,0.0,0.0,0.0,0.0,0.0,0.316273561,187.679568
10.0,0.0,0.233093508,319.9673373,28400.20402,2.12E-6,0.0,32.11143781,-4.5377475,3.902269143,-67.33701065,-2.4185994104954416,-23.552745278845812,28.128483920058063,-19198.04024,1001.697335,9.44521E-4,676.9498008,417.528593,0.0,0.0,0.0,0.0,0.0,0.0,0.319425251,189.5755142
10.1,0.0,0.237781348,323.1673413,28368.04729,2.19E-6,0.0,32.11153643,-1.2665492,5.58566188,-67.28821204,-1.8175547085861532,-23.641405455613583,28.07614136068396,-19390.04048,1001.834508,9.45612E-4,677.91749,417.6429538,0.0,0.0,0.0,0.0,0.0,0.0,0.322575661,191.4714662
10.2,0.0,0.242515869,326.3673551,28335.57055,2.25E-6,0.0,32.11163603,2.0223281,7.255623377,-67.08191899,-1.2155391869887966,-23.704784614516374,28.038543239913956,-19582.04131,1001.973021,9.46714E-4,678.8952717,417.7584476,0.0,0.0,0.0,0.0,0.0,0.0,0.325724784,193.3674241
10.3,0.0,0.24729707,329.5673789,28302.77382,2.32E-6,0.0,32.11173662,5.3344934,8.905447511,-66.71747592,-0.6128813797030994,-23.74294996350356,28.015829645928953,-19774.04274,1002.112889,9.47827E-4,679.883181,417.875088,0.0,0.0,0.0,0.0,0.0,0.0,0.3288726,195.263388
10.4,0.0,0.252124953,332.7674128,28269.65708,2.39E-6,0.0,32.11183819,8.6754074,10.52833175,-66.19428471,-0.009901742023877634,-23.755942526353266,28.008084746229063,-19966.04477,1002.254088,9.48951E-4,680.8810959,417.9928546,0.0,0.0,0.0,0.0,0.0,0.0,0.332019108,197.1593578
10.5,0.0,0.256999518,335.9674568,28236.22033,2.46E-6,0.0,32.11194074,12.0503085,12.11737006,-65.51185912,0.5930830522755003,-23.743776225939914,28.01533724599982,-20158.04741,1002.396642,9.50086E-4,681.8891647,418.1117679,0.0,0.0,0.0,0.0,0.0,0.0,0.335164286,199.0553337
10.6,0.0,0.261920765,339.1675111,28202.46359,2.53E-6,0.0,32.11204427,15.4641286,13.66555093,-64.66989532,1.195756558604784,-23.70643805612156,28.037560330816408,-20350.05067,1002.540533,9.51231E-4,682.9073276,418.2318141,0.0,0.0,0.0,0.0,0.0,0.0,0.338308129,200.9513157
10.7,0.0,0.266888694,342.3675757,28168.38683,2.6E-6,0.0,32.11214879,18.9213979,15.16576209,-63.66835859,1.7977983216691575,-23.643887795260984,28.074671494756334,-20542.05454,1002.685778,9.52387E-4,683.9356712,418.353007,0.0,0.0,0.0,0.0,0.0,0.0,0.341450619,202.8473039
10.8,0.0,0.271903306,345.5676508,28133.99007,2.68E-6,0.0,32.11225429,22.4261393,16.61080352,-62.5075856,2.3988801512435702,-23.556059152141284,28.126532654990967,-20734.05905,1002.832351,9.53555E-4,684.9741245,418.4753261,0.0,0.0,0.0,0.0,0.0,0.0,0.344591753,204.7432983
10.9,0.0,0.276964601,348.7677365,28099.2733,2.75E-6,0.0,32.11236077,25.9817518,17.9934105,-61.18840105,2.9986623406512893,-23.442860854585703,28.19294969341932,-20926.06419,1002.980276,9.54733E-4,686.022735,418.5987918,0.0,0.0,0.0,0.0,0.0,0.0,0.34773151,206.639299
11.0,0.0,0.282072579,351.9678328,28064.23652,2.83E-6,0.0,32.11246824,29.5908862,19.30628832,-59.71224579,3.596789656059334,-23.30417819644365,28.273672227484916,-21118.06997,1003.129537,9.55922E-4,687.0814939,418.7233905,0.0,0.0,0.0,0.0,0.0,0.0,0.350869885,208.535306
11.1,0.0,0.287227242,355.1679398,28028.87973,2.9E-6,0.0,32.11257669,33.2553148,20.54215993,-58.08131285,4.1928877268443685,-23.139875272126126,28.36839332369691,-21310.07639,1003.280141,9.57122E-4,688.1504774,418.849129,0.0,0.0,0.0,0.0,0.0,0.0,0.354006864,210.4313194
11.2,0.0,0.292428589,358.3680577,27993.20293,2.98E-6,0.0,32.11268612,36.9758021,21.69382765,-56.2986852,4.786559493254364,-22.949797841394677,28.476748867376497,-21502.08346,1003.432087,9.58332E-4,689.2296486,418.9760074,0.0,0.0,0.0,0.0,0.0,0.0,0.357142433,212.3273393
11.3,0.0,0.297676621,361.5681866,27957.20612,3.06E-6,0.0,32.11279653,40.7519824,22.75424934,-54.36846808,5.377381940549179,-22.733776194150387,28.59831744806535,-21694.09119,1003.585374,9.59554E-4,690.3190216,419.1040256,0.0,0.0,0.0,0.0,0.0,0.0,0.360276583,214.2233657
11.4,0.0,0.302971337,364.7683265,27920.8893,3.15E-6,0.0,32.11290793,44.5822539,23.7166284,-52.29590647,5.964902661253778,-22.49162904654688,28.732619671976295,-21886.09959,1003.739995,9.60786E-4,691.4186505,419.2331767,0.0,0.0,0.0,0.0,0.0,0.0,0.363409303,216.1193987
11.5,0.0,0.30831274,367.9684775,27884.25246,3.23E-6,0.0,32.11302031,48.4636993,24.57451636,-50.08747711,6.548636933073481,-22.223167379807535,28.879118047401718,-22078.10865,1003.895956,9.62034E-4,692.5317736,419.3634677,0.0,0.0,0.0,0.0,0.0,0.0,0.366540581,218.0154384
11.6,0.0,0.313700828,371.1686398,27847.2956,3.32E-6,0.0,32.11313368,52.392044,25.32192499,-47.75094414,7.1280651405838835,-21.92819931036677,29.037216812826237,-22270.11839,1004.053257,9.63346E-4,693.6939107,419.4948985,0.0,0.0,0.0,0.0,0.0,0.0,0.369670403,219.9114847
11.7,0.0,0.319135602,374.3688134,27810.01873,3.4E-6,0.0,32.11324802,56.361662,25.95344402,-45.29536752,7.7026300823292235,-21.60653496001128,29.206261650447818,-22462.1288,1004.211889,9.6467E-4,694.8667312,419.6274623,0.0,0.0,0.0,0.0,0.0,0.0,0.372798762,221.8075377
11.8,0.0,0.324617064,377.5689984,27772.42184,3.49E-6,0.0,32.11336335,60.3656385,26.464359,-42.73105586,8.27173513735743,-21.257992128162208,29.385539972656655,-22654.1399,1004.37186,9.66006E-4,696.0502108,419.7611659,0.0,0.0,0.0,0.0,0.0,0.0,0.375925644,223.7035976
11.9,0.0,0.330145212,380.769195,27734.50493,3.58E-6,0.0,32.11347967,64.3958934,26.85076305,-40.0694583,8.834742489050967,-20.88240196415733,29.57428132310564,-22846.1517,1004.533168,9.67352E-4,697.2443653,419.8960094,0.0,0.0,0.0,0.0,0.0,0.0,0.379051036,225.5996644
12.0,0.0,0.335720049,383.9694032,27696.268,3.67E-6,0.0,32.11359696,68.4433676,27.10965549,-37.32299528,9.390971750028115,-20.479615498969917,29.771658064259704,-23038.16419,1004.695814,9.6871E-4,698.4492614,420.0319926,0.0,0.0,0.0,0.0,0.0,0.0,0.382174928,227.495738
12.1,0.0,0.341341573,387.1696231,27657.71105,3.76E-6,0.0,32.11371524,72.4982641,27.23902077,-34.5048333,9.939699503776744,-20.049510234223366,29.97678646601565,-23230.17739,1004.859788,9.70079E-4,699.6649036,420.1691089,0.0,0.0,0.0,0.0,0.0,0.0,0.38529731,229.3918187
12.2,0.0,0.347009786,390.3698548,27618.83407,3.86E-6,0.0,32.11383451,76.5503354,27.23788172,-31.62861515,10.480158674400734,-19.591997074980537,30.18872825268815,-23422.19129,1005.025107,9.7146E-4,700.89128,420.3073718,0.0,0.0,0.0,0.0,0.0,0.0,0.388418166,231.2879064
12.3,0.0,0.352724687,393.5700985,27579.63707,3.95E-6,0.0,32.11395475,80.5891993,27.10632272,-28.70816168,11.011539156873551,-19.107027549011956,30.40649243647477,-23614.20591,1005.191752,9.72852E-4,702.1283836,420.4467677,0.0,0.0,0.0,0.0,0.0,0.0,0.391537491,233.1840012
12.4,0.0,0.358486278,396.7703542,27540.12005,4.05E-6,0.0,32.11407598,84.6046629,26.84548079,-25.75716479,11.53298856188338,-18.594601312542952,30.629038124949084,-23806.22125,1005.359724,9.74255E-4,703.3762819,420.5872966,0.0,0.0,0.0,0.0,0.0,0.0,0.394655273,235.0801031
12.5,0.0,0.364294559,399.970622,27500.283,4.15E-6,0.0,32.1141982,88.5870361,26.45750452,-22.78889262,12.04361404929807,-18.054773426817636,30.85527738584971,-23998.23732,1005.529039,9.7567E-4,704.6349632,420.7289722,0.0,0.0,0.0,0.0,0.0,0.0,0.397771494,236.9762123
12.6,0.0,0.37014953,403.1709021,27460.12593,4.25E-6,0.0,32.11432139,92.5274128,25.94548372,-19.81592612,12.542484390813195,-17.487662150324923,31.084079085897493,-24190.25412,1005.699678,9.77096E-4,705.9044211,420.8717807,0.0,0.0,0.0,0.0,0.0,0.0,0.40088615,238.8723288
12.7,0.0,0.376051192,406.3711944,27419.64882,4.35E-6,0.0,32.11444557,96.4179051,25.31335442,-16.84994293,13.028633235811489,-16.893456043475187,31.314273302570555,-24382.27166,1005.87165,9.78534E-4,707.1847861,421.0157291,0.0,0.0,0.0,0.0,0.0,0.0,0.403999226,240.7684526
12.8,0.0,0.381999545,409.5714992,27378.85169,4.45E-6,0.0,32.11457073,100.2518199,24.56578538,-13.90155911,13.501062663701175,-16.272421359755832,31.54465648072446,-24574.28995,1006.044954,9.79983E-4,708.4759217,421.1608173,0.0,0.0,0.0,0.0,0.0,0.0,0.407110712,242.6645837
12.9,0.0,0.387994589,412.7718164,27337.73452,4.56E-6,0.0,32.11469688,104.023773,23.70805319,-10.98023331,13.958747824874106,-15.624908863929026,31.773997276761676,-24766.30899,1006.219582,9.81443E-4,709.7779355,421.3070384,0.0,0.0,0.0,0.0,0.0,0.0,0.410220598,244.5607224
13.0,0.0,0.394036325,415.9721463,27296.29732,4.67E-6,0.0,32.11482401,107.7297417,22.74591291,-8.094232278,14.400642097325912,-14.951360306454825,32.001042861167385,-24958.32878,1006.39554,9.82915E-4,711.090805,421.4543994,0.0,0.0,0.0,0.0,0.0,0.0,0.413328872,246.4568685
13.1,0.0,0.400124754,419.1724889,27254.54009,4.78E-6,0.0,32.11495212,111.3670614,21.68547074,-5.250651961,14.825683217304428,-14.252314267660642,32.22452653884811,-25150.34933,1006.572827,9.84398E-4,712.4145987,421.6029002,0.0,0.0,0.0,0.0,0.0,0.0,0.416435521,248.3530222
13.2,0.0,0.406259876,422.3728443,27212.46283,4.89E-6,0.0,32.11508122,114.9343764,20.533064,-2.455484933,15.232799753732758,-13.52841125706566,32.443175254878845,-25342.37066,1006.751444,9.85892E-4,713.7493341,421.7525409,0.0,0.0,0.0,0.0,0.0,0.0,0.419540535,250.2491835
13.3,0.0,0.412441692,425.5732125,27170.06552,5.0E-6,0.0,32.1152113,118.431554,19.29515253,0.286276687,15.620918671252182,-12.780398010564268,32.65571853264468,-25534.39275,1006.931381,9.87398E-4,715.0949145,421.9033145,0.0,0.0,0.0,0.0,0.0,0.0,0.422643906,252.1453526
13.4,0.0,0.418670201,428.7735938,27127.34818,5.11E-6,0.0,32.11534236,121.8595749,17.97822418,2.970514193,15.988973065152392,-12.009130870877067,32.86089712550348,-25726.41563,1007.112647,9.88915E-4,716.4514716,422.055228,0.0,0.0,0.0,0.0,0.0,0.0,0.42574562,254.0415293
13.5,0.0,0.424945404,431.9739882,27084.3108,5.23E-6,0.0,32.11547441,125.2204093,16.58871579,5.593841673,16.335910411963727,-11.215577907494712,33.05747304354729,-25918.43929,1007.295239,9.90443E-4,717.8190234,422.2082813,0.0,0.0,0.0,0.0,0.0,0.0,0.428845666,255.9377139
13.6,0.0,0.431267303,435.1743958,27040.95339,5.34E-6,0.0,32.11560744,128.5168881,15.13295006,8.153460914,16.660701794077703,-10.400819890706156,33.24423895011022,-26110.46375,1007.479157,9.91983E-4,719.1975365,422.3624744,0.0,0.0,0.0,0.0,0.0,0.0,0.431944032,257.8339063
13.7,0.0,0.437635897,438.3748166,26997.27592,5.46E-6,0.0,32.11574145,131.752577,13.6170878,10.64701909,16.962350494113902,-9.566050062415533,33.42002893337497,-26302.489,1007.664401,9.93534E-4,720.5870801,422.5178073,0.0,0.0,0.0,0.0,0.0,0.0,0.435040709,259.7301066
13.8,0.0,0.444051186,441.5752509,26953.27842,5.58E-6,0.0,32.11587645,134.9316572,12.04709456,13.07247457,17.239901506019407,-8.712572359973002,33.58372830395111,-26494.51505,1007.850962,9.95097E-4,721.9876095,422.6742732,0.0,0.0,0.0,0.0,0.0,0.0,0.438135688,261.6263149
13.9,0.0,0.450513172,444.7756986,26908.96087,5.71E-6,0.0,32.11601243,138.0588183,10.42872018,15.42797439,17.492450645097723,-7.841798264906868,33.73428408000274,-26686.54192,1008.038847,9.9667E-4,723.3991547,422.831879,0.0,0.0,0.0,0.0,0.0,0.0,0.441228955,263.5225313
14.0,0.0,0.457021855,447.97616,26864.32328,5.83E-6,0.0,32.11614939,141.1391642,8.767489863,17.71174548,17.719153600741944,-6.9552422192612156,33.87071495671415,-26878.5696,1008.228055,9.98256E-4,724.8217854,422.9906245,0.0,0.0,0.0,0.0,0.0,0.0,0.444320499,265.4187557
14.1,0.0,0.463577235,451.176635,26819.36564,5.96E-6,0.0,32.11628734,144.1781323,7.068705034,19.92200045,17.919234702689025,-6.054515437651732,33.99212116116387,-27070.5981,1008.418578,9.99852E-4,726.2554572,423.1505031,0.0,0.0,0.0,0.0,0.0,0.0,0.447410314,267.3149883
14.2,0.0,0.470179313,454.3771238,26774.08795,6.08E-6,0.0,32.11642627,147.1814276,5.337452666,22.05685786,18.09199534349936,-5.141318745293258,34.09769327587472,-27262.62743,1008.610423,0.00100146,727.7002519,423.3115215,0.0,0.0,0.0,0.0,0.0,0.0,0.450498385,269.2112291
14.3,0.0,0.476828089,457.5776265,26728.49022,6.21E-6,0.0,32.11656619,150.1549688,3.578621623,24.11427637,18.236821427008135,-4.217433238787737,34.18672094777228,-27454.65759,1008.803589,0.00100308,729.1561884,423.4736797,0.0,0.0,0.0,0.0,0.0,0.0,0.453584702,271.1074781
14.4,0.0,0.483523565,460.7781431,26682.57243,6.34E-6,0.0,32.11670708,153.1048477,1.796924883,26.09200173,18.353190415706187,-3.2847106031374693,34.25860039393206,-27646.68859,1008.998076,0.00100471,730.6231827,423.6369777,0.0,0.0,0.0,0.0,0.0,0.0,0.456669252,273.0037355
14.5,0.0,0.490265739,463.9786739,26636.33459,6.48E-6,0.0,32.11684897,156.0372973,-0.003073382,27.98752545,18.44067728950109,-2.345061652589214,34.31284093329831,-27838.72043,1009.193882,0.001006352,732.101357,423.8014156,0.0,0.0,0.0,0.0,0.0,0.0,0.459752027,274.9000013
14.6,0.0,0.497054613,467.1792188,26589.77669,6.61E-6,0.0,32.11699183,158.9586704,-1.81692671,29.79805395,18.498959473154184,-1.4004443558162682,34.349070315191526,-28030.75313,1009.390999,0.001008006,733.5907186,423.9669864,0.0,0.0,0.0,0.0,0.0,0.0,0.462833019,276.7962755
14.7,0.0,0.503890188,470.3797779,26542.89874,6.75E-6,0.0,32.11713568,161.8754238,-3.640271975,31.52048705,18.527820617802032,-0.452850543297622,34.3670391310835,-28222.78668,1009.589433,0.001009671,735.0912473,424.1336971,0.0,0.0,0.0,0.0,0.0,0.0,0.465912214,278.6925582
14.8,0.0,0.510772463,473.5803515,26495.70074,6.89E-6,0.0,32.11728052,164.7941092,-5.468792291,33.15140506,18.527153064674927,0.49570727071133036,34.36662333561157,-28414.82109,1009.789186,0.001011347,736.6030141,424.3015475,0.0,0.0,0.0,0.0,0.0,0.0,0.468989601,280.5888494
14.9,0.0,0.51770144,476.7809395,26448.18267,7.03E-6,0.0,32.11742633,167.7213669,-7.298177742,34.68706369,18.496959334787167,1.4432098683489918,34.34782579356473,-28606.85637,1009.990254,0.001013035,738.1259871,424.4705379,0.0,0.0,0.0,0.0,0.0,0.0,0.472065169,282.4851493
15.0,0.0,0.524677119,479.9815421,26400.34455,7.17E-6,0.0,32.11757314,170.6639209,-9.124084362,36.12339662,18.437352014345493,2.3876454802051024,34.310776222587776,-28798.89252,1010.192631,0.001014733,739.6601742,424.6406612,0.0,0.0,0.0,0.0,0.0,0.0,0.475138913,284.3814579
15.1,0.0,0.531699501,483.1821593,26352.18636,7.32E-6,0.0,32.11772092,173.6285746,-10.94209183,37.45602572,18.34855226505883,3.327023364420482,34.25572970349113,-28990.92956,1010.396322,0.001016444,741.2056587,424.8119243,0.0,0.0,0.0,0.0,0.0,0.0,0.478210818,286.2777752
15.2,0.0,0.538768585,486.3827913,26303.70812,7.46E-6,0.0,32.11786969,176.6222033,-12.74766031,38.68027947,18.230887417715532,4.259387557674116,34.18306393005331,-29182.96748,1010.601328,0.001018165,742.7624609,424.9843272,0.0,0.0,0.0,0.0,0.0,0.0,0.481280873,288.1741012
15.3,0.0,0.545884373,489.5834381,26254.9098,7.61E-6,0.0,32.11801944,179.6517417,-14.53608696,39.7912206,18.084787076070388,5.182829537550426,34.09327485454179,-29375.00629,1010.807647,0.001019898,744.3304976,425.15787,0.0,0.0,0.0,0.0,0.0,0.0,0.484349069,290.0704362
15.4,0.0,0.553046865,492.7841,26205.79143,7.76E-6,0.0,32.11817018,-177.2758359,-16.3024628,40.78368442,17.910778017520244,6.095500713019207,33.98697113002234,-29567.046,1011.015327,0.00102171,745.9589423,425.3325938,0.0,0.0,0.0,0.0,0.0,0.0,0.48741537,291.96678
15.5,0.0,0.560256062,495.9847768,26156.35298,7.91E-6,0.0,32.1183219,-174.1535462,-18.04163062,41.65232986,17.70947823434292,6.9956231960421675,33.86486792241485,-29759.08661,1011.224328,0.001023546,747.6089078,425.5084644,0.0,0.0,0.0,0.0,0.0,0.0,0.490479787,293.8631328
15.6,0.0,0.567511964,499.1854688,26106.59447,8.07E-6,0.0,32.1184746,-170.9744421,-19.74814502,42.39170581,17.481590058203693,7.8815002294048115,33.727778659901055,-29951.12813,1011.434639,0.001025395,749.2707362,425.6854747,0.0,0.0,0.0,0.0,0.0,0.0,0.493542313,295.7594946
15.7,0.0,0.574814571,502.3861761,26056.51589,8.22E-6,0.0,32.11862829,-167.7316755,-21.41623603,42.99633583,17.227892482520822,8.751524723787577,33.57660724069856,-30143.17057,1011.646261,0.001027256,750.9443457,425.8636249,0.0,0.0,0.0,0.0,0.0,0.0,0.496602938,297.6558655
15.8,0.0,0.582163885,505.5868987,26006.11724,8.38E-6,0.0,32.11878297,-164.4185817,-23.03977773,43.46082463,16.949232568098623,9.60418676351296,33.41233835007406,-30335.21392,1011.859183,0.001029128,752.6297978,426.042908,0.0,0.0,0.0,0.0,0.0,0.0,0.499661655,299.5522456
15.9,0.0,0.589559906,508.7876368,25955.39851,8.54E-6,0.0,32.11893862,-161.0287901,-24.61226426,43.77998979,16.64651713523945,10.438079679898136,33.23602789194822,-30527.25821,1012.073423,0.001031012,754.3271387,426.2233379,0.0,0.0,0.0,0.0,0.0,0.0,0.502718446,301.4486348
16.0,0.0,0.597002634,511.9883904,25904.35971,8.7E-6,0.0,32.11909526,-157.5563648,-26.12679577,43.94902213,16.320703195348507,11.251904405734207,33.04879319131731,-30719.30342,1012.288962,0.001032908,756.0363662,426.4049007,0.0,0.0,0.0,0.0,0.0,0.0,0.50577331,303.3450333
16.1,0.0,0.604492071,515.1891596,25853.00083,8.87E-6,0.0,32.11925289,-153.9959759,-27.57607735,43.9636771,15.97278918467959,12.04447285573719,32.8518022226467,-30911.34958,1012.505807,0.001034816,757.7574629,426.5876033,0.0,0.0,0.0,0.0,0.0,0.0,0.508826232,305.2414411
16.2,0.0,0.612028216,518.3899446,25801.32188,9.03E-6,0.0,32.1194115,-150.3431063,-28.95243465,43.82049804,15.603805224052563,12.814709301646731,32.646263926884124,-31103.39668,1012.723959,0.001036736,759.4905548,426.7714458,0.0,0.0,0.0,0.0,0.0,0.0,0.511877202,307.1378583
16.3,0.0,0.61961107,521.5907454,25749.32284,9.2E-6,0.0,32.11957109,-146.5942876,-30.24785006,43.51706963,15.214804696373772,13.561650773296552,32.4334174398531,-31295.44473,1012.943415,0.001038668,761.2355608,426.9564281,0.0,0.0,0.0,0.0,0.0,0.0,0.51492621,309.034285
16.4,0.0,0.627240633,524.7915622,25697.00373,9.37E-6,0.0,32.11973167,-142.7473642,-31.45402333,43.05229588,14.806854964719763,14.284445912698871,32.214522753040924,-31487.49373,1013.164168,0.001040612,762.992595,427.1425433,0.0,0.0,0.0,0.0,0.0,0.0,0.51797325,310.9307211
16.5,0.0,0.634916907,527.992395,25644.36453,9.55E-6,0.0,32.11989323,-138.801772,-32.56246039,42.42669228,14.381029121745039,14.982352854100556,31.990850629541377,-31679.5437,1013.386233,0.001042567,764.7616009,427.3298053,0.0,0.0,0.0,0.0,0.0,0.0,0.521018304,312.8271667
16.6,0.0,0.642639893,531.1932439,25591.40525,9.72E-6,0.0,32.12005578,-134.7588161,-33.56459288,41.64267564,13.938398426639148,15.654735843532125,31.7636740669837,-31871.59463,1013.609592,0.001044535,766.5426289,427.5182002,0.0,0.0,0.0,0.0,0.0,0.0,0.524061371,314.723622
16.7,0.0,0.650409589,534.3941091,25538.12588,9.9E-6,0.0,32.12021931,-130.6219252,-34.45192934,40.70482887,13.480024512900695,16.30106071244118,31.53425924479935,-32063.64654,1013.834252,0.001046514,768.3357142,427.707735,0.0,0.0,0.0,0.0,0.0,0.0,0.527102437,316.6200869
16.8,0.0,0.658225998,537.5949905,25484.52642,1.01E-5,0.0,32.12038382,-126.3968546,-35.21623661,39.62011257,13.006953143097345,16.920890007551147,31.30385819036224,-32255.69943,1014.060214,0.001048506,770.1408802,427.8984096,0.0,0.0,0.0,0.0,0.0,0.0,0.530141491,318.5165616
16.9,0.0,0.666089119,540.7958884,25430.60688,1.03E-5,0.0,32.12054932,-122.0918039,-35.84974638,38.39799167,12.520208078217438,17.51387691750862,31.073701101354303,-32447.75331,1014.287467,0.001050509,771.9580858,428.0902171,0.0,0.0,0.0,0.0,0.0,0.0,0.533178528,320.413046
17.0,0.0,0.673998953,543.9968029,25376.36725,1.04E-5,0.0,32.1207158,-117.7174212,-36.3453784,37.05044583,12.020785863754044,18.079758855756108,30.844990215117047,-32639.80817,1014.516027,0.001052524,773.7874832,428.2831714,0.0,0.0,0.0,0.0,0.0,0.0,0.53621353,322.3095403
17.1,0.0,0.681955502,547.1977339,25321.80752,1.06E-5,0.0,32.12088327,-113.2866656,-36.69696789,35.59183822,11.50965136063416,18.61835052774265,30.61889379259475,-32831.86403,1014.745878,0.001054551,775.6289673,428.4772586,0.0,0.0,0.0,0.0,0.0,0.0,0.539246496,324.2060445
17.2,0.0,0.689958765,550.3986817,25266.9277,1.08E-5,0.0,32.12105172,-108.8145146,-36.89948178,34.03862868,10.98773413558461,19.129536768951436,30.396541019010055,-33023.9209,1014.977034,0.00105659,777.4826387,428.6724925,0.0,0.0,0.0,0.0,0.0,0.0,0.542277407,326.1025587
17.3,0.0,0.698008743,553.5996463,25211.72778,1.1E-5,0.0,32.12122116,-104.3175201,-36.94920677,32.40893428,10.455925309864153,19.61326521103998,30.17901776397629,-33215.97878,1015.209478,0.001058641,779.3485487,428.8688594,0.0,0.0,0.0,0.0,0.0,0.0,0.545306262,327.9990828
17.4,0.0,0.706105437,556.8006277,25156.20777,1.12E-5,0.0,32.12139158,-99.8132344,-36.84389297,30.72196019,9.915075267432325,20.06953848961415,29.967362857271805,-33408.03766,1015.44321,0.001060703,781.2266169,429.0663593,0.0,0.0,0.0,0.0,0.0,0.0,0.548333053,329.895617
17.5,0.0,0.714248847,560.0016263,25100.36766,1.14E-5,0.0,32.12156299,-95.3195489,-36.58283956,28.99734258,9.365992222554937,20.498407082255696,29.76256488027632,-33600.09758,1015.678245,0.001062778,783.1169446,429.2650058,0.0,0.0,0.0,0.0,0.0,0.0,0.55135776,331.7921614
17.6,0.0,0.722438974,563.2026419,25044.20744,1.16E-5,0.0,32.12173538,-90.8539997,-36.16691471,27.25445896,8.8094413030716,20.89996168818358,29.565559644956615,-33792.15851,1015.914573,0.001064864,785.0194916,429.4647922,0.0,0.0,0.0,0.0,0.0,0.0,0.554380378,333.688716
17.7,0.0,0.730675819,566.4036747,24987.72713,1.18E-5,0.0,32.12190875,-86.4331021,-35.59850801,25.51176725,8.24614397743795,21.274326238168893,29.37722847499316,-33984.22048,1016.152187,0.001066962,786.9343741,429.6657115,0.0,0.0,0.0,0.0,0.0,0.0,0.557400903,335.5852808
17.8,0.0,0.738959382,569.6047248,24930.92671,1.2E-5,0.0,32.12208311,-82.07177,-34.88142098,23.78623014,7.676778684979193,21.621650675266622,29.198396372315166,-34176.28349,1016.391092,0.001069073,788.8615771,429.8677707,0.0,0.0,0.0,0.0,0.0,0.0,0.56041932,337.4818559
17.9,0.0,0.747289664,572.8057924,24873.80618,1.22E-5,0.0,32.12225845,-77.7828632,-34.02070692,22.09286799,7.1019813515521495,21.94210459498412,29.02983121495967,-34368.34754,1016.631288,0.001071195,790.8010731,430.0709697,0.0,0.0,0.0,0.0,0.0,0.0,0.56343562,339.3784413
18.0,0.0,0.755666665,576.0068774,24816.36555,1.24E-5,0.0,32.12243478,-73.5768878,-33.02247532,20.4444653,6.5223468219397205,22.23587071356226,28.872242954930613,-34560.41264,1016.872774,0.001073329,792.7529392,430.2753085,0.0,0.0,0.0,0.0,0.0,0.0,0.566449793,341.2750372
18.1,0.0,0.764090386,579.20798,24758.60481,1.26E-5,0.0,32.12261209,-69.4618539,-31.89367758,18.85143495,5.938430406836946,22.503139081101683,28.726283274424173,-34752.4788,1017.11555,0.001075475,794.7172528,430.4807872,0.0,0.0,0.0,0.0,0.0,0.0,0.569461832,343.1716436
18.2,0.0,0.772560829,582.4091004,24700.52395,1.28E-5,0.0,32.12279039,-65.4432771,-30.64189014,17.32182738,5.3507502892737415,22.744101581167982,28.592545242054094,-34944.54602,1017.359614,0.001077632,796.6939346,430.6874057,0.0,0.0,0.0,0.0,0.0,0.0,0.572471725,345.0682605
18.3,0.0,0.781077992,585.6102385,24642.12299,1.3E-5,0.0,32.12296967,-61.5242983,-29.27510843,15.86145915,4.759789472671403,22.958946946058873,28.471563885809466,-35136.61431,1017.604957,0.001079802,798.6830492,430.8951572,0.0,0.0,0.0,0.0,0.0,0.0,0.575479468,346.964888
18.4,0.0,0.789641878,588.8113945,24583.4019,1.32E-5,0.0,32.12314994,-57.7058905,-27.80156161,14.47412897,4.165999103997814,23.14785605855027,28.3638157346885,-35328.68367,1017.851619,0.001082022,800.7131504,431.1040759,0.0,0.0,0.0,0.0,0.0,0.0,0.578485029,348.8615262
18.5,0.0,0.798252486,592.0125685,24524.36071,1.35E-5,0.0,32.12333119,-53.9871188,-26.22955441,13.16188868,3.5698008801901926,23.310997998487522,28.26971985002255,-35520.75411,1018.099616,0.001084315,802.8008517,431.3141757,0.0,0.0,0.0,0.0,0.0,0.0,0.58148839,350.7581751
18.6,0.0,0.806909818,595.2137606,24464.99939,1.37E-5,0.0,32.12351343,-50.3654247,-24.56733866,11.9253398,2.9715908869723098,23.448526203968168,28.189637538997232,-35712.82564,1018.348888,0.00108662,804.9015026,431.5254085,0.0,0.0,0.0,0.0,0.0,0.0,0.584489574,352.6548348
18.7,0.0,0.815613874,598.4149709,24405.31795,1.39E-5,0.0,32.12369665,-46.8369111,-22.82301458,10.76393205,2.3717423490519147,23.560575721144513,28.12387327138487,-35904.89826,1018.599453,0.001088937,807.0151555,431.7377879,0.0,0.0,0.0,0.0,0.0,0.0,0.587488561,354.5515053
18.8,0.0,0.824364655,601.6161995,24345.31639,1.41E-5,0.0,32.12388086,-43.3966107,-21.00445975,9.676246807,1.7706098700084127,23.64726022484312,28.072674851431866,-36096.97197,1018.851292,0.001091267,809.1419172,431.9513004,0.0,0.0,0.0,0.0,0.0,0.0,0.590485353,356.4481867
18.9,0.0,0.833162161,604.8174465,24284.99471,1.43E-5,0.0,32.12406605,-40.0387262,-19.11928269,8.660254466,1.1685325262649617,23.70866984132515,28.036233933520684,-36289.04679,1019.104412,0.00109361,811.2816702,432.1659526,0.0,0.0,0.0,0.0,0.0,0.0,0.593479935,358.344879
19.0,0.0,0.842006393,608.0187119,24224.3529,1.46E-5,0.0,32.12425223,-36.7568376,-17.17479715,7.713540158,0.5658381069761556,23.74486988777926,28.014686022169876,-36481.12272,1019.358813,0.001095965,813.4345471,432.3817447,0.0,0.0,0.0,0.0,0.0,0.0,0.596472299,360.2415823
19.1,0.0,0.850897352,611.2199959,24163.39097,1.48E-5,0.0,32.12443939,-33.5440741,-15.17801348,6.833496056,-0.03715333363364583,23.755899096152394,28.00811104499186,-36673.19976,1019.614495,0.001098332,815.6005754,432.5986766,0.0,0.0,0.0,0.0,0.0,0.0,0.599462435,362.1382967
19.2,0.0,0.859835038,614.4212986,24102.10891,1.5E-5,0.0,32.12462753,-30.3932516,-13.13564342,6.017481359,-0.6401252363826333,23.741769441262473,28.016533409988714,-36865.27792,1019.871455,0.001100712,817.7797305,432.8167484,0.0,0.0,0.0,0.0,0.0,0.0,0.602450336,364.0350223
19.3,0.0,0.868819452,617.6226201,24040.50671,1.53E-5,0.0,32.12481666,-27.2969795,-11.0541152,5.262952691,-1.2427610420889976,23.702465739727927,28.039921833664817,-37057.35721,1020.129692,0.001103104,819.9720929,433.0359599,0.0,0.0,0.0,0.0,0.0,0.0,0.605435991,365.931759
19.4,0.0,0.877850595,620.8239605,23978.58438,1.55E-5,0.0,32.12500678,-24.247739,-8.939596459,4.567568555,-1.8447398943874656,23.63794570726347,28.07818968480155,-37249.43763,1020.389199,0.001105508,822.1776249,433.2563045,0.0,0.0,0.0,0.0,0.0,0.0,0.608419397,367.828507
19.5,0.0,0.886928468,624.0253198,23916.34192,1.58E-5,0.0,32.12519788,-21.2379387,-6.798022614,3.929271736,-2.445732743616295,23.548141104595707,28.131194354203704,-37441.51919,1020.64999,0.001107925,824.3963808,433.4777957,0.0,0.0,0.0,0.0,0.0,0.0,0.611400535,369.7252662
19.6,0.0,0.896053071,627.2266982,23853.77932,1.6E-5,0.0,32.12538997,-18.2599501,-4.635129354,3.346353395,-3.0453988517747206,23.432958654195588,28.198737369291045,-37633.60189,1020.912055,0.001110355,826.6284287,433.7004268,0.0,0.0,0.0,0.0,0.0,0.0,0.614379402,371.6220368
19.7,0.0,0.905224404,630.4280957,23790.89658,1.62E-5,0.0,32.12558304,-15.3061278,-2.456487776,2.817502248,-3.643381552635275,23.29228193103915,28.280564050323637,-37825.68574,1021.175387,0.001112797,828.8737839,433.9241908,0.0,0.0,0.0,0.0,0.0,0.0,0.617355994,373.5188188
19.8,0.0,0.91444247,633.6295126,23727.6937,1.65E-5,0.0,32.1257771,-12.3688174,-0.267541401,2.34184165,-4.239304871292793,23.125973597142885,28.37636288014827,-38017.77075,1021.439995,0.001115251,831.1324421,434.1490981,0.0,0.0,0.0,0.0,0.0,0.0,0.620330294,375.4156124
19.9,0.0,0.923707267,636.8309488,23664.17067,1.67E-5,0.0,32.12597214,-9.4403546,1.926355604,1.91895685,-4.832769971826087,22.93387797987387,28.485765332311118,-38209.85693,1021.705872,0.001117718,833.4044716,434.3751418,0.0,0.0,0.0,0.0,0.0,0.0,0.623302299,377.3124174
20.0,0.0,0.933018798,640.0324044,23600.32751,1.7E-5,0.0,32.12616817,-6.5130583,4.119899387,1.548914022,-5.42335143307227,22.715824452400714,28.608345527283056,-38401.94426,1021.973019,0.001120197,835.6898552,434.6023254,0.0,0.0,0.0,0.0,0.0,0.0,0.626271998,379.209234
20.1,0.0,0.942377062,643.2338796,23536.16419,1.73E-5,0.0,32.12636518,-3.5792204,6.30779688,1.232272066,-6.010594613020907,22.47163075684878,28.74361948761454,-38594.03278,1022.241441,0.001122688,837.9886285,434.8306522,0.0,0.0,0.0,0.0,0.0,0.0,0.62923938,381.1060623
20.2,0.0,0.95178206,646.4353745,23471.68073,1.75E-5,0.0,32.12656318,-0.6310942,8.484725932,0.970087523,-6.594012039179903,22.20110770255412,28.891045309822935,-38786.12247,1022.511127,0.001125193,840.3008605,435.0601154,0.0,0.0,0.0,0.0,0.0,0.0,0.632204441,383.0029023
20.3,0.0,0.961233794,649.6368891,23406.87712,1.78E-5,0.0,32.12676216,2.3391137,10.64529533,0.763912279,-7.173081288631658,21.904063291359584,29.05002253413895,-38978.21335,1022.782078,0.001127709,842.6265805,435.290715,0.0,0.0,0.0,0.0,0.0,0.0,0.635167172,384.899754
20.4,0.0,0.970732264,652.8384236,23341.75335,1.8E-5,0.0,32.12696213,5.3392488,12.78400491,0.615783095,-7.747242237835652,21.58030804612232,29.21989225909818,-39170.30542,1023.054299,0.001130238,844.9657784,435.5224578,0.0,0.0,0.0,0.0,0.0,0.0,0.638127562,386.7966176
20.5,0.0,0.98027747,656.039978,23276.30943,1.83E-5,0.0,32.12716308,8.3772047,14.89520602,0.528201263,-8.315894999980383,21.22966051110862,29.39993742802002,-39362.39868,1023.327782,0.001132779,847.3185235,435.7553371,0.0,0.0,0.0,0.0,0.0,0.0,0.641085605,388.6934931
20.6,0.0,0.989869413,659.2415525,23210.54535,1.86E-5,0.0,32.12736502,11.4609086,16.97306292,0.504099978,-8.878398492588882,20.85195326805074,29.589383115486555,-39554.49315,1023.602535,0.001135333,849.6848061,435.9893596,0.0,0.0,0.0,0.0,0.0,0.0,0.644041289,390.5903804
20.7,0.0,0.999508095,662.4431471,23144.46112,1.89E-5,0.0,32.12756795,14.5982919,19.01151569,0.546796273,-9.434069062419999,20.447039066795327,29.787397272187707,-39746.58883,1023.878547,0.001137899,852.0646426,436.2245185,0.0,0.0,0.0,0.0,0.0,0.0,0.64699461,392.4872798
20.8,0.0,1.009193515,665.644762,23078.05672,1.91E-5,0.0,32.12777186,17.797241,21.00424581,0.659923591,-9.982179740623273,20.014797872684312,29.993091813541014,-39938.68572,1024.155822,0.001140478,854.4581229,436.4608173,0.0,0.0,0.0,0.0,0.0,0.0,0.649945558,394.3841913
20.9,0.0,1.018925675,668.8463972,23011.33217,1.94E-5,0.0,32.12797676,21.0655235,22.94464569,0.847340452,-10.521960242738931,19.555143398273742,30.205524223973487,-40130.78383,1024.434359,0.001143069,856.8652774,436.6982558,0.0,0.0,0.0,0.0,0.0,0.0,0.652894124,396.2811149
21.0,0.0,1.028704575,672.0480529,22944.28744,1.97E-5,0.0,32.12818264,24.4106851,24.82579421,1.113010154,-11.052596968697891,19.06803078096826,30.42369961956967,-40322.88317,1024.714153,0.00114571,859.3140228,436.9368308,0.0,0.0,0.0,0.0,0.0,0.0,0.655840303,398.1780506
21.1,0.0,1.038530216,675.2497291,22876.92256,2.0E-5,0.0,32.12838951,27.8399114,26.64044072,1.460846332,-11.573234435216241,18.553463573106193,30.646573211790145,-40514.98374,1024.995211,0.001148442,861.8357067,437.1765491,0.0,0.0,0.0,0.0,0.0,0.0,0.658784081,400.0749986
21.2,0.0,1.048402599,678.4514259,22809.2375,2.03E-5,0.0,32.12859736,31.3598499,28.38100066,1.894519637,-12.082976650893958,18.011501706072917,30.873053630626735,-40707.08555,1025.277523,0.001151187,864.3716712,437.4174037,0.0,0.0,0.0,0.0,0.0,0.0,0.661725455,401.9719589
21.3,0.0,1.058321724,681.6531435,22741.23227,2.05E-5,0.0,32.1288062,34.9763888,30.03956646,2.417222088,-12.58088957993342,17.44226842309016,31.102006591532433,-40899.18861,1025.561094,0.001153945,866.9219022,437.6593982,0.0,0.0,0.0,0.0,0.0,0.0,0.664664416,403.8689315
21.4,0.0,1.068287592,684.8548819,22672.90687,2.08E-5,0.0,32.12901602,38.6943924,31.60793827,3.031388187,-13.066004178815726,16.845958186033588,31.3322592499006,-41091.29291,1025.845921,0.001156716,869.4864319,437.9025325,0.0,0.0,0.0,0.0,0.0,0.0,0.667600954,405.7659165
21.5,0.0,1.078300205,688.0566412,22604.26129,2.11E-5,0.0,32.12922683,42.5173947,33.07767885,3.738375948,-13.537320292413694,16.222843665517907,31.562605758755616,-41283.39847,1026.132004,0.0011595,872.0653463,438.1468066,0.0,0.0,0.0,0.0,0.0,0.0,0.670535062,407.662914
21.6,0.0,1.088359563,691.2584216,22535.29554,2.14E-5,0.0,32.12943863,46.4472626,34.44019733,4.538116799,-13.993811180358454,15.573282444503057,31.791812711851893,-41475.5053,1026.419341,0.001162297,874.6586247,438.3922206,0.0,0.0,0.0,0.0,0.0,0.0,0.673466731,409.559924
21.7,0.0,1.098465666,694.4602231,22466.00961,2.17E-5,0.0,32.12965141,50.483843,35.68686557,5.428750906,-14.434428788251154,14.897723607308864,32.01862607646323,-41667.61338,1026.707932,0.001165107,877.2662999,438.6387744,0.0,0.0,0.0,0.0,0.0,0.0,0.676395955,411.4569466
21.8,0.0,1.108618515,697.6620458,22396.40349,2.2E-5,0.0,32.12986518,54.6246216,36.80916907,6.406273232,-14.85810987831137,14.196713526488754,32.24177829805947,-41859.72275,1026.997771,0.00116793,879.888398,438.8864646,0.0,0.0,0.0,0.0,0.0,0.0,0.679322727,413.3539819
21.9,0.0,1.118818111,700.8638899,22326.4772,2.23E-5,0.0,32.13007993,58.8644256,37.79889221,7.464224517,-15.263782618391751,13.470900904858382,32.459996264419836,-42051.83339,1027.288866,0.001170766,882.5250192,439.1352981,0.0,0.0,0.0,0.0,0.0,0.0,0.682247035,415.2510298
22.0,0.0,1.129064456,704.0657553,22256.23072,2.26E-5,0.0,32.13029567,63.1952135,38.64833319,8.593468397,-15.650374202316698,12.721040843495949,32.67200995729563,-42243.94532,1027.581207,0.001173615,885.1761296,439.3852679,0.0,0.0,0.0,0.0,0.0,0.0,0.685168876,417.1480905
