time,feVelocity_ft_s_X,feVelocity_ft_s_Y,feVelocity_ft_s_Z,altitudeMsl_ft,longitude_deg,latitude_deg,localGravity_ft_s2,eulerAngle_deg_Yaw,eulerAngle_deg_Pitch,eulerAngle_deg_Roll,bodyAngularRateWrtEi_deg_s_Roll,bodyAngularRateWrtEi_deg_s_Pitch,bodyAngularRateWrtEi_deg_s_Yaw,altitudeRateWrtMsl_ft_min,speedOfSound_ft_s,airDensity_slug_ft3,ambientPressure_lbf_ft2,ambientTemperature_dgR,aero_bodyForce_lbf_X,aero_bodyForce_lbf_Y,aero_bodyForce_lbf_Z,aero_bodyMoment_ftlbf_L,aero_bodyMoment_ftlbf_M,aero_bodyMoment_ftlbf_N,mach,trueAirspeed_nmi_h
0.0,563.6364851,0.0,0.0,10000.0,-179.9500896,0.0,32.16800899,0.0,2.667331686,2.27E-13,0.0,0.0,0.0,0.0,1077.403467,0.001755555,1455.603646,483.0254287,-1404.211257,-3.09E-11,-20403.09114,-1.26E-10,23096.30028,1.18E-10,0.523143374,333.9454865
0.1,563.6362095,0.298974137,6.85426E-4,9999.999974,-179.9500895,1.54254E-4,32.16800899,-0.090840511,2.667607679,1.307059621,10.97207955352295,-0.012824399736835764,-1.0335693382415554,-0.041125534,1077.403467,0.001755555,1455.603648,483.0254288,-1409.875826,-2773.639852,-20358.91417,-63808.06684,23450.69689,16757.7011,0.523143192,333.9453702
0.2,563.635602,-0.173401995,-0.007327163,10000.00051,-179.9500895,3.08507E-4,32.16800899,-0.084072479,2.666849956,0.49661478,-25.556084016221384,-0.0045779327830887005,0.6429968435560454,0.439629784,1077.403465,0.001755555,1455.603618,483.0254269,-1410.890308,-449.0104139,-20358.11765,-52552.46314,23531.99695,3478.928077,0.52314258,333.9449791
0.3,563.6361366,-0.195618776,-0.004762034,10000.00103,-179.9500895,4.6276E-4,32.16800898000002,-0.009822751,2.667499598,-1.136483697,-8.227583238847831,-0.0020970255301758,0.8176118622703208,0.285722032,1077.403463,0.001755555,1455.603588,483.0254251,-1403.941859,284.7815931,-20400.84225,3179.776216,23056.19778,-1367.925458,0.523143084,333.9453001
0.4,563.6362911,-0.205765385,-0.004610753,10000.00155,-179.9500896,6.17014E-4,32.168008980000025,0.055097368,2.668099854,-2.326174539,-13.235646153051391,-0.01922135892790319,0.49993123016858776,0.276645189,1077.403461,0.001755555,1455.603559,483.0254232,-1406.54295,591.3590796,-20367.21236,3105.068245,23168.28532,-2378.558526,0.523143232,333.9453938
0.5,563.6358636,-0.254244038,9.91022E-4,10000.00177,-179.9500897,7.71267E-4,32.16800898000003,0.090848824,2.668054373,-3.548525151,-12.102251867854603,-0.017052083419761496,0.1859654272273597,-0.059461309,1077.40346,0.001755555,1455.603547,483.0254224,-1408.536069,834.9273825,-20332.81645,-1115.121163,23172.34723,-3060.41377,0.523142854,333.9451522
0.6,563.6350586,-0.342792098,0.012229678,10000.00116,-179.9500897,9.25521E-4,32.168008980000046,0.090094144,2.667163584,-4.767486984,-12.021764246485008,0.0019423269254906998,-0.2038988916233697,-0.733780701,1077.403462,0.001755555,1455.603581,483.0254246,-1411.698542,948.9457782,-20295.98881,912.3646477,23247.418,-3367.26403,0.523142149,333.9447032
0.7,563.6340272,-0.488162722,0.029439312,9999.999123,-179.9500899,0.001079774,32.168008990000054,0.049562679,2.66546069,-5.95467706,-11.70051248303779,0.03932954193110859,-0.6048289162587833,-1.766358737,1077.40347,0.001755555,1455.603696,483.0254319,-1414.237858,976.3089192,-20276.19549,592.552989,23316.74236,-3327.601975,0.523141288,333.9441559
0.8,563.6329192,-0.703200896,0.051589196,9999.995105,-179.95009,0.001234027,32.16800900000007,-0.030340608,2.663084012,-7.107782118,-11.258071436962089,0.09221526529499298,-0.9793115528456732,-3.09535178,1077.403486,0.001755555,1455.603923,483.0254462,-1415.622543,911.2383585,-20282.93599,855.1356239,23386.70233,-2981.008441,0.523140464,333.9436351
0.9,563.6318136,-0.998420189,0.076794981,9999.988702,-179.9500902,0.001388279,32.1680090200001,-0.145455943,2.660337087,-8.214222903,-10.742826935690399,0.15459919650764495,-1.295878985247248,-4.607698844,1077.403512,0.001755556,1455.604284,483.025469,-1415.230914,775.287249,-20322.66911,955.5678182,23443.83056,-2401.051651,0.523139842,333.9432457
1.0,563.6306903,-1.380804047,0.10280062,9999.97972,-179.9500906,0.001542531,32.16800905000012,-0.28895671,2.657584572,-9.267046959,-10.166180495571131,0.21900165803253988,-1.532247738895312,-6.168037173,1077.403548,0.001755556,1455.604791,483.025501,-1412.833163,591.0103641,-20395.63359,1011.226374,23482.6248,-1675.351456,0.523139535,333.9430609
1.1,563.6294222,-1.853220382,0.127432953,9999.968189,-179.950091,0.001696783,32.16800908000014,-0.45230912,2.655189432,-10.26186527,-9.5698094676925,0.2778233387455301,-1.677627815296197,-7.645977167,1077.403593,0.001755557,1455.605442,483.0255421,-1408.546389,383.9649549,-20496.62648,1006.435914,23501.96967,-896.6208558,0.523139599,333.9431155
1.2,563.627787,-2.414436427,0.149028472,9999.954336,-179.9500916,0.001851035,32.16800912000017,-0.626364601,2.653446055,-11.19798676,-8.988409425930156,0.3247708129291282,-1.7319777323055363,-8.941708301,1077.403648,0.001755557,1455.606223,483.0255914,-1402.796813,178.9328449,-20616.28045,942.8439124,23505.39349,-152.1122208,0.523140031,333.9434087
1.3,563.6254948,-3.059509598,0.166712048,9999.938515,-179.9500923,0.002005286,32.168009170000204,-0.802377142,2.652535246,-12.07817101,-8.453918355587579,0.35584185579279193,-1.7048190171543587,-10.0027229,1077.403711,0.001755558,1455.607116,483.0256478,-1396.224281,-2.600517087,-20743.03663,834.1413842,23500.21606,484.9034788,0.523140785,333.9439094
1.4,563.6222214,-3.780551367,0.180511303,9999.921124,-179.9500933,0.002159536,32.16800922000024,-0.972863512,2.652504989,-12.90801264,-7.9897581410761065,0.3697949823860338,-1.6130188024861578,-10.83067818,1077.40378,0.001755559,1455.608097,483.0257097,-1389.55491,-144.2837566,-20865.22504,696.3677076,23495.8083,961.26318,0.523141778,333.9445647
1.5,563.6176412,-4.567727166,0.191307,9999.902514,-179.9500944,0.002313785,32.16800928000027,-1.132233451,2.653276385,-13.69503128,-7.608971994714534,0.36809415717119043,-1.4781086130588013,-11.47842002,1077.403854,0.00175556,1455.609148,483.025776,-1383.477731,-236.0129073,-20972.90907,548.2096813,23501.70702,1246.939045,0.523142905,333.9453072
1.6,563.6114538,-5.410365604,0.200650945,9999.882912,-179.9500958,0.002468033,32.1680093400003,-1.277151235,2.654668974,-14.4476142,-7.313911564477194,0.354438281082062,-1.3234536104619106,-12.03905673,1077.403932,0.001755561,1455.610254,483.0258459,-1378.541936,-274.2422937,-21059.16237,406.9724272,23525.99145,1336.239879,0.523144051,333.9460625
1.7,563.6034019,-6.298043813,0.210497644,9999.862367,-179.9500974,0.002622278,32.16800941000035,-1.406612471,2.656439103,-15.17399005,-7.097140946803112,0.3340075228401984,-1.1714290571024617,-12.62985865,1077.404014,0.001755563,1455.611413,483.0259191,-1375.087733,-261.5444793,-21120.7685,287.4587668,23573.82514,1245.828339,0.523145099,333.9467568
1.8,563.5932799,-7.221527244,0.222903671,9999.840727,-179.9500992,0.002776522,32.16800947000039,-1.52176124,2.658320919,-15.88134318,-6.943673055461951,0.31260966913593485,-1.0412183821023204,-13.37422024,1077.4041,0.001755564,1455.612634,483.0259962,-1373.225536,-205.5778157,-21158.23481,199.7881954,23647.19845,1008.800133,0.523145947,333.947325
1.9,563.580934,-8.173483418,0.23974145,9999.817638,-179.9501013,0.002930762,32.16800954000044,-1.625506255,2.660063781,-16.57516657,-6.833475624358362,0.29588657808213703,-0.9471836893288922,-14.38448702,1077.404192,0.001755565,1455.613937,483.0260784,-1372.843501,-117.6679975,-21175.37687,149.6085712,23745.03535,669.7132026,0.523146518,333.9477177
2.0,563.5662542,-9.148918914,0.262459361,9999.792581,-179.9501037,0.003084998,32.16800962000048,-1.721997251,2.661463275,-17.25886954,-6.744225186470048,0.2886331615789093,-0.8979512021625362,-15.74756168,1077.404291,0.001755566,1455.615351,483.0261677,-1373.643222,-11.16885875,-21178.56181,137.8273232,23863.67358,278.1759432,0.523146767,333.947908
2.1,563.5491609,-10.14532611,0.291908428,9999.76492,-179.9501063,0.00323923,32.16800970000053,-1.816031706,2.662383847,-17.93366129,-6.654020773852844,0.2942808065655057,-0.896139280431217,-17.5145057,1077.404401,0.001755568,1455.616912,483.0262663,-1375.187817,100.1952176,-21175.77418,161.2058611,23997.34283,-115.6547688,0.523146694,333.9478949
2.2,563.5295872,-11.16255288,0.328249907,9999.733967,-179.9501093,0.003393457,32.16800980000058,-1.912457609,2.662772118,-18.59868005,-6.543712647303235,0.31456110609036814,-0.9388123175758066,-19.69499443,1077.404524,0.00175557,1455.618659,483.0263765,-1376.963933,203.8535305,-21175.52928,212.6518339,24139.0912,-468.1057094,0.523146334,333.9477038
2.3,563.5074595,-12.20243977,0.370949156,9999.699056,-179.9501125,0.003547679,32.16800990000064,-2.01564356,2.66265889,-19.25135366,-6.398928447009286,0.3494034144573571,-1.0185065642864852,-22.25694934,1077.404663,0.001755572,1455.620629,483.0265009,-1378.448811,289.5827571,-21185.84621,282.606592,24281.73237,-745.351015,0.523145763,333.9473822
2.4,563.4826785,-13.26828848,0.418850607,9999.659603,-179.9501159,0.003701894,32.16801002000069,-2.12906257,2.662152019,-19.88792507,-6.211338111474937,0.39703511483989945,-1.1245956015200946,-25.1310364,1077.404819,0.001755574,1455.622855,483.0266415,-1379.168801,350.3104476,-21213.30124,360.016159,24418.55764,-925.7642763,0.523145076,333.9469921
2.5,563.4551041,-14.36423471,0.470318795,9999.615166,-179.9501197,0.003856102,32.16801016000076,-2.25501882,2.661420817,-20.50407855,-5.979204318073798,0.45426844195323024,-1.2448238620388041,-28.21912769,1077.404996,0.001755576,1455.625362,483.0267998,-1378.754251,382.4824334,-21262.31366,433.7451125,24544.01744,-1000.671402,0.523144377,333.9466005
2.6,563.4245469,-15.49459953,0.523428272,9999.565484,-179.9501238,0.004010301,32.168010310000824,-2.394528748,2.66067378,-21.09558627,-5.707100129447696,0.5169401125705965,-1.366819296285033,-31.40569631,1077.405193,0.001755579,1455.628166,483.0269768,-1376.977988,386.0108162,-21334.70804,493.9325963,24654.20212,-973.6483519,0.523143762,333.9462693
2.7,563.3907677,-16.66328942,0.576177623,9999.510493,-179.9501282,0.004164492,32.16801048000089,-2.547350667,2.660132283,-21.65889349,-5.404839395894737,0.5804520257945208,-1.4794267024664978,-34.57065739,1077.405412,0.001755582,1455.631269,483.0271727,-1373.775239,363.8607923,-21429.59343,533.1810821,24747.22275,-858.6377089,0.523143308,333.9460473
2.8,563.3534855,-17.87330286,0.626702644,9999.450323,-179.9501329,0.004318674,32.16801066000095,-2.712142765,2.660003622,-22.19156984,-5.085785956915873,0.6403411268798382,-1.5737427175173349,-37.60215864,1077.405651,0.001755585,1455.634665,483.0273871,-1369.246243,321.3661658,-21543.59246,547.3685815,24823.30024,-677.2302575,0.523143063,333.9459648
2.9,563.3123923,-19.12638714,0.673459452,9999.385279,-179.950138,0.004472844,32.168010860001026,-2.886718709,2.660456906,-22.69257613,-4.764820672366219,0.6928039500951373,-1.6437845734365764,-40.4075671,1077.405909,0.001755589,1455.638335,483.0276188,-1363.634658,265.3801207,-21671.3831,535.9383489,24884.59645,-455.493815,0.523143041,333.9460312
3.0,563.2671732,-20.42286658,0.715360194,9999.315795,-179.9501434,0.004627003,32.168011080001094,-3.068363604,2.661605021,-23.16232698,-4.45629401506994,0.735107429461868,-1.6867700444668505,-42.92161167,1077.406186,0.001755593,1455.642256,483.0278664,-1357.291287,203.3705147,-21806.45362,501.6172921,24934.93739,-220.7194172,0.523143229,333.9462362
3.1,563.217527,-21.76164504,0.751845302,9999.242389,-179.9501492,0.004781149,32.16801130000117,-3.254170906,2.663494777,-23.602562,-4.1722737939954015,0.7658344111695563,-1.7030299564390652,-45.11071809,1077.406477,0.001755597,1455.646398,483.0281279,-1350.623547,142.5598197,-21941.947,449.6968466,24979.14564,1.581101492,0.523143584,333.9465534
3.2,563.1631848,-23.14036495,0.782888417,9999.165608,-179.9501553,0.004935281,32.168011540001245,-3.441362786,2.666106047,-24.01606523,-3.9213057319527476,0.784945819496574,-1.695607059020038,-46.97330499,1077.406782,0.001755601,1455.650731,483.0284015,-1344.044537,89.19258876,-22071.50525,387.0309131,25022.42047,190.1532733,0.523144049,333.9469449
3.3,563.1039238,-24.55568939,0.808939541,9999.085979,-179.9501618,0.005089397,32.16801178000132,-3.627561994,2.669359268,-24.40628876,-3.707789571850783,0.7936651485186419,-1.669618896644311,-48.53637245,1077.407099,0.001755605,1455.655225,483.0286852,-1337.922482,47.99035554,-22189.93853,320.952134,25069.6492,329.7601349,0.523144557,333.947367
3.4,563.0395733,-26.00366358,0.830818067,9999.00396,-179.9501688,0.005243496,32.16801203000141,-3.810991538,2.673129436,-24.77694119,-3.5319507725818893,0.7942195424812096,-1.631477554588743,-49.84908399,1077.407425,0.00175561,1455.659853,483.0289774,-1332.542099,21.82833117,-22293.73331,258.3344476,25124.80308,412.1173075,0.523145038,333.9477752
3.5,562.970014,-27.48010715,0.849574895,9998.91992,-179.9501761,0.005397577,32.168012290001485,-3.990588603,2.677264154,-25.13159546,-3.3903121678789825,0.7894872548681129,-1.5880614484796491,-50.97449372,1077.407759,0.001755614,1455.664596,483.0292768,-1328.080044,11.64291311,-22381.2667,204.8416045,25190.49088,435.9893532,0.52314543,333.9481289
3.6,562.8951699,-28.98099121,0.866341873,9998.834112,-179.9501838,0.005551638,32.168012560001586,-4.16602969,2.681602906,-25.47335905,-3.2765250988931243,0.7826054587908066,-1.5459315180290631,-51.98051238,1077.408099,0.001755619,1455.669438,483.0295825,-1324.595444,16.55414138,-22452.80445,164.461408,25267.83482,406.5241703,0.523145681,333.9483948
3.7,562.814996,-30.50276036,0.882188256,9998.746682,-179.9501919,0.005705678,32.16801282000166,-4.337673916,2.685995237,-25.80463488,-3.182400680928979,0.776589115463044,-1.510669002415126,-52.93129537,1077.408447,0.001755624,1455.674372,483.029894,-1322.035214,34.16728696,-22510.26466,139.2844701,25356.34634,333.9750857,0.523145756,333.9485502
3.8,562.7294622,-32.04257051,0.897999585,9998.657675,-179.9502005,0.005859695,32.16801310000175,-4.50643948,2.690315748,-26.12698721,-3.0990179038205916,0.7740065654972751,-1.486393124410145,-53.8799751,1077.408801,0.001755629,1455.679394,483.0302111,-1320.252557,61.00205705,-22556.82885,129.5118927,25454.25846,232.0157154,0.523145637,333.9485838
3.9,562.6385376,-33.59842605,0.914389798,9998.567062,-179.9502095,0.006013688,32.168013380001845,-4.673633996,2.694474766,-26.44111408,-3.0177762699926056,0.7767352197008022,-1.4754900813434981,-54.86338787,1077.409161,0.001755634,1455.684508,483.0305339,-1319.031908,92.98983404,-22596.45783,133.6391868,25558.70302,115.8751689,0.523145325,333.9484966
4.0,562.5421758,-35.16921242,0.931652844,9998.474768,-179.9502189,0.006167656,32.168013660001954,-4.840762002,2.698423915,-26.74691789,-2.9313086308194594,0.7858208406412965,-1.4785599892098047,-55.89917062,1077.409527,0.001755639,1455.689716,483.0308628,-1318.121598,125.9778501,-22633.37238,148.7987003,25666.25329,0.51920762,0.52314484,333.9483003
4.1,562.4403034,-36.75463143,0.949755309,9998.380703,-179.9502287,0.006321596,32.16801395000206,-5.009332917,2.702156667,-27.0436563,-2.83417280397989,0.801438065854714,-1.494562757723565,-56.98531852,1077.409901,0.001755644,1455.695024,483.0311979,-1317.262953,156.1854329,-22671.5512,171.174573,25773.23413,-100.9304308,0.523144213,333.9480159
4.2,562.3328139,-38.35505704,0.968366428,9998.284799,-179.950239,0.006475508,32.16801425000212,-5.180689941,2.705704219,-27.33015026,-2.7232710358587475,0.8229524018787274,-1.5211239924859812,-58.10198567,1077.410282,0.001755649,1455.700437,483.0315396,-1316.222773,180.5680351,-22714.30487,196.5262425,25876.21244,-178.3933618,0.523143486,333.94767
4.3,562.2195662,-39.97133501,0.986919046,9998.187032,-179.9502497,0.006629389,32.16801455000224,-5.355875941,2.70912768,-27.60502058,-2.5979712967122244,0.8490625469690377,-1.5549487851045987,-59.21514273,1077.410671,0.001755655,1455.705954,483.0318879,-1314.813872,197.0606961,-22763.96455,220.679479,25972.30254,-225.5615308,0.523142705,333.9472919
4.4,562.1003884,-41.60455401,1.00469202,9998.087442,-179.9502609,0.006783239,32.16801485000235,-5.535546513,2.712507543,-27.86692437,-2.4599373413858188,0.8780048224406755,-1.592286897627174,-60.28152122,1077.411066,0.00175566,1455.711574,483.0322427,-1312.914749,204.6881593,-22821.70055,240.0237922,26059.40081,-240.141225,0.523141914,333.9469096
4.5,561.9750863,-43.25581608,1.020902916,9997.986146,-179.9502725,0.006937055,32.16801516000247,-5.719934413,2.715931993,-28.11476309,-2.3126987617848704,0.9077914658149963,-1.6293916444397927,-61.25417496,1077.411469,0.001755666,1455.71729,483.0326036,-1310.475829,203.5456538,-22887.48931,251.8710533,26136.36777,-223.6383988,0.523141151,333.9465472
4.6,561.8434551,-44.92603089,1.034800572,9997.883339,-179.9502846,0.007090836,32.16801548000259,-5.908863492,2.719485254,-28.3478406,-2.1610431932454857,0.9364527627839024,-1.6629254317942637,-62.08803435,1077.411877,0.001755672,1455.723092,483.0329699,-1307.519817,194.667048,-22960.21652,254.7023647,26203.06287,-180.7646248,0.523140443,333.9462222
4.7,561.705293,-46.61575454,1.045746515,9997.779285,-179.9502971,0.00724458,32.16801580000267,-6.101805372,2.723237437,-28.56595641,-2.0103068208968278,0.9622577505525264,-1.6902739678629681,-62.74479092,1077.412291,0.001755677,1455.728964,483.0333406,-1304.132546,179.8076005,-23037.89697,248.2346446,26260.248,-118.5698704,0.523139807,333.9459443
4.8,561.560415,-48.32508562,1.053277114,9997.674304,-179.9503101,0.007398286,32.16801612000279,-6.29796816,2.727236807,-28.76942943,-1.865676975432886,0.9838874229806994,-1.7097477719954055,-63.19662683,1077.412708,0.001755683,1455.734889,483.0337146,-1300.448909,161.1740173,-23117.96952,233.3404429,26309.45304,-45.42398569,0.523139246,333.9457155
4.9,561.4086639,-50.05362397,1.057142049,9997.568752,-179.9503236,0.007551951,32.168016450002916,-6.496404319,2.731505291,-28.95905621,-1.7315804433703932,1.0005455979163091,-1.7206614147812622,-63.42852293,1077.413127,0.001755689,1455.740845,483.0340907,-1296.632619,141.1365955,-23197.63774,211.797673,26352.72486,30.02906126,0.523138752,333.9455303
5.0,561.2499192,-51.800491,1.057314969,9997.463,-179.9503375,0.007705573,32.16801678000305,-6.696124031,2.736037397,-29.13601639,-1.6112357578277132,1.0119997690860913,-1.7232968487515217,-63.43889812,1077.413547,0.001755695,1455.746813,483.0344674,-1292.854358,121.9555675,-23274.20732,185.9944188,26392.32447,99.83219255,0.523138309,333.9453779
5.1,561.0841013,-53.56440168,1.053980147,9997.357407,-179.9503519,0.007859151,32.168017100003176,-6.89620122,2.740802388,-29.30174244,-1.5063993782215968,1.0185545208539375,-1.7187672736063417,-63.23880884,1077.413967,0.001755701,1455.752772,483.0348436,-1289.273669,105.5494691,-23345.37023,158.5735666,26430.47016,157.4986853,0.523137895,333.9452433
5.2,560.9111701,-55.34377622,1.0474963,9997.252309,-179.9503668,0.008012682,32.16801743000327,-7.095861542,2.745749149,-29.45777325,-1.417313722995163,1.0209652980727266,-1.7088064023380067,-62.84977802,1077.414385,0.001755706,1455.758703,483.0352181,-1286.021274,93.32551673,-23409.43209,132.0828007,26469.12606,198.5533591,0.523137484,333.9451103
5.3,560.7311211,-57.13687378,1.038345961,9997.147997,-179.9503822,0.008166166,32.1680177500034,-7.294544657,2.750812879,-29.60561077,-1.3428346527273165,1.0203106937917907,-1.6955142971530066,-62.30075766,1077.414799,0.001755712,1455.76459,483.0355897,-1283.187217,86.08332825,-23465.43153,108.7100601,26509.73601,220.7988876,0.523137051,333.9449627
5.4,560.5439763,-58.94193158,1.027076539,9997.044711,-179.9503981,0.008319599,32.16801807000355,-7.491936762,2.755922694,-29.7465954,-1.2806990987188533,1.0178410738074417,-1.6810906003226243,-61.62459237,1077.415209,0.001755718,1455.770419,483.0359577,-1280.815047,83.9947706,-23513.17798,90.07697238,26553.13619,224.3071666,0.523136576,333.9447865
5.5,560.3497736,-60.75729363,1.014240485,9996.942634,-179.9504145,0.00847298,32.16801838000369,-7.687972956,2.761009133,-29.88181192,-1.2278890057839262,1.0148250812696569,-1.6675863861618667,-60.85442912,1077.415615,0.001755723,1455.77618,483.0363214,-1278.902574,86.65393322,-23553.18952,77.12428173,26599.56311,211.1647374,0.523136042,333.9445714
5.6,560.1484647,-62.5823686,1.000788693,9996.841891,-179.9504313,0.008626306,32.16801869000378,-7.882655963,2.766095451,-30.00144099,-0.4730799641702769,1.0117303643308213,-1.644877834205464,-60.04732157,1077.416015,0.001755729,1455.781865,483.0366803,-1277.130928,71.44439165,-23587.92509,3938.894734,26628.50512,195.4410755,0.523135445,333.9443142
5.7,559.9406008,-64.4125124,0.984549676,9996.742577,-179.9504487,0.008779577,32.16801900000393,-8.074295468,2.771691114,-29.99341647,0.2565423111356936,0.9969084045370443,-1.6243829619863253,-59.07298054,1077.41641,0.001755734,1455.78747,483.0370341,-1275.032183,92.19827759,-23615.32999,-717.538727,26602.43517,202.7345203,0.523134891,333.9440833
5.8,559.7266602,-66.24189745,0.965606646,9996.645059,-179.9504666,0.00893279,32.168019300004076,-8.26467451,2.776701096,-29.99357077,0.05405839608317696,0.9904511128901496,-1.6178789742791275,-57.93639877,1077.416797,0.00175574,1455.792973,483.0373816,-1275.117443,85.62218132,-23628.49338,102.7366883,26705.54951,207.9735827,0.523134241,333.9437879
5.9,559.50644,-68.07232188,0.944636583,9996.549527,-179.950485,0.009085944,32.16801960000423,-8.453935048,2.781727061,-29.99399451,0.1056512401823505,0.9844019390807263,-1.6074102332211893,-56.67819498,1077.417177,0.001755745,1455.798365,483.0377219,-1274.00114,87.17196747,-23645.31752,-15.27399089,26701.65971,201.6203986,0.523133508,333.943438
6.0,559.2801228,-69.90261374,0.921709366,9996.456197,-179.9505039,0.009239036,32.16801988000439,-8.642071491,2.786643036,-29.99379683,0.09348442410698544,0.9779021339654329,-1.5991822155084454,-55.30256194,1077.417548,0.00175575,1455.803632,483.0380544,-1273.457616,90.1297407,-23655.65105,-5.944240543,26720.36768,188.2825793,0.523132744,333.9430653
6.1,559.0477618,-71.73225106,0.897380893,9996.365232,-179.9505232,0.009392066,32.16802017000449,-8.829258709,2.791408865,-29.9938055,0.09623565284764067,0.9723329841967694,-1.5926433346715243,-53.84285358,1077.417909,0.001755755,1455.808765,483.0383785,-1273.115585,94.79266994,-23662.46782,-3.270866166,26737.16652,169.6829249,0.523131943,333.942666
6.2,558.8094198,-73.5607875,0.871956264,9996.276757,-179.9505431,0.009545031,32.16802044000465,-9.015731654,2.7960039,-29.99371251,0.09573574717138975,0.9678825918188766,-1.588543592464251,-52.31737583,1077.418261,0.00175576,1455.813759,483.0386937,-1272.954692,100.3813542,-23666.49366,-4.286078953,26753.94617,148.625558,0.523131111,333.9422437
6.3,558.5651408,-75.38797227,0.845700148,9996.190869,-179.9505635,0.009697931,32.16802071000481,-9.201769189,2.800412351,-29.99362782,0.09591147332715612,0.9647782491890827,-1.586950368723333,-50.74200888,1077.418602,0.001755765,1455.818606,483.0389997,-1272.913432,106.1635451,-23668.7404,-3.27312824,26769.86056,127.6497909,0.523130254,333.9418025
6.4,558.314952,-77.21371709,0.818794647,9996.107639,-179.9505844,0.009850762,32.16802096000498,-9.387652632,2.804629236,-29.99353601,0.09598211902329565,0.9630260296600162,-1.587724148225656,-49.12767885,1077.418933,0.001755769,1455.823303,483.0392963,-1272.935017,111.5051684,-23670.10159,-3.019284905,26784.26285,108.9961492,0.523129382,333.9413484
6.5,558.0588632,-79.03807496,0.79135863,9996.027127,-179.9506058,0.010003525,32.168021210005094,-9.57363662,2.808657287,-29.99345406,0.09608731407448153,0.9624889963186408,-1.5904760645156655,-47.48151781,1077.419253,0.001755774,1455.827847,483.0395831,-1272.970122,115.8871031,-23671.31219,-2.649335197,26796.62602,94.36205418,0.523128506,333.9408881
6.6,557.7968688,-80.86120281,0.76346035,9995.949383,-179.9506276,0.010156216,32.16802145000526,-9.759924512,2.812505533,-29.99338833,0.09620305154909778,0.9629087451993531,-1.5946579115749808,-45.80762102,1077.419562,0.001755778,1455.832234,483.0398601,-1272.979497,118.9643156,-23672.89058,-2.449142178,26806.52512,84.79784403,0.523127636,333.9404285
6.7,557.5289508,-82.68331904,0.735134783,9995.87445,-179.95065,0.010308835,32.16802169000544,-9.946653006,2.816186896,-29.99334434,0.09632652395394829,0.9639534764429931,-1.5996383472091484,-44.10808697,1077.419859,0.001755782,1455.836463,483.0401271,-1272.938836,120.5743335,-23675.12257,-2.358837176,26813.75182,80.67656809,0.523126782,333.9399758
6.8,557.255084,-84.50466059,0.706400808,9995.80237,-179.9506729,0.01046138,32.16802191000561,-10.13388581,2.81971595,-29.99332415,0.09645228818997933,0.9652623985259676,-1.6047816174486917,-42.3840485,1077.420146,0.001755786,1455.840531,483.0403839,-1272.837118,120.7329946,-23678.07103,-2.38912298,26818.27485,81.74079916,0.523125954,333.9395357
6.9,556.9752403,-86.32544408,0.677276984,9995.733183,-179.9506963,0.010613849,32.168022120005794,-10.32161601,2.823106811,-29.99332709,0.09657444279190104,0.9664896741231359,-1.6095161968929692,-40.63661901,1077.420421,0.00175579,1455.844436,483.0406304,-1272.676659,119.6094132,-23681.59665,-2.51846083,26820.22263,87.21122573,0.523125157,333.9391121
7.0,556.6893946,-88.1458347,0.647794497,9995.666926,-179.9507202,0.010766241,32.16802233000591,-10.50977571,2.82637146,-29.99335008,0.09668765925221874,0.9673406883362426,-1.6133875581231036,-38.86766983,1077.420684,0.001755794,1455.848175,483.0408664,-1272.471009,117.488335,-23685.41731,-2.721354568,26819.90742,95.93682782,0.523124395,333.9387076
7.1,556.3975281,-89.96592553,0.618005417,9995.603634,-179.9507445,0.010918553,32.1680225300061,-10.69825105,2.829518556,-29.99338824,0.09678764038746893,0.9675963994002091,-1.616091918916117,-37.08032502,1077.420935,0.001755797,1455.851747,483.0410919,-1272.240733,114.7248099,-23689.15713,-2.966894702,26817.70395,106.5659377,0.523123671,333.9383235
7.2,556.0996321,-91.78572733,0.587987612,9995.543333,-179.9507694,0.011070785,32.168022710006284,-10.88690023,2.83255284,-29.99343573,0.09687146411289643,0.9671298398676349,-1.6174894202742187,-35.27925673,1077.421175,0.001755801,1455.85515,483.0413067,-1272.011274,111.6971674,-23692.40418,-3.22360196,26814.06988,117.7162415,0.523122985,333.9379594
7.3,555.7957093,-93.60516952,0.557844498,9995.486041,-179.9507948,0.011222935,32.16802289000647,-11.07557224,2.835475114,-29.99348639,0.09693792721713153,0.9659073771159455,-1.6175981103679549,-33.47066991,1077.421403,0.001755804,1455.858384,483.0415109,-1271.808207,108.7635338,-23694.76936,-3.462763746,26809.47304,128.126916,0.523122333,333.9376141
7.4,555.485774,-95.42411002,0.527701481,9995.431764,-179.9508206,0.011375,32.1680230600066,-11.26412423,2.838282665,-29.99353454,0.09698714429173319,0.9639808638256002,-1.616571713773759,-31.66208883,1077.421618,0.001755807,1455.861447,483.0417042,-1271.655049,106.2260835,-23695.93675,-3.661182352,26804.32633,136.7780246,0.523121714,333.9372856
7.5,555.1698514,-97.24235197,0.497699886,9995.380496,-179.950847,0.01152698,32.168023220006795,-11.45243584,2.840970105,-29.99357547,0.0970206623227483,0.9614725118943007,-1.614665769668259,-29.86199313,1077.421822,0.00175581,1455.864341,483.0418869,-1271.569564,104.3058488,-23695.68961,-3.802998471,26798.97964,142.9684289,0.523121123,333.9369715
7.6,554.8479751,-99.05966482,0.467988622,9995.332214,-179.9508739,0.011678873,32.168023370006985,-11.64041923,2.843530419,-29.99360583,0.09704123150759346,0.9585531200407749,-1.6121974101910594,-28.07931732,1077.422014,0.001755812,1455.867065,483.0420589,-1271.563592,103.1294633,-23693.91752,-3.880327024,26793.70359,146.3506586,0.523120556,333.9366693
7.7,554.520184,-100.8758068,0.438715368,9995.286883,-179.9509012,0.011830676,32.16802351000718,-11.82802446,2.845956094,-29.99362383,0.09705194581836239,0.9554177803942645,-1.6095031907510196,-26.32292207,1077.422194,0.001755815,1455.869624,483.0422204,-1271.642063,102.7276958,-23690.63972,-3.893291566,26788.67512,146.9223625,0.523120011,333.9363768
7.8,554.1865191,-102.6905461,0.410018545,9995.244452,-179.9509291,0.01198239,32.16802364000732,-12.01524008,2.848240228,-29.99362922,0.09705635759338489,0.9522622153375859,-1.6069008737413188,-24.60111268,1077.422363,0.001755817,1455.872019,483.0423716,-1271.801627,103.0444585,-23685.97724,-3.848761837,26783.91955,144.9824927,0.523119484,333.9360925
7.9,553.8470204,-104.5036786,0.382019889,9995.204856,-179.9509574,0.012134011,32.16802377000752,-12.2020896,2.850377434,-29.99362313,0.09705778998787272,0.9492629531674188,-1.6046576293818258,-22.92119333,1077.42252,0.001755819,1455.874253,483.0425126,-1272.033854,103.9539444,-23680.14616,-3.75886247,26779.45035,141.0605364,0.523118973,333.9358152
8.0,553.5017237,-106.315041,0.354820059,9995.168021,-179.9509863,0.012285538,32.16802388000773,-12.38862466,2.852364523,-29.99360774,0.09705916508658102,0.9465604831351293,-1.6029678622524284,-21.28920354,1077.422666,0.001755821,1455.876332,483.0426439,-1272.325252,105.2830222,-23673.40821,-3.639069115,26775.16257,135.8305632,0.523118478,333.9355447
8.1,553.1506586,-108.1245181,0.328495177,9995.133863,-179.9510156,0.01243697,32.16802399000794,-12.57491603,2.854200881,-29.99358597,0.09706260283335182,0.9442492286853544,-1.601941981320248,-19.70971061,1077.422802,0.001755823,1455.87826,483.0427656,-1272.659377,106.8358591,-23666.05919,-3.506093306,26770.89885,130.0200181,0.523117999,333.935281
8.2,552.7938472,-109.9320442,0.303096691,9995.102291,-179.9510455,0.012588305,32.16802409000808,-12.76104387,2.85588857,-29.99356103,0.09706942103111385,0.9423743388923504,-1.601605139432491,-18.18580147,1077.422927,0.001755825,1455.880042,483.0428781,-1273.019414,108.4177859,-23658.39145,-3.375780025,26766.53134,124.3254215,0.523117537,333.9350252
8.3,552.4313033,-111.7376002,0.278652697,9995.073211,-179.9510758,0.012739542,32.1680241800083,-12.9470881,2.857432117,-29.99353603,0.09708007804610327,0.9409324333051262,-1.6019054266129187,-16.71916183,1077.423043,0.001755826,1455.881683,483.0429817,-1273.388549,109.8559855,-23650.66316,-3.261831707,26761.88969,119.3413052,0.523117094,333.9347782
8.4,552.0630338,-113.5412051,0.255171287,9995.046528,-179.9511066,0.012890679,32.168024260008515,-13.13312011,2.858838135,-29.99351369,0.09709417280786346,0.9398791076945593,-1.6027296264012134,-15.31027722,1077.423149,0.001755828,1455.883189,483.0430767,-1273.752697,111.0152014,-23643.09256,-3.17429103,26756.85445,115.5102895,0.523116672,333.9345416
8.5,551.6890387,-115.3429061,0.23264507,9995.022145,-179.9511379,0.013041714,32.168024340008735,-13.31919648,2.860114733,-29.99349611,0.09711073128814272,0.9391387316316924,-1.6039226964180124,-13.95870421,1077.423246,0.001755829,1455.884565,483.0431636,-1274.101228,111.8073858,-23635.82625,-3.119165572,26751.32708,113.0943332,0.523116273,333.9343166
8.6,551.3093141,-117.1427665,0.211055998,9994.999968,-179.9511697,0.013192646,32.168024410008876,-13.50535504,2.861270897,-29.99348456,0.09712843568401225,0.9386172827423445,-1.605310342902038,-12.66335987,1077.423334,0.001755831,1455.885817,483.0432426,-1274.426701,112.195079,-23628.94979,-3.098111416,26745.28306,112.1707923,0.523115898,333.9341045
8.7,550.9238532,-118.9408541,0.190380387,9994.979903,-179.951202,0.013343474,32.1680244700091,-13.6916135,2.862315857,-29.99347954,0.09714556712208662,0.9382143215250296,-1.6067194753033804,-11.42282324,1077.423414,0.001755832,1455.886949,483.0433141,-1274.726486,112.1889352,-23622.482,-3.10908948,26738.7324,112.6469571,0.523115548,333.9339063
8.8,550.5326488,-120.7372306,0.170593228,9994.961862,-179.9512348,0.013494195,32.168024530009326,-13.87797037,2.863258509,-29.99348074,0.09716057861631903,0.9378344505068583,-1.6079972284823,-10.23559366,1077.423485,0.001755833,1455.887967,483.0433784,-1275.000803,111.8403944,-23616.39413,-3.146745016,26731.72379,114.2924013,0.523115226,333.9337225
8.9,550.1356953,-122.5319436,0.151672231,9994.945756,-179.9512681,0.013644808,32.16802458000956,-14.06440788,2.864106963,-29.99348726,0.09717203777222164,0.9373979139627487,-1.6090242553300704,-9.100333877,1077.423549,0.001755834,1455.888876,483.0434358,-1275.253265,111.230966,-23610.61013,-3.203534164,26724.36403,116.7810744,0.52311493,333.9335533
9.0,549.7329899,-124.3250209,0.133599709,9994.931499,-179.9513019,0.013795312,32.16802462000971,-14.2508962,2.864868235,-29.99349769,0.09717897056154272,0.9368460983102591,-1.609723378431688,-8.015982522,1077.423606,0.001755834,1455.889681,483.0434866,-1275.489453,110.4596341,-23605.03545,-3.270818997,26716.75542,119.7384189,0.52311466,333.9333985
9.1,549.3245337,-126.1164686,0.11636428,9994.919008,-179.9513362,0.013945705,32.16802466000995,-14.43739848,2.865548103,-29.99351042,0.0971806894349281,0.9361462876592873,-1.610062569446405,-6.981856828,1077.423656,0.001755835,1455.890386,483.0435311,-1275.715999,109.6300118,-23599.56128,-3.340055252,26709.05612,122.7878475,0.523114415,333.9332575
9.2,548.9103319,-127.9062713,0.099960597,9994.908198,-179.9513709,0.014095985,32.16802470001018,-14.62387593,2.866151102,-29.99352378,0.09717702250503926,0.935290174121804,-1.6100522562060928,-5.997635813,1077.423699,0.001755836,1455.890996,483.0435696,-1275.939487,108.8386766,-23594.09083,-3.403412898,26701.36692,125.5910326,0.523114193,333.9331293
9.3,548.4903939,-129.694395,0.084388817,9994.898988,-179.9514062,0.014246151,32.16802473001042,-14.81029253,2.86668067,-29.99353624,0.0971683135465533,0.9342936286287346,-1.6097391347710541,-5.063329034,1077.423735,0.001755836,1455.891516,483.0436024,-1276.166142,108.1657152,-23588.53846,-3.454810995,26693.824,127.8795884,0.523113993,333.933013
9.4,548.0647325,-131.4807919,0.069652355,9994.891293,-179.9514419,0.014396202,32.16802475001059,-14.99661876,2.867139379,-29.99354655,0.09715519281304481,0.9331900546195345,-1.609196314555948,-4.17914129,1077.423766,0.001755837,1455.89195,483.0436298,-1276.400285,107.6682676,-23582.8567,-3.490178753,26686.51236,129.4744853,0.523113813,333.9329074
9.5,547.6333631,-133.265406,0.055756467,9994.885029,-179.9514782,0.014546135,32.16802477001083,-15.1828342,2.867529218,-29.99355388,0.09713851974120653,0.9320254033093739,-1.6085120310612244,-3.345388026,1077.423791,0.001755837,1455.892304,483.0436521,-1276.645337,107.3773497,-23577.01937,-3.507637614,26679.50564,130.2940626,0.52311365,333.9328114
9.6,547.1963021,-135.0481792,0.042705546,9994.880113,-179.9515149,0.014695949,32.168024790011074,-15.36892884,2.867851918,-29.99355778,0.09711938295084918,0.930851928449168,-1.6077784731961193,-2.562332749,1077.42381,0.001755837,1455.892581,483.0436696,-1276.901411,107.2978887,-23571.03676,-3.507579979,26672.85027,130.3500814,0.523113504,333.932724
9.7,546.7535663,-136.8290569,0.030501177,9994.87646,-179.9515521,0.014845643,32.168024800011246,-15.55490302,2.868109229,-29.99355824,0.09709881376600403,0.9297206232826839,-1.6070813554467847,-1.830070622,1077.423825,0.001755837,1455.892787,483.0436826,-1277.168066,107.4115344,-23564.94275,-3.492091208,26666.55063,129.734488,0.523113372,333.9326443
9.8,546.3051709,-138.6079923,0.019140371,9994.873984,-179.9515898,0.014995215,32.1680248100115,-15.74076637,2.868303181,-29.99355564,0.09707784351070226,0.9286767514757366,-1.6064912662135802,-1.148422256,1077.423835,0.001755837,1455.892927,483.0436915,-1277.442599,107.6816112,-23558.80106,-3.464749365,26660.60204,128.5995159,0.523113253,333.9325716
9.9,545.8511295,-140.3849501,0.008614559,9994.872604,-179.9516279,0.015144663,32.16802482001176,-15.9265358,2.868436247,-29.99355059,0.0970572743258571,0.9277550915664904,-1.606058568486698,-0.516873564,1077.42384,0.001755838,1455.893005,483.0436964,-1277.721267,108.0593946,-23552.67873,-3.429839337,26654.9659,127.1332714,0.523113147,333.9325055
10.0,545.3914526,-142.1599077,-0.001091298,9994.872234,-179.9516666,0.015293987,32.168024820012015,-16.112233,2.868511436,-29.99354392,0.09703773646504316,0.9269779316131762,-1.60581013398673,0.065477868,1077.423841,0.001755838,1455.893026,483.0436977,-1277.999731,108.4908628,-23546.65748,-3.391994396,26649.61481,125.5354404,0.523113053,333.9324456
10.1,544.9261478,-143.9328558,-0.009998614,9994.872795,-179.9517058,0.015443184,32.168024820012185,-16.29788177,2.868532327,-29.99353651,0.09701957370293755,0.9263534076164844,-1.6057498015309026,0.599916835,1077.423839,0.001755838,1455.892994,483.0436957,-1278.273299,108.9231741,-23540.81077,-3.355534908,26644.48382,123.9940147,0.523112969,333.9323919
10.2,544.4552197,-145.7037967,-0.018134041,9994.874208,-179.9517454,0.015592253,32.16802482001245,-16.48350539,2.86850298,-29.99352921,0.09700290063109926,0.9258771650971724,-1.60586066886426,1.088042444,1077.423834,0.001755837,1455.892914,483.0436907,-1278.538015,109.3101678,-23535.20065,-3.324064717,26639.53355,122.6669156,0.523112897,333.9323442
10.3,543.97867,-147.4727427,-0.025529353,9994.876397,-179.9517855,0.015741192,32.16802481001271,-16.66912444,2.868427853,-29.99352273,0.09698754536218977,0.925533791490551,-1.6061097336178032,1.531761206,1077.423825,0.001755837,1455.892791,483.0436829,-1278.789619,109.6164352,-23529.88286,-3.300275208,26634.72712,121.6688939,0.523112837,333.9323026
10.4,543.4964983,-149.2397124,-0.032219443,9994.87929,-179.9518261,0.01589,32.16802480001289,-16.85475516,2.868311617,-29.99351763,0.09697333600887055,0.9252997382312403,-1.6064534509991018,1.933166557,1077.423813,0.001755837,1455.892628,483.0436726,-1279.026245,109.8197572,-23524.89061,-3.285537505,26630.03516,121.0646544,0.523112787,333.9322672
10.5,543.0087029,-151.0047282,-0.038241172,9994.882819,-179.9518672,0.016038675,32.168024790013156,-17.04040844,2.868159001,-29.99351423,0.09695981420490549,0.9251468730914997,-1.6068437498491441,2.294470306,1077.423799,0.001755837,1455.892428,483.04366,-1279.24594,109.9117678,-23520.23441,-3.280207052,26625.43968,120.8686969,0.523112748,333.932238
10.6,542.5152813,-152.7678124,-0.043631886,9994.886917,-179.9519088,0.016187216,32.16802478001344,-17.22608958,2.867974625,-29.99351262,0.09694652158405848,0.9250458033364388,-1.6072337049245098,2.617913137,1077.423783,0.001755837,1455.892197,483.0436454,-1279.448658,109.8970838,-23515.91298,-3.283550626,26620.93805,121.0495238,0.523112719,333.9322148
10.7,542.016231,-154.5289849,-0.048428205,9994.891525,-179.9519508,0.016335621,32.16802477001371,-17.41179862,2.86776284,-29.99351271,0.09693311437165243,0.9249693134707889,-1.6075823497428463,2.905692282,1077.423765,0.001755837,1455.891937,483.043629,-1279.634721,109.7911481,-23511.90983,-3.294010562,26616.55462,121.5398694,0.523112701,333.9321976
10.8,541.5115502,-156.2882608,-0.052664962,9994.896584,-179.9519933,0.016483889,32.1680247600139,-17.59753117,2.867527623,-29.99351421,0.09691919149723077,0.924894370591186,-1.6078586299916582,3.159897727,1077.423745,0.001755836,1455.891652,483.0436109,-1279.805327,109.6171834,-23508.19509,-3.309422134,26612.28115,122.24748,0.523112693,333.9321862
10.9,541.0012386,-158.0456494,-0.056374591,9994.90204,-179.9520364,0.016632018,32.168024740014175,-17.78327966,2.867272498,-29.99351674,0.09690452377767543,0.9248044735131301,-1.6080430078101309,3.382475474,1077.423723,0.001755836,1455.891344,483.0435915,-1279.962611,109.4027088,-23504.73446,-3.327425755,26608.16838,123.0689414,0.523112694,333.9321801
11.0,540.485297,-159.8011532,-0.059586901,9994.907842,-179.9520799,0.016780006,32.16802472001446,-17.96903469,2.867000509,-29.99351985,0.0968889393256479,0.9246897673625449,-1.6081283785216052,3.575214075,1077.4237,0.001755836,1455.891016,483.0435708,-1280.108766,109.1760471,-23501.49158,-3.345723733,26604.23947,123.9019333,0.523112703,333.9321789
11.1,539.963728,-161.5547686,-0.062328977,9994.913942,-179.9521238,0.016927852,32.16802471001465,-18.15478645,2.866714229,-29.99352308,0.09687243814114815,0.9245475019420142,-1.608119096605324,3.73973862,1077.423676,0.001755835,1455.890672,483.0435491,-1280.245719,108.9631832,-23498.43308,-3.362185435,26600.51132,124.6559147,0.52311272,333.9321822
11.2,539.4365356,-163.3064862,-0.064625281,9994.920293,-179.9521683,0.017075555,32.168024690014946,-18.34052596,2.866415807,-29.99352603,0.09685513481573522,0.9243814587729854,-1.6080291995272682,3.877516881,1077.423651,0.001755835,1455.890313,483.0435265,-1280.375699,108.7852858,-23495.52875,-3.375179388,26597.01656,125.2604105,0.523112744,333.9321894
11.3,538.9037248,-165.0562928,-0.066498507,9994.926853,-179.9522132,0.017223113,32.16802467001523,-18.5262461,2.866107048,-29.99352836,0.09683725853252718,0.9241998311519292,-1.6078794283596214,3.989910412,1077.423624,0.001755835,1455.889943,483.0435031,-1280.500166,108.657067,-23492.75428,-3.383750527,26593.76961,125.6699711,0.523112773,333.9322001
11.4,538.3653018,-166.8041724,-0.067969872,9994.93358,-179.9522586,0.017370525,32.168024650015425,-18.71194223,2.865789481,-29.99352986,0.09681898117886252,0.9240141928263071,-1.6076943629917944,4.07819233,1077.423598,0.001755834,1455.889564,483.0434791,-1280.619894,108.586018,-23490.1018,-3.387381805,26590.76712,125.8660165,0.523112808,333.9322137
11.5,537.8212729,-168.5501082,-0.069059751,9994.940434,-179.9523045,0.017517788,32.168024630015715,-18.89761251,2.865464466,-29.99353043,0.09680064652941837,0.9238378364169662,-1.607499213566773,4.143585039,1077.423571,0.001755834,1455.889177,483.0434547,-1280.73564,108.572541,-23487.56749,-3.3863563,26588.04051,125.8549297,0.523112846,333.9322298
11.6,537.2716445,-170.2940837,-0.069788312,9994.947379,-179.9523509,0.017664902,32.16802461001602,-19.08325785,2.865133277,-29.99353008,0.09678254106309227,0.9236833096996196,-1.6073168983963626,4.187298714,1077.423543,0.001755833,1455.888785,483.04343,-1280.847606,108.6108267,-23485.14767,-3.381234477,26585.55715,125.6647251,0.523112888,333.932248
11.7,536.7164228,-172.0360843,-0.07017593,9994.95438,-179.9523977,0.017811864,32.168024590016216,-19.26888161,2.864797164,-29.99352893,0.09676489396300225,0.9235614988723749,-1.607166153200464,4.21055582,1077.423515,0.001755833,1455.88839,483.043405,-1280.955167,108.6902585,-23482.85687,-3.373035412,26583.32167,125.3387955,0.523112933,333.9322679
11.8,536.155613,-173.7760978,-0.070243624,9994.961404,-179.952445,0.017958674,32.16802457001652,-19.45448896,2.864457403,-29.99352714,0.09674793441226641,0.9234804253443641,-1.6070598695294673,4.214617435,1077.423487,0.001755833,1455.887993,483.04338,-1281.057575,108.7971641,-23480.7044,-3.363041384,26581.31261,124.9295978,0.52311298,333.9322893
11.9,535.5892197,-175.5141149,-0.070012924,9994.968419,-179.9524928,0.018105329,32.16802455001682,-19.64008627,2.864115333,-29.99352496,0.09673177700244374,0.9234443862990503,-1.6070046363980166,4.200775467,1077.423459,0.001755832,1455.887597,483.043355,-1281.15413,108.9166872,-23478.70654,-3.352385896,26579.49741,124.491707,0.523113029,333.932312
12.0,535.0172462,-177.2501294,-0.069506259,9994.975397,-179.9525411,0.018251829,32.16802453001703,-19.8256803,2.863772354,-29.99352262,0.09671653632509328,0.9234545276520242,-1.607000511101892,4.170375515,1077.423432,0.001755832,1455.887203,483.0433302,-1281.243718,109.0345099,-23476.87802,-3.342327241,26577.86788,124.0758752,0.523113079,333.9323358
12.1,534.4396955,-178.9841374,-0.068746378,9994.982312,-179.9525899,0.018398171,32.16802451001734,-20.01127754,2.863429927,-29.99352034,0.09670221238021504,0.9235080419100894,-1.6070422797251567,4.124782703,1077.423404,0.001755832,1455.886813,483.0433055,-1281.325512,109.1383339,-23475.22159,-3.333780026,26576.39799,123.723864,0.523113132,333.9323606
12.2,533.8565692,-180.7161371,-0.067756299,9994.989139,-179.9526391,0.018544355,32.16802449001766,-20.19688364,2.863089521,-29.99351834,0.09668874787202948,0.9235995432699716,-1.607120373872633,4.065377937,1077.423377,0.001755831,1455.886428,483.0432812,-1281.399039,109.2189297,-23473.74641,-3.327496028,26575.07113,123.4653015,0.523113185,333.9323864
12.3,533.2678689,-182.4461278,-0.066558979,9994.995856,-179.9526888,0.018690378,32.16802447001786,-20.38250295,2.862752597,-29.99351673,0.0966760282089776,0.9237215832803343,-1.6072225895432843,3.993538755,1077.42335,0.001755831,1455.886049,483.0432573,-1281.464007,109.2707325,-23472.45877,-3.323651316,26573.8793,123.31605,0.52311324,333.932413
12.4,532.6735956,-184.174109,-0.065176816,9995.002444,-179.9527389,0.018836239,32.16802445001817,-20.56813829,2.862420555,-29.99351561,0.09666393879950036,0.9238655675742503,-1.6073356341162635,3.91060898,1077.423324,0.00175583,1455.885677,483.0432338,-1281.520156,109.2919687,-23471.34802,-3.322459641,26572.80199,123.2781695,0.523113296,333.9324404
12.5,532.0737504,-185.9000798,-0.063631568,9995.008886,-179.9527896,0.018981937,32.168024430018505,-20.75379095,2.862094698,-29.993515,0.09665242234781823,0.9240227871932342,-1.6074469025200777,3.817894093,1077.423299,0.00175583,1455.885313,483.0432108,-1281.567838,109.2843583,-23470.41198,-3.323657996,26571.83249,123.3415436,0.523113352,333.9324685
12.6,531.4683346,-187.6240378,-0.061943691,9995.015166,-179.9528407,0.01912747,32.16802441001872,-20.93946071,2.861776186,-29.99351485,0.09664124967081321,0.9241853353197125,-1.6075454512608398,3.71662147,1077.423274,0.00175583,1455.884959,483.0431885,-1281.607495,109.2524844,-23469.63409,-3.326678378,26570.98509,123.4865062,0.523113409,333.9324972
12.7,530.8573502,-189.3459788,-0.060132173,9995.021271,-179.9528923,0.019272836,32.16802439001904,-21.12514621,2.861466029,-29.99351508,0.09663030617692622,0.924346221868585,-1.6076231443378595,3.607930389,1077.423249,0.001755829,1455.884614,483.0431667,-1281.639611,109.2029409,-23469.00297,-3.331029186,26570.22306,123.6871659,0.523113467,333.9325264
12.8,530.2407995,-191.0658966,-0.058214672,9995.027189,-179.9529443,0.019418035,32.16802438001937,-21.31084519,2.861165057,-29.99351559,0.09661959186615729,0.9245009204732701,-1.607675111609878,3.492880321,1077.423226,0.001755829,1455.88428,483.0431456,-1281.665436,109.1433541,-23468.50077,-3.336033685,26569.57233,123.9150889,0.523113524,333.9325559
12.9,529.6186855,-192.7837828,-0.056207276,9995.032911,-179.9529969,0.019563064,32.16802436001959,-21.49655495,2.860873921,-29.99351626,0.09660899214694739,0.9246466809363513,-1.6076998633866275,3.372436532,1077.423203,0.001755829,1455.883957,483.0431252,-1281.685571,109.0814541,-23468.11073,-3.341026909,26569.04959,124.1424633,0.523113582,333.9325855
13.0,528.991012,-194.4996269,-0.054124552,9995.038428,-179.9530498,0.019707922,32.168024340019926,-21.68227269,2.860593107,-29.99351694,0.09659850701929651,0.9247820708633403,-1.6076990612457143,3.247473114,1077.423181,0.001755828,1455.883646,483.0431056,-1281.70081,109.0242167,-23467.82284,-3.345468277,26568.62043,124.3450306,0.523113639,333.9326152
13.1,528.3577834,-196.2134163,-0.051979519,9995.043733,-179.9531033,0.019852608,32.168024330020145,-21.86799586,2.860322955,-29.99351755,0.09658819377898417,0.9249082934656074,-1.6076768304832632,3.118771119,1077.42316,0.001755828,1455.883347,483.0430867,-1281.711856,108.9772245,-23467.61973,-3.348975009,26568.30549,124.5045472,0.523113695,333.9326447
13.2,527.7190046,-197.9251373,-0.049784232,9995.048822,-179.9531572,0.019997119,32.16802431002048,-22.05372243,2.860063661,-29.99351798,0.09657805242601036,0.925027182208097,-1.6076390152687847,2.987053922,1077.42314,0.001755828,1455.883059,483.0430686,-1281.719621,108.9442444,-23467.49389,-3.351211299,26568.10304,124.6093607,0.523113751,333.9326739
13.3,527.074681,-199.634775,-0.047549405,9995.053689,-179.9532116,0.020141455,32.16802430002082,-22.23945106,2.859815343,-29.99351819,0.09656814025615461,0.9251418310629026,-1.6075924338000407,2.852964304,1077.423121,0.001755828,1455.882785,483.0430512,-1281.724533,108.9270509,-23467.43228,-3.352114062,26568.00346,124.6555413,0.523113805,333.9327027
13.4,526.424818,-201.3423141,-0.045285196,9995.058331,-179.9532665,0.020285614,32.168024290021044,-22.42518115,2.859578034,-29.99351815,0.09655845726941692,0.9252554485936768,-1.6075440188663521,2.717111743,1077.423102,0.001755827,1455.882523,483.0430347,-1281.726705,108.9255119,-23467.43589,-3.351785598,26568.01103,124.645574,0.523113858,333.9327308
13.5,525.7694216,-203.047739,-0.043000894,9995.062745,-179.9533219,0.020429594,32.16802428002139,-22.61091285,2.859351728,-29.99351787,0.09654917535313581,0.9253713579556316,-1.6074998438203476,2.580053634,1077.423085,0.001755827,1455.882274,483.043019,-1281.72656,108.9378172,-23467.49689,-3.350382665,26568.11573,124.5879858,0.52311391,333.9327583
13.6,525.1084972,-204.7510345,-0.040705339,9995.066931,-179.9533777,0.020573394,32.168024260021745,-22.79664693,2.859136393,-29.99351738,0.0965402945073113,0.9254919655715065,-1.6074648933948446,2.442320328,1077.423068,0.001755827,1455.882037,483.043004,-1281.723985,108.9609128,-23467.61365,-3.348192019,26568.30127,124.495029,0.52311396,333.932785
13.7,524.4420506,-206.4521856,-0.038407126,9995.070886,-179.9534339,0.020717012,32.16802425002198,-22.98238465,2.858931992,-29.99351673,0.09653181473194337,0.9256195059767025,-1.6074424334492756,2.304427588,1077.423052,0.001755827,1455.881814,483.04299,-1281.719102,108.9909844,-23467.79081,-3.345578056,26568.57271,124.381312,0.523114008,333.9328109
13.8,523.7700872,-208.1511779,-0.03611428,9995.074612,-179.9534907,0.020860447,32.168024240022326,-23.16812754,2.858738488,-29.99351599,0.09652385061859106,0.9257545521290145,-1.6074340109696872,2.16685678,1077.423037,0.001755826,1455.881604,483.0429767,-1281.711745,109.0239452,-23468.02155,-3.342830759,26568.90809,124.2617917,0.523114054,333.9328359
13.9,523.0926122,-209.8479977,-0.033834755,9995.07811,-179.9535479,0.021003698,32.16802423002257,-23.35387721,2.858555852,-29.99351522,0.09651628757569534,0.9258973905073403,-1.6074395113645203,2.03008531,1077.423023,0.001755826,1455.881407,483.0429642,-1281.701835,109.0559353,-23468.30928,-3.340274843,26569.30028,124.1499261,0.523114099,333.9328599
14.0,522.4096309,-211.5426314,-0.031576008,9995.08138,-179.9536055,0.021146763,32.16802422002292,-23.53963517,2.858384051,-29.99351448,0.09650918289903573,0.9260469324918693,-1.6074572730561694,1.894560453,1077.42301,0.001755826,1455.881222,483.0429526,-1281.689464,109.0836814,-23468.65601,-3.338216921,26569.75721,124.0570099,0.523114141,333.9328831
14.1,521.7211483,-213.2350658,-0.029345098,9995.084426,-179.9536636,0.021289639,32.16802422002328,-23.72540266,2.85822306,-29.99351383,0.0965024792928327,0.926201573800775,-1.607484488551438,1.760705869,1077.422998,0.001755826,1455.88105,483.0429417,-1281.674263,109.1047821,-23469.05226,-3.336753207,26570.25192,123.9904404,0.523114182,333.9329054
14.2,521.0271694,-214.925288,-0.027148833,9995.08725,-179.9537222,0.021432327,32.16802421002352,-23.91118057,2.858072836,-29.99351329,0.09649617675708629,0.9263591371944357,-1.6075178346951147,1.628929999,1077.422987,0.001755826,1455.880891,483.0429317,-1281.65665,109.1178642,-23469.50328,-3.336029567,26570.77898,123.9541945,0.523114221,333.9329268
14.3,520.3276993,-216.6132847,-0.024993425,9995.089857,-179.9537813,0.021574824,32.16802420002388,-24.09696936,2.857933316,-29.99351289,0.09649016070023743,0.9265172162501122,-1.6075535872615307,1.499605504,1077.422977,0.001755826,1455.880744,483.0429224,-1281.636589,109.1225817,-23470.0023,-3.336004836,26571.34086,123.9482071,0.523114258,333.9329473
14.4,519.6227432,-218.2990423,-0.022884378,9995.09225,-179.9538408,0.021717129,32.16802420002413,-24.28276906,2.857804414,-29.99351263,0.09648443112228612,0.9266735191366234,-1.6075884230954747,1.373062658,1077.422967,0.001755825,1455.880608,483.0429138,-1281.614267,109.1195235,-23470.54473,-3.336566611,26571.92521,123.969375,0.523114293,333.9329669
14.5,518.9123066,-219.9825468,-0.020826786,9995.094435,-179.9539008,0.02185924,32.1680241900245,-24.4685793,2.857685997,-29.99351251,0.09647887343167336,0.9268256394312305,-1.6076193628164117,1.249607147,1077.422959,0.001755825,1455.880485,483.0429061,-1281.589957,109.110041,-23471.12393,-3.337701265,26572.53416,124.0119304,0.523114327,333.9329856
14.6,518.1963951,-221.6637833,-0.018824856,9995.096417,-179.9539612,0.022001155,32.168024190024866,-24.65439942,2.85757789,-29.99351248,0.09647354492417866,0.9269722593310045,-1.6076443437762793,1.129491343,1077.422951,0.001755825,1455.880373,483.042899,-1281.563916,109.0959948,-23471.73471,-3.339146813,26573.16919,124.068803,0.523114359,333.9330034
14.7,517.4750149,-223.3427364,-0.016882296,9995.098202,-179.9540221,0.022142875,32.16802418002512,-24.84022852,2.857479884,-29.99351253,0.09646833100824297,0.9271119464414569,-1.6076621054679283,1.012937777,1077.422944,0.001755825,1455.880273,483.0428926,-1281.536395,109.0794992,-23472.37228,-3.34072665,26573.81704,124.1320164,0.523114389,333.9330203
14.8,516.7481723,-225.0193901,-0.015001903,9995.099796,-179.9540834,0.022284396,32.1680241800255,-25.02606559,2.857391715,-29.99351262,0.09646328897964582,0.9272441278047935,-1.6076724760040204,0.900114205,1077.422937,0.001755825,1455.880183,483.042887,-1281.507883,109.062656,-23473.02805,-3.342317114,26574.49278,124.194031,0.523114417,333.9330363
14.9,516.015874,-226.6937274,-0.01318617,9995.101205,-179.9541453,0.022425717,32.168024170025745,-25.21190963,2.857313084,-29.99351272,0.09645830424682819,0.9273685169421163,-1.6076758564550115,0.791170209,1077.422932,0.001755825,1455.880103,483.0428819,-1281.478378,109.0473302,-23473.69742,-3.343708047,26575.17512,124.2485002,0.523114443,333.9330514
15.0,515.278127,-228.3657312,-0.011436888,9995.102435,-179.9542075,0.022566837,32.16802417002613,-25.39775971,2.857243662,-29.99351279,0.0964534341055696,0.9274855722196613,-1.6076736219196106,0.686213251,1077.422927,0.001755825,1455.880034,483.0428775,-1281.448505,109.0349945,-23474.37807,-3.344842192,26575.87101,124.2905625,0.523114468,333.9330656
15.1,514.5349384,-230.0353836,-0.00975514,9995.103495,-179.9542703,0.022707755,32.168024170026385,-25.58361506,2.857183091,-29.99351281,0.0964486212600905,0.9275962103699009,-1.6076672620880845,0.585308408,1077.422923,0.001755825,1455.879974,483.0428738,-1281.418254,109.0266068,-23475.06058,-3.345663672,26576.58664,124.3173398,0.523114491,333.9330788
15.2,513.7863159,-231.7026666,-0.008142027,9995.104389,-179.9543334,0.022848468,32.168024170026776,-25.7694751,2.857130994,-29.99351277,0.09644392300617044,0.9277010043506302,-1.6076588396084963,0.48852162,1077.422919,0.001755825,1455.879923,483.0428706,-1281.388083,109.022576,-23475.74936,-3.346067239,26577.31464,124.3280466,0.523114512,333.9330912
15.3,513.0322669,-233.3675617,-0.006597703,9995.105125,-179.9543971,0.022988976,32.16802417002703,-25.95533948,2.857086983,-29.99351266,0.0964393966395889,0.9278013292605575,-1.6076500733542307,0.39586219,1077.422916,0.001755825,1455.879882,483.042868,-1281.357742,109.0227983,-23476.43329,-3.346132947,26578.05357,124.3235929,0.523114531,333.9331026
15.4,512.2727994,-235.0300509,-0.005122528,9995.105711,-179.9544612,0.023129277,32.16802417002742,-26.14120803,2.857050684,-29.99351249,0.0964349275687869,0.9278978726490368,-1.607642739494453,0.307351698,1077.422914,0.001755825,1455.879849,483.0428659,-1281.327531,109.0267247,-23477.11803,-3.345961162,26578.78864,124.3065359,0.523114548,333.9331131
15.5,511.5079209,-236.6901157,-0.003716517,9995.106152,-179.9545257,0.023269369,32.16802417002781,-26.32708078,2.857021723,-29.99351226,0.0964305730895439,0.9279917231358792,-1.6076380412405331,0.222991008,1077.422912,0.001755825,1455.879824,483.0428643,-1281.297284,109.0334806,-23477.79918,-3.345546471,26579.53334,124.280277,0.523114564,333.9331227
15.6,510.7376395,-238.347738,-0.002379262,9995.106456,-179.9545907,0.023409251,32.168024170028076,-26.51295787,2.856999716,-29.99351199,0.09642639049763946,0.9280833390873205,-1.607636838029163,0.142755748,1077.422911,0.001755825,1455.879807,483.0428632,-1281.267615,109.0420002,-23478.47616,-3.345059763,26580.28702,124.2488552,0.523114579,333.9331314
15.7,509.961963,-240.0028997,-0.001110538,9995.10663,-179.9546562,0.023548921,32.168024170028474,-26.69883953,2.856984319,-29.9935117,0.09642226520151452,0.9281731215738173,-1.6076395309308005,0.0666323,1077.42291,0.001755825,1455.879797,483.0428626,-1281.237814,109.0511695,-23479.15279,-3.344474679,26581.02809,124.2163624,0.523114591,333.9331392
15.8,509.1808993,-241.6555829,9.03E-5,9995.106681,-179.9547221,0.023688379,32.168024170028744,-26.88472601,2.856975186,-29.9935114,0.09641831179272813,0.9282611851869287,-1.6076460053538852,-0.005419092,1077.42291,0.001755825,1455.879794,483.0428624,-1281.208276,109.0599409,-23479.81891,-3.344035668,26581.76366,124.1865723,0.523114602,333.9331463
15.9,508.3944563,-243.30577,0.001223704,9995.106614,-179.9547885,0.023827622,32.16802417002914,-27.07061753,2.856971999,-29.99351112,0.09641441567972124,0.9283475872224344,-1.607655688340623,-0.073422213,1077.42291,0.001755825,1455.879798,483.0428627,-1281.178838,109.0674448,-23480.48527,-3.343723585,26582.5006,124.1621859,0.523114612,333.9331526
16.0,507.602642,-244.953443,0.002290597,9995.106438,-179.9548553,0.023966649,32.16802417002941,-27.25651424,2.856974434,-29.99351085,0.09641063415827338,0.9284316974267595,-1.6076678350458797,-0.137435815,1077.422911,0.001755825,1455.879808,483.0428633,-1281.149745,109.0730714,-23481.1435,-3.343532184,26583.22545,124.1453178,0.52311462,333.9331581
16.1,506.8054643,-246.5985844,0.003291775,9995.106158,-179.9549225,0.024105459,32.168024180029825,-27.44241619,2.856982191,-29.99351062,0.09640690993260503,0.9285131147294475,-1.6076815287371833,-0.197506526,1077.422912,0.001755825,1455.879824,483.0428643,-1281.120693,109.0764712,-23481.79661,-3.343551097,26583.93125,124.1367327,0.523114627,333.9331628
16.2,506.0029314,-248.2411764,0.004228444,9995.105782,-179.9549902,0.024244049,32.168024180030095,-27.62832333,2.856994968,-29.99351043,0.09640318570693669,0.9285914953558212,-1.6076957953862823,-0.253706647,1077.422914,0.001755825,1455.879845,483.0428656,-1281.091917,109.0775943,-23482.44165,-3.343759057,26584.63269,124.1364337,0.523114633,333.933167
16.3,505.1950515,-249.8812013,0.005101673,9995.105315,-179.9550584,0.02438242,32.16802418003051,-27.8142355,2.857012475,-29.99351028,0.09639957607282737,0.9286663236438651,-1.6077096036691447,-0.306100394,1077.422915,0.001755825,1455.879871,483.0428673,-1281.063432,109.0766313,-23483.07877,-3.344178764,26585.32315,124.1434373,0.523114638,333.9331704
16.4,504.3818329,-251.5186413,0.005912789,9995.104764,-179.955127,0.024520568,32.168024180030784,-28.00015244,2.857034421,-29.99351016,0.09639590914293854,0.9287369693400047,-1.6077222660364172,-0.354767362,1077.422918,0.001755825,1455.879902,483.0428693,-1281.03524,109.0739795,-23483.70786,-3.344681123,26585.98874,124.1560361,0.523114641,333.9331733
16.5,503.5632841,-253.1534782,0.006663419,9995.104134,-179.9551961,0.024658493,32.16802419003119,-28.18607381,2.857060518,-29.99351006,0.0963922422130497,0.9288033751484602,-1.6077332668260835,-0.399805144,1077.42292,0.001755825,1455.879938,483.0428715,-1281.007503,109.0701591,-23484.32151,-3.345254963,26586.63689,124.1721842,0.523114643,333.9331755
16.6,502.7394136,-254.7856939,0.007355107,9995.103433,-179.9552656,0.024796194,32.168024190031474,-28.37199924,2.857090479,-29.99350999,0.09638857528316087,0.9288653118861139,-1.6077422049676875,-0.441306435,1077.422923,0.001755825,1455.879977,483.042874,-1280.980142,109.0657563,-23484.92718,-3.345908988,26587.27465,124.1898282,0.523114645,333.9331772
16.7,501.9102302,-256.4152702,0.007989801,9995.102665,-179.9553355,0.024933668,32.168024200031894,-28.5579283,2.857124011,-29.99350992,0.09638490835327204,0.9289227222571859,-1.6077491377570088,-0.479388033,1077.422926,0.001755825,1455.880021,483.0428767,-1280.953559,109.0613405,-23485.5137,-3.346512756,26587.9025,124.2068628,0.523114645,333.9331784
16.8,501.0757429,-258.0421887,0.008569302,9995.101837,-179.9554059,0.025070914,32.16802420003218,-28.74386063,2.857160835,-29.99350985,0.0963811841276037,0.928975778149015,-1.6077542370813853,-0.514158124,1077.422929,0.001755825,1455.880067,483.0428797,-1280.92751,109.0574088,-23486.08966,-3.34708705,26588.51292,124.2215972,0.523114644,333.9331791
