time,eiPosition_ft_X,eiPosition_ft_Y,eiPosition_ft_Z,eiVelocity_ft_s_X,eiVelocity_ft_s_Y,eiVelocity_ft_s_Z,feVelocity_ft_s_X,feVelocity_ft_s_Y,feVelocity_ft_s_Z,altitudeMsl_ft,longitude_deg,latitude_deg,localGravity_ft_s2,eulerAngle_deg_Yaw,eulerAngle_deg_Pitch,eulerAngle_deg_Roll,bodyAngularRateWrtEi_deg_s_Roll,bodyAngularRateWrtEi_deg_s_Pitch,bodyAngularRateWrtEi_deg_s_Yaw,speedOfSound_ft_s,airDensity_slug_ft3,ambientPressure_lbf_ft2,ambientTemperature_dgR,aero_bodyForce_lbf_X,aero_bodyForce_lbf_Y,aero_bodyForce_lbf_Z,aero_bodyMoment_ftlbf_L,aero_bodyMoment_ftlbf_M,aero_bodyMoment_ftlbf_N,mach,dynamicPressure_lbf_ft2
0.0,-2.09356383538E7,-18269.7956517,0.0,1.33225450919,-1526.65082474,563.642781693,563.642781693,0.0,0.0,10000.0,-179.95,0.0,32.16800795296869,-5.68434188608E-14,2.66529266379,-9.92804483907E-13,0.00417355440349,8.2041534143E-29,1.94286117961E-4,1077.40438831,0.00175554979043,1455.6168276,483.025491153,-1084.44472782,-5.37398235538E-7,-22022.0106507,2.82367865486E-4,-25184.9486512,1.16765674257E-6,0.523148771071,278.863102485
0.1,-2.09356382212E7,-18422.4614569,56.3582951223,1.36242891262,-1526.65843566,563.54529583,563.545295879,0.00763733718703,0.0175078532239,10000.0013133,-179.949999998,1.55277989443E-4,32.16800794894562,0.00892428654931,2.63668338916,-1.02856767399,-12.4772084769,-0.160335437406,-0.0018696514603,1077.4043831,0.00175554971806,1455.61675349,483.025486474,-1464.22562842,220.426804323,-19916.5251033,23575.7978436,4291.92076241,-3255.00961326,0.523058291803,278.766637153
0.2,-2.09356380818E7,-18575.1257137,112.711354671,1.41838247885,-1526.6180658,563.521631089,563.521631427,-0.0326824304118,0.0608377019373,9999.99698852,-179.95,3.10541481165E-4,32.168007962265584,-0.00868994945586,2.63210969309,-2.23840332885,-12.325372636,0.0113178417967,-0.35467725614,1077.40440028,0.00175554995639,1455.61699753,483.025501883,-1412.62716128,309.661145502,-20236.2550708,24382.9998407,154.067718584,-4098.06487376,0.52303632277,278.743267357
0.3,-2.09356379381E7,-18727.782963,169.063205508,1.4547414293,-1526.51555252,563.516608766,563.516609473,-0.135162166126,0.0846296402285,9999.98970993,-179.950000022,4.65801688179E-4,32.16800798462099,-0.0635267748905,2.63144885893,-3.42583319112,-11.9992851694,0.028377740118,-0.721982046661,1077.4044292,0.0017555503575,1455.61740826,483.025527814,-1411.35603118,276.374682428,-20255.5978241,29512.115913,81.8362331455,-3558.1019429,0.523031664586,278.738381032
0.4,-2.09356377908E7,-18880.4262651,225.41478488,1.49200867445,-1526.33740864,563.515175347,563.515176566,-0.313271005437,0.109400585707,9999.98001304,-179.950000081,6.2106115103E-4,32.168008014502014,-0.151355300097,2.62978535097,-4.57181949592,-11.5643584514,0.060626201507,-0.997402761584,1077.40446773,0.00175555089188,1455.61795545,483.025562362,-1411.76139346,164.976777876,-20279.7793491,33294.842914,167.791801911,-2123.83752985,0.523030385655,278.737122658
0.5,-2.09356376397E7,-19033.04767,281.766256704,1.52908178791,-1526.07731206,563.514285245,563.514287114,-0.573332034454,0.13405610095,9999.96783087,-179.950000201,7.76320330342E-4,32.16800805199707,-0.259941936919,2.628110019,-5.66812613296,-11.0616291615,0.0963210207437,-1.12831955907,1077.40451613,0.00175555156322,1455.61864289,483.025605764,-1409.69705978,29.9695750319,-20329.2170951,34698.4036705,111.227705586,-455.711750683,0.523029731434,278.736556991
0.6,-2.0935637485E7,-19185.6390264,338.117642574,1.56483387185,-1525.73743963,563.513423685,563.51342632,-0.91316943391,0.157469682713,9999.95323939,-179.950000402,9.31579276601E-4,32.16800809689394,-0.374678867748,2.62700390077,-6.71367386653,-10.5632698693,0.123916977668,-1.12013733287,1077.40457411,0.00175555236733,1455.61946628,483.025657749,-1406.26673389,-79.0688370044,-20391.5983342,33874.0414344,-7.02666747237,856.801289575,0.523029325987,278.736282515
0.7,-2.09356373268E7,-19338.1927497,394.468937635,1.59901173708,-1525.32643033,563.512447573,563.512451077,-1.32414452171,0.17938246051,9999.9363835,-179.950000707,0.00108683795206,32.16800814878085,-0.483798426526,2.62671532944,-7.71367149429,-10.1278595971,0.138712388483,-1.0216501336,1077.40464109,0.00175555329623,1455.62041746,483.025717803,-1402.5408825,-132.244711303,-20454.2314644,31661.1343004,-126.721081961,1472.27296189,0.523029151608,278.736278793
0.8,-2.09356371652E7,-19490.702291,450.820122838,1.63229328721,-1524.85569934,563.511192315,563.511196793,-1.794841503,0.200463745093,9999.91738729,-179.950001133,0.00124209631466,32.168008207247176,-0.581492307019,2.62710803263,-8.67685552921,-9.78323761848,0.142739684015,-0.899422635598,1077.40471657,0.00175555434308,1455.62148941,483.025785481,-1399.61982343,-124.594749101,-20506.6253004,29158.5642087,-188.839375164,1353.26631577,0.523029166435,278.736499864
0.9,-2.09356370003E7,-19643.1622205,507.17115883,1.66603937114,-1524.33565903,563.509418965,563.509424549,-2.31484678403,0.222066322203,9999.89626969,-179.950001694,0.00139735422952,32.16800827228359,-0.668410150085,2.62776333666,-9.61207383906,-9.52284434395,0.14319945116,-0.812142306491,1077.40480048,0.00175555550684,1455.62268107,483.025860718,-1398.1146182,-72.0593042495,-20545.0264813,27311.0212394,-163.858555305,709.959033286,0.523029248271,278.73681528
1.0,-2.09356368319E7,-19795.5679817,563.521980234,1.70172082565,-1523.77306526,563.506856155,563.506863018,-2.87740307389,0.245656057823,9999.87290332,-179.950002404,0.00155261158268,32.168008344181814,-0.749963930828,2.62819733513,-10.5254679546,-9.31458326834,0.148760120813,-0.79330935522,1077.40489332,0.00175555679452,1455.62399963,483.025943966,-1397.92658836,-1.5737924757,-20573.2891849,26635.427222,-62.3077723064,-124.76169135,0.523029240325,278.737059301
1.1,-2.09356366599E7,-19947.9154651,619.872495447,1.74034080349,-1523.17010184,563.503259557,563.503267922,-3.4803255614,0.272235263306,9999.84703336,-179.950003273,0.00170786814808,32.168008423834,-0.83347551475,2.62807225677,-11.4191004442,-9.11663716354,0.16577665873,-0.846047794172,1077.40499611,0.00175555822018,1455.62545947,483.026036134,-1398.37398729,60.1657150639,-20600.3817415,27148.3310763,74.5065611849,-831.624528401,0.523029021822,278.737105953
1.2,-2.09356364838E7,-20100.2005764,676.222591468,1.78209656374,-1522.52512345,563.498448553,563.498458671,-4.1252592804,0.302003969187,9999.81834351,-179.950004313,0.00186312355054,32.168008512132154,-0.925347629737,2.62731990049,-12.2912194231,-8.89363126194,0.195963677954,-0.948977554474,1077.40511011,0.00175555980123,1455.62707843,483.026138349,-1398.5319584,95.317899079,-20636.214737,28473.0230798,194.695254189,-1205.45005033,0.523028556489,278.736919988
1.3,-2.09356363033E7,-20252.4189385,732.572140559,1.82638002334,-1521.83446255,563.492305966,563.492318094,-4.81587227159,0.334358887416,9999.78653915,-179.950005535,0.002018377413,32.16800861006766,-1.02916426358,2.62614481227,-13.1377673014,-8.62755096634,0.236174398807,-1.06871705869,1077.40523648,0.00175556155393,1455.62887315,483.026251659,-1397.61762138,98.6982191088,-20687.6536971,30048.8717495,257.034096755,-1195.69012398,0.523027898136,278.736561947
1.4,-2.09356361184E7,-20404.5657936,788.921005308,1.87207241379,-1521.09449416,563.484749206,563.48476358,-5.55579053453,0.368186136051,9999.75141502,-179.950006953,0.00217362936839,32.16800871823114,-1.14512248893,2.6249226415,-13.9544058137,-8.32086216911,0.280070311514,-1.17345134697,1077.40537604,0.00175556348957,1455.63085521,483.026376798,-1395.27281729,76.6193236149,-20756.1798602,31355.664469,245.386878064,-887.946309744,0.523027158523,278.736153166
1.5,-2.09356359289E7,-20556.6360941,845.269040169,1.91798653374,-1520.30324146,563.475692036,563.475708854,-6.34699201345,0.402301907613,9999.71288458,-179.950008581,0.00232887907692,32.16800883681257,-1.2706816571,2.62404496859,-14.7382738623,-7.99186571259,0.320808905355,-1.2429409927,1077.40552914,0.00175556561293,1455.63302948,483.026514072,-1391.65382984,42.2646155395,-20837.8721998,32072.8518986,172.011746275,-445.754317353,0.523026457869,278.735822716
1.6,-2.09356357348E7,-20708.6247115,901.616089466,1.96327395348,-1519.46110121,563.46501434,563.465033767,-7.18908077291,0.43585888369,9999.67096562,-179.950010432,0.00248412604158,32.16800896580158,-1.40195319191,2.62377645613,-15.4889195028,-7.66532301677,0.353597479574,-1.27253610815,1077.4056957,0.00175556792303,1455.63539498,483.026663418,-1387.31651011,9.85623833971,-20925.4369099,32142.5251572,69.8209841751,-40.0939594145,0.52302588001,278.735659763
1.7,-2.09356355363E7,-20860.5266703,957.961983188,2.00765017477,-1518.57063623,563.452548956,563.452571139,-8.07949431298,0.468571497179,9999.62573343,-179.95001252,0.00263936981741,32.16800910508778,-1.53522268694,2.6241779325,-16.2082180961,-7.36246249547,0.377150037801,-1.27123015836,1077.40587543,0.00175557041572,1455.63794744,483.026824569,-1382.96414659,-10.2111147652,-21011.2476202,31728.8436284,-22.2536459097,207.985921509,0.523025447348,278.735687371
1.8,-2.09356353333E7,-21012.3373244,1014.30653238,2.0513787009,-1517.63569406,563.438086121,563.438111213,-9.01438485122,0.500700796349,9999.57726326,-179.950014858,0.00279460996019,32.168009254261094,-1.66808497659,2.62511594908,-16.8994901179,-7.09423308707,0.393640093464,-1.25569851566,1077.40606802,0.00175557308685,1455.64068263,483.026997256,-1379.173284,-13.9152617891,-21090.0880164,31116.2864322,-74.2967610446,255.869748503,0.523025121032,278.735863315
1.9,-2.0935635126E7,-21164.0524298,1070.64952563,2.09505522159,-1516.6602779,563.42139028,563.42141846,-9.98974859677,0.532839722129,9999.52558527,-179.950017458,0.00294984573426,32.16800941341183,-1.79990839897,2.62634214199,-17.5662808105,-6.85935946252,0.407391889955,-1.24314734913,1077.40627336,0.00175557593477,1455.64359884,483.027181371,-1376.20626112,-3.51111089563,-21160.5994268,30590.8639544,-74.985062836,135.987990343,0.523024822687,278.736103737
2.0,-2.09356349143E7,-21315.6681085,1126.99072759,2.13930227198,-1515.64759073,563.402221275,563.402252755,-11.0023819357,0.565608731436,9999.47066629,-179.95002033,0.00310507665339,32.1680095824307,-1.93162191254,2.62760148029,-18.2112913663,-6.64726029726,0.422997912488,-1.24556278255,1077.40649157,0.0017555789613,1455.64669794,483.027377033,-1373.96808748,14.6001472541,-21225.1015733,30344.3198891,-32.8567884404,-71.4287005125,0.523024467184,278.736318256
2.1,-2.09356346981E7,-21467.18074,1183.32987941,2.18449963496,-1514.59953085,563.38035206,563.380387079,-12.0503861771,0.599386759135,9999.41242142,-179.950023484,0.00326030186144,32.16800976170864,-2.06503983298,2.62872513433,-18.8358070731,-6.44345410358,0.443643273665,-1.26694059104,1077.406723,0.00175558217112,1455.64998473,483.027584545,-1372.09884902,32.8824721972,-21288.1292097,30433.0852562,29.8014752965,-275.220530791,0.523023993206,278.736442435
2.2,-2.09356344774E7,-21618.5868267,1239.66670064,2.23064084211,-1513.51671225,563.355577817,563.355616622,-13.1331472872,0.634167748408,9999.3507466,-179.950026929,0.00341552073073,32.1680099515366,-2.2020434849,2.62967752764,-19.4397253616,-6.23541482135,0.470199134536,-1.30374563518,1077.40696806,0.00175558556997,1455.65346509,483.027804276,-1370.14445685,45.3942019955,-21354.4293815,30787.4334017,86.9362995195,-405.647829105,0.523023380846,278.736456179
2.3,-2.09356342519E7,-21769.8828856,1296.00089146,2.27734548961,-1512.3988961,563.32771552,563.327758342,-14.2509044808,0.669572577624,9999.28555782,-179.950030675,0.00357073230151,32.16801015220541,-2.34391718749,2.6305488846,-20.0220605748,-6.01656451159,0.501273015804,-1.34774513727,1077.40722708,0.00175558916247,1455.65714374,483.028036527,-1367.73206886,49.3892514132,-21427.2142567,31263.8799326,118.377089114,-432.584558108,0.523022651789,278.73638351
2.4,-2.09356340219E7,-21921.0653923,1352.33213457,2.32399760695,-1511.24560797,563.296596757,563.296643793,-15.4041328024,0.70498681381,9999.21682231,-179.950034732,0.00372593566584,32.168010363805685,-2.49102201366,2.63150496248,-20.5816633705,-5.78751933067,0.534038424309,-1.38976464847,1077.40750019,0.00175559295043,1455.66102255,483.028281414,-1364.68837698,45.525760573,-21507.2350451,31707.7106216,115.846829874,-366.765337013,0.523021854847,278.736276808
2.5,-2.09356337872E7,-22072.1307879,1408.66009614,2.36994216196,-1510.05670041,563.262058335,563.262109738,-16.5929804059,0.739756632017,9999.1445724,-179.95003911,0.0038811300639,32.168010586227794,-2.6428418231,2.63271839568,-21.1178635927,-5.55445574962,0.565427341663,-1.42293616198,1077.40778727,0.00175559693208,1455.66509969,483.028538822,-1361.06977239,36.9112814,-21592.8610641,32004.5921384,83.903845686,-247.343856373,0.523021044526,278.736193818
2.6,-2.09356335479E7,-22223.0755298,1464.98442599,2.41466304204,-1508.83268665,563.22393467,563.223990549,-17.8169346349,0.77336643161,9999.06890011,-179.950043818,0.00403631441625,32.16801081916199,-2.79830758734,2.63430857462,-21.6308289154,-5.32597497966,0.59321134,-1.4444783367,1077.40808795,0.00175560110235,1455.66936997,483.028808423,-1357.10782329,27.5379131728,-21680.9743669,32114.2651255,36.2855394651,-122.8125552,0.523020261367,278.73617676
2.7,-2.09356333043E7,-22373.8961632,1521.30475705,2.45788508904,-1507.57478112,563.182053965,563.182114401,-19.0747813902,0.805540793884,9998.98993745,-179.950048865,0.00419148786204,32.1680110622985,-2.9562353119,2.63630964038,-22.1215604049,-5.10948551992,0.616612922981,-1.4557461636,1077.4084017,0.00175560545395,1455.67382594,483.029089746,-1353.1029812,20.7799824533,-21768.2325708,32062.8743445,-10.317951386,-32.9568942547,0.52301952053,278.736240364
2.8,-2.09356330564E7,-22524.5893813,1577.62070476,2.4995781244,-1506.28469249,563.136238234,563.136303295,-20.3648120652,0.836248706024,9998.90783132,-179.950054262,0.00434664917412,32.16801131502765,-3.11571001766,2.638673177,-22.5915980574,-4.90895199717,0.636311488362,-1.46089901065,1077.40872794,0.00175560997879,1455.67845931,483.02938227,-1349.3119019,18.4016478377,-21852.1978149,31925.2639735,-42.4973488943,2.44175819616,0.523018811045,278.736371351
2.9,-2.09356328044E7,-22675.1520596,1633.93186655,2.53987889288,-1504.96428749,563.086305909,563.08637566,-21.6851598336,0.865625843391,9998.82272247,-179.950060015,0.00450179731088,32.1680115770399,-3.27630081826,2.64129871157,-23.0425923321,-4.72401558324,0.653945306445,-1.46493028918,1077.40906611,0.00175561466912,1455.68326214,483.02968549,-1345.86932006,20.3240168565,-21931.9580404,31786.3549321,-54.1571397466,-14.123595827,0.523018104119,278.736537509
3.0,-2.09356325484E7,-22825.5812536,1690.23782168,2.57897238873,-1503.61526371,563.032075439,563.032149951,-23.0341269432,0.893856250181,9998.73473464,-179.950066134,0.00465693106623,32.16801184782588,-3.43807143474,2.64407653932,-23.4759133952,-4.55104230192,0.671371637159,-1.4718376685,1077.40941572,0.00175561951813,1455.68822745,483.029998968,-1342.76563501,25.0450730555,-22008.1144113,31711.9497176,-47.3289915664,-63.4882692093,0.523017366104,278.736701639
3.1,-2.09356322886E7,-22975.8741712,1746.53813137,2.61698074213,-1502.23893875,562.973368615,562.973447957,-24.4103956997,0.921061462532,9998.64397549,-179.950072625,0.00481204935015,32.16801212727634,-3.60142511662,2.64692583059,-23.8924346347,-4.38488563661,0.689983385066,-1.48351870823,1077.40977634,0.00175562451987,1455.69334916,483.03032232,-1339.87844499,30.4453102364,-22082.2502267,31730.1429661,-30.0215965588,-119.748254542,0.52301657092,278.736834779
3.2,-2.09356320251E7,-23126.0281298,1802.83233931,2.65389662113,-1500.83620318,562.91001292,562.910097154,-25.8130755678,0.947233983563,9998.5505467,-179.950079497,0.0049671507248,32.168012414882085,-3.76686983312,2.64981570376,-24.2925232292,-4.22106864172,0.710309544418,-1.49959613747,1077.41014757,0.00175562966874,1455.69862155,483.030655183,-1337.03700758,34.622867056,-22156.1612307,31832.0511707,-12.4097756503,-160.329500561,0.523015707756,278.736924304
3.3,-2.09356317579E7,-23276.0405187,1859.11997227,2.68957587456,-1499.40762025,562.84184283,562.841931996,-27.2416034887,0.97222982694,9998.45455768,-179.950086757,0.0051222340592,32.16801271033393,-3.93479799332,2.65276512802,-24.6762089467,-4.05709794719,0.731984096945,-1.51804201538,1077.41052897,0.00175563495873,1455.70403842,483.030997167,-1334.09174527,36.4887261285,-22231.1531579,31979.2671295,-2.95242534367,-172.811141508,0.523014782236,278.736975027
3.4,-2.09356314872E7,-23425.9087745,1915.40054084,2.72378129168,-1497.95360997,562.768700321,562.768794429,-28.6955597522,0.995812090127,9998.35613751,-179.95009441,0.00527729788905,32.16801301332263,-4.1053508922,2.65582552305,-25.0434344272,-3.89297072739,0.75402860554,-1.53621804154,1077.41092003,0.00175564038271,1455.70959252,483.031347813,-1330.9637696,35.9540622069,-22307.6374336,32125.8742366,-5.80365606019,-156.920263531,0.523013811808,278.737004151
3.5,-2.09356312132E7,-23575.6303766,1971.6735402,2.75625333542,-1496.47463907,562.690434918,562.69053394,-30.1744779672,1.01772147384,9998.25544064,-179.950102465,0.0054323409556,32.1680133232389,-4.27839546139,2.65905514767,-25.3942869696,-3.73070026433,0.775294368435,-1.55190042818,1077.41132014,0.00175564593217,1455.7152751,483.03170657,-1327.6611902,33.7529996519,-22385.1088959,32233.8046394,-20.1594158446,-122.068007105,0.52301281798,278.737032932
3.6,-2.0935630936E7,-23725.2028595,2027.93845084,2.78677898947,-1494.97135187,562.606903435,562.607007309,-31.6777141099,1.03774498372,9998.15264566,-179.950110929,0.00558736163033,32.16801363967346,-4.45359808323,2.66249555215,-25.7291311668,-3.57315264777,0.794884036979,-1.56395101304,1077.41172858,0.00175565159727,1455.72107611,483.032072802,-1324.26268444,31.0206269319,-22462.4440902,32285.3964032,-41.4070224413,-82.1459409425,0.523011818627,278.737078493
3.7,-2.09356306559E7,-23874.6238329,2084.19473927,2.81523553311,-1493.44460984,562.517969434,562.51807807,-33.2044068956,1.05575964613,9998.04794818,-179.950119807,0.00574235854213,32.16801396201702,-4.63055092411,2.66615787839,-26.048620292,-3.42287544015,0.812411162126,-1.57248279272,1077.41214458,0.00175565736724,1455.7269845,483.032445812,-1320.87948876,28.8312231659,-22538.3613651,32283.8789912,-63.389532191,-49.9342923426,0.52301082299,278.737148569
3.8,-2.0935630373E7,-24023.8910018,2140.44185867,2.8415990146,-1491.8954445,562.423502346,562.423615638,-34.7535248932,1.0717410296,9997.94155106,-179.950129105,0.00589733025461,32.16801428956034,-4.80889800825,2.6700219115,-26.3535968957,-3.28120907257,0.828038140656,-1.57857078577,1077.41256734,0.00175566323088,1455.73298883,483.032824878,-1317.61310243,27.8496256508,-22611.8536331,32247.8425991,-80.7819649213,-33.0264603631,0.523009830551,278.737240416
3.9,-2.09356300876E7,-24173.0021789,2196.67924941,2.86592082757,-1490.3249567,562.323376362,562.323494188,-36.3239672597,1.08573993209,9997.83365555,-179.950138831,0.00605227512416,32.16801462169429,-4.98841876778,2.67404596642,-26.6449462851,-3.14805574364,0.842319263892,-1.58369861468,1077.41299605,0.00175566917713,1455.73907774,483.033209282,-1314.52387849,28.1887860283,-22682.4502866,32204.3076173,-90.7569213825,-32.3515146774,0.523008833466,278.7373435
4.0,-2.09356297999E7,-24321.9552857,2252.90633946,2.88828634959,-1488.73420681,562.217469338,562.217591573,-37.9146735824,1.09784114161,9997.72445575,-179.950148989,0.00620719162052,32.16801495780983,-5.16904977402,2.67818218612,-26.923456567,-3.02206577359,0.855939056066,-1.58918366938,1077.41342994,0.00175567519526,1455.74524027,483.033598333,-1311.61957288,29.4926635479,-22750.2484487,32174.2396619,-93.4769076148,-43.2371726171,0.523007821069,278.737444352
4.1,-2.093562951E7,-24470.7483442,2309.12254473,2.9087728776,-1487.12413499,562.105662125,562.105788635,-39.5247036648,1.10812146829,9997.61413735,-179.950159585,0.00636207819605,32.16801529739798,-5.35084980149,2.68239104735,-27.1897365582,-2.90140432011,0.869454983229,-1.59577414812,1077.41386828,0.00175568127507,1455.75146595,483.033991369,-1308.86365034,31.1491738529,-22815.7477752,32169.6423766,-91.4957958847,-58.1496110156,0.523006784516,278.737531542
4.2,-2.09356292182E7,-24619.379463,2365.32726938,2.92742141044,-1485.49553243,561.987838584,561.987969226,-41.1532663195,1.1166215686,9997.50288002,-179.950170625,0.00651693303077,32.16801563994984,-5.53393149001,2.68665019775,-27.4442057443,-2.78438466725,0.883132412678,-1.60352342583,1077.41431035,0.00175568740663,1455.75774464,483.03438775,-1306.19754108,32.5500268761,-22879.5785182,32191.1874505,-88.4196146504,-69.8195909139,0.523005719987,278.737599054
4.3,-2.09356289246E7,-24767.8468231,2421.51990611,2.94422907805,-1483.8490634,561.863886381,561.864020996,-42.7996973415,1.12333834848,9997.39086161,-179.950182112,0.00667175466402,32.16801598475657,-5.7183893203,2.69095570781,-27.6871496452,-2.66993928969,0.896910871766,-1.61192491983,1077.41475544,0.00175569358016,1455.7640663,483.034786843,-1303.56602552,33.302639556,-22942.2389852,32226.905424,-87.4691383222,-73.6505906188,0.523004629585,278.737647208
4.4,-2.09356286294E7,-24916.1486677,2477.69983665,2.95916083694,-1482.18532067,561.733698335,561.733836746,-44.4634040465,1.12823660507,9997.27826202,-179.950194053,0.00682654126321,32.168016331309325,-5.90424900017,2.69531671651,-27.9188050252,-2.55795601352,0.91048940771,-1.62020548317,1077.41520284,0.00175569978573,1455.77042079,483.035188006,-1300.93642324,33.3098316322,-23003.9312685,32264.1949168,-90.4572029578,-68.7266048478,0.523003520064,278.73768126
4.5,-2.09356283328E7,-25064.2832987,2533.86643232,2.97217272221,-1480.50488872,561.597173872,561.597315883,-46.1438020549,1.1312722012,9997.16526536,-179.950206451,0.00698129108517,32.1680166791993,-6.09145103757,2.69974653542,-28.1394420559,-2.44897207006,0.923478670621,-1.62765286626,1077.41565181,0.0017557060132,1455.7767977,483.035590585,-1298.30675492,32.7494151694,-23064.5297342,32290.1831932,-97.4070573636,-57.3613159938,0.523002400222,278.737708597
4.6,-2.0935628035E7,-25212.2490777,2590.01905477,2.98323627213,-1478.80839191,561.454220089,561.454365483,-47.8402671161,1.13241643267,9997.05205957,-179.950219311,0.00713600239983,32.168017027717724,-6.27986720018,2.70425400325,-28.3494154951,-2.34387453308,0.935555466707,-1.63385237236,1077.41610162,0.00175571225221,1455.78318644,483.035993908,-1295.70129492,31.9551401086,-23123.6729183,32297.8767633,-106.888973437,-43.6544810658,0.523001278084,278.737735744
4.7,-2.09356277362E7,-25360.0444321,2646.15705675,2.99235548936,-1477.09651388,561.304752033,561.304900579,-49.5521156212,1.13167296367,9996.9388339,-179.950232638,0.00729067352498,32.16801737625587,-6.46933773642,2.70883797729,-28.5491712199,-2.24348378638,0.946566037565,-1.63877470872,1077.41655151,0.00175571849234,1455.78957633,483.036397302,-1293.1580614,31.2726871823,-23180.9204969,32286.7119662,-116.773892512,-31.7310333264,0.523000158891,278.737766241
4.8,-2.09356274366E7,-25507.66786,2702.27978291,2.9995716997,-1475.36998737,561.148692118,561.148843575,-51.2786148394,1.12908269927,9996.82577538,-179.950246435,0.00744530245234,32.16801772430506,-6.65971257048,2.71348632613,-28.7392148188,-2.14819296075,0.956551733634,-1.6427150496,1077.41700073,0.00175572472327,1455.7959568,483.0368001,-1290.7136778,30.9356556843,-23235.9109042,32263.2879326,-125.097423957,-24.3174730699,0.522999044416,278.737799956
4.9,-2.09356271363E7,-25655.1179341,2758.38657044,3.0049567293,-1473.62956362,560.985968886,560.986123007,-53.0190134936,1.12471699065,9996.71306531,-179.950260707,0.00759988761703,32.1680180712567,-6.85088163656,2.71817894711,-28.9200627489,-2.05790370038,0.965702911033,-1.64613252984,1077.41744857,0.00175573093502,1455.80231763,483.037201657,-1288.39153373,31.0167971496,-23288.4639247,32233.6873361,-130.699738895,-22.1068020131,0.522997933594,278.737833797
5.0,-2.09356268356E7,-25802.3933018,2814.47674963,3.00859883586,-1471.87597585,560.816515548,560.816672085,-54.7725783218,1.11866362048,9996.60087692,-179.950275457,0.00775442692463,32.16801841660225,-7.04278624346,2.72289299683,-29.0921920464,-1.97209789205,0.974270456332,-1.64946634517,1077.41789433,0.00175573711803,1455.80864905,483.037601356,-1286.19649125,31.4252300459,-23338.6043402,32206.8802866,-133.480322258,-23.9150333881,0.522996824002,278.73786331
5.1,-2.09356265347E7,-25949.4926813,2870.54964428,3.01058735248,-1470.10991042,560.640268821,560.640427522,-56.538622882,1.11101147489,9996.48937448,-179.950290688,0.00790891862789,32.168018759833274,-7.23541127811,2.72760815173,-29.2560115104,-1.89006026135,0.982473077331,-1.65299553422,1077.41833737,0.00175574326325,1455.81494177,483.037998611,-1284.11707304,31.9787881051,-23386.5112885,32186.961372,-134.225579225,-27.4733163963,0.522995713524,278.737884461
5.2,-2.09356262336E7,-26096.4148568,2926.60457202,3.01100146859,-1468.33199423,560.45716838,560.457328994,-58.3165202259,1.1018393476,9996.37871381,-179.950306404,0.00806336078777,32.168019100541365,-7.42876477238,2.73231007077,-29.4118551624,-1.81111351628,0.990433741117,-1.65678117509,1077.41877707,0.0017557493621,1455.82118701,483.038392866,-1282.13261428,32.4807119925,-23432.4269589,32174.7506983,-134.176696986,-30.4124086569,0.522994601575,278.737894946
5.3,-2.09356259325E7,-26243.1586722,2982.64084458,3.00990597298,-1466.54279937,560.267157075,560.267319346,-60.1056982365,1.09121167672,9996.26904356,-179.950322609,0.00821775156886,32.16801943811819,-7.62285423833,2.73699121304,-29.5599997326,-1.73481814361,0.998160903872,-1.66069444645,1077.41921283,0.00175575540638,1455.82737638,483.038783593,-1280.22230513,32.7922072723,-23476.5615834,32167.1028615,-134.510126964,-31.0950307194,0.522993489575,278.737894671
5.4,-2.09356256316E7,-26389.7230266,3038.65776818,3.0073539843,-1464.74286014,560.070181696,560.070345366,-61.9056225816,1.07918125796,9996.16050657,-179.950339304,0.00837208903222,32.16801977225547,-7.81766849934,2.74164926118,-29.7006953977,-1.66096518657,1.00557307698,-1.66450510255,1077.41964408,0.00175576138821,1455.83350181,483.039170283,-1278.37238315,32.8671786472,-23519.0298302,32159.3658212,-135.94697949,-29.0220078263,0.522992380617,278.737885389
5.5,-2.09356253311E7,-26536.1068714,3094.65464395,3.00339419744,-1462.93269436,559.866193959,559.866358763,-63.715775427,1.06579646373,9996.05324072,-179.950356494,0.00852637130568,32.16802010244498,-8.01317017677,2.74628411256,-29.8341932821,-1.58970976042,1.01254997384,-1.66798321498,1077.42007029,0.00175576730001,1455.83955552,483.039552443,-1276.57939209,32.7495687349,-23559.8342295,32147.6512866,-138.598280216,-24.7856463507,0.522991278615,278.737869783
5.6,-2.0935625031E7,-26682.3092072,3150.63076815,2.99825468339,-1461.1125674,559.6551206,559.655286298,-65.5358911326,1.05128535033,9995.94737695,-179.95037418,0.0086805964385,32.16802042837851,-8.20936863181,2.75085795438,-29.955061575,-0.973389532136,1.01909262339,-1.67870959203,1077.42049092,0.00175577313454,1455.84553012,483.039929609,-1275.53495774,51.7059357984,-23595.4563723,19466.9430923,-87.216838639,34.4785265179,0.522990186677,278.737849752
5.7,-2.09356247314E7,-26828.3290715,3206.58542993,2.99183766388,-1459.2835303,559.436966569,559.437132897,-67.3649188357,1.03554909722,9995.84301484,-179.950392366,0.00883476235995,32.1680207496479,-8.40659832192,2.75538032107,-29.9972257764,0.139434989939,1.0262509697,-1.68246231683,1077.42090559,0.00175577888633,1455.85142,483.040301424,-1274.14948925,66.1010924972,-23633.1418769,274.372656491,-62.7070820921,290.972615778,0.522989089837,278.737808266
5.8,-2.09356244328E7,-26974.1657335,3262.51794285,2.98085162438,-1457.44898466,559.212237091,559.212403257,-69.1994612099,1.01529199386,9995.74043019,-179.950411053,0.00898886731026,32.16802106544542,-8.60238006234,2.76089611594,-29.9957247711,0.092318714651,1.01956026829,-1.64844472524,1077.42131319,0.00175578454017,1455.85720957,483.040666907,-1269.66089819,54.1331487042,-23679.7701176,24.1234291789,-291.254679823,415.22215687,0.522988149022,278.737913884
5.9,-2.09356241354E7,-27119.8187792,3318.42767184,2.96575994359,-1455.6118497,558.981336253,558.981501504,-71.0365985831,0.990973739022,9995.64009581,-179.950430243,0.00914290942057,32.16802137436392,-8.79424029959,2.76694480396,-29.9958855197,0.0955752278947,0.99928365727,-1.61159060607,1077.42171186,0.00175579007,1455.86287217,483.041024373,-1267.82822684,55.382849254,-23700.0439018,1.49510160794,-342.622760555,377.297601628,0.522987454098,278.738257291
6.0,-2.09356238397E7,-27265.2881288,3374.31401091,2.94862565007,-1453.77550986,558.744462074,558.744625955,-72.8729439199,0.96465299491,9995.54230608,-179.950449935,0.00929688717246,32.168021675396915,-8.9821687168,2.77283632288,-29.9958435356,0.0953562945162,0.979044879308,-1.58367733482,1077.42210041,0.0017557954596,1455.86839117,483.041372773,-1267.7468122,66.4131589531,-23702.7596575,-1.48596096413,-296.454200271,228.6781784,0.522986815943,278.738633713
6.1,-2.09356235457E7,-27410.5739726,3430.17636879,2.93065918891,-1451.94194167,558.501724669,558.501886911,-74.7065191691,0.937537586348,9995.44719557,-179.950470129,0.00945079877309,32.16802196813846,-9.16746453712,2.77823788538,-29.995701349,0.0953482048356,0.965179378774,-1.57145505391,1077.42247831,0.00175580070155,1455.87375898,483.041711627,-1268.66375959,81.3074812844,-23696.2753521,-5.21650724455,-203.661420722,44.3411217243,0.522986094805,278.738892729
6.2,-2.09356232536E7,-27555.6766267,3486.01416136,2.91248476332,-1450.11169204,558.253153279,558.25331371,-76.5367766246,0.91025092484,9995.35480773,-179.950490825,0.00960464268989,32.16802225258289,-9.35192866037,2.78302207964,-29.9955302539,0.095467018779,0.960094095228,-1.57494862871,1077.4228454,0.00175580579346,1455.87897315,483.042040781,-1269.88046851,94.3529920846,-23688.3570475,-7.3344489064,-104.381071954,-108.027124658,0.522985231672,278.738970963
6.3,-2.09356229632E7,-27700.596399,3541.82680307,2.89418614891,-1448.28412142,557.998692309,557.99885077,-78.3643557119,0.882877564671,9995.26515146,-179.950512022,0.00975841735027,32.16802252862451,-9.53716099129,2.78725184828,-29.9953930105,0.0956827128172,0.962805473224,-1.5891593473,1077.42320164,0.00175581073482,1455.88403316,483.042360204,-1270.79370371,101.839911415,-23684.8583277,-7.59102542363,-31.2060335755,-187.671813098,0.522984235317,278.73887767
6.4,-2.09356226747E7,-27845.3334956,3597.61369987,2.87547391441,-1446.45794284,557.738235911,557.738392194,-80.1905438036,0.855129749476,9995.1782478,-179.950533718,0.00991212112535,32.168022796157445,-9.72409869663,2.79111249554,-29.9953260329,0.0959387844491,0.970060497837,-1.60690139788,1077.42354694,0.00175581552448,1455.88893784,483.042669819,-1271.06599608,102.749775846,-23688.3273736,-6.37073337859,-0.402950098931,-187.128882307,0.52298316136,278.738671911
6.5,-2.09356223882E7,-27989.8879876,3653.37424662,2.85593027753,-1444.63183371,557.471675103,557.471828922,-82.0166640481,0.826591467958,9995.094155,-179.950555914,0.0100657522154,32.16802305507552,-9.91287946393,2.79482018945,-29.9953342293,0.096176575781,0.977935621387,-1.62163640867,1077.42388106,0.00175582015924,1455.89368389,483.04296942,-1270.66845272,98.4159044689,-23698.0234612,-4.43300307263,-10.6080803323,-126.377658911,0.522982083169,278.738431263
6.6,-2.09356221036E7,-28134.2598326,3709.10782883,2.83523156762,-1442.80490596,557.198937716,557.199088721,-83.8436049876,0.796940272624,9995.01296982,-179.95057861,0.0102193091077,32.16802330497236,-10.1029939274,2.79854347535,-29.9953972339,0.0963551769485,0.983258837257,-1.62940089151,1077.42420364,0.00175582463375,1455.89826585,483.043258662,-1269.81260206,91.5169305303,-23710.9907254,-2.5773449279,-47.6318993438,-39.6852713391,0.522981064463,278.738222604
6.7,-2.09356218212E7,-28278.4489311,3764.81382761,2.81328240766,-1440.97691911,556.920009228,556.920157045,-85.6716072475,0.766081156493,9994.93481049,-179.950601806,0.0103727899616,32.16802354564143,-10.2936072058,2.80235968654,-29.9954821512,0.0964604220686,0.984440049675,-1.62943589556,1077.42451419,0.0017558289415,1455.90267705,483.043537124,-1268.82237156,84.8893275637,-23723.5731673,-1.37923660156,-92.1647334535,38.8579857561,0.52298014186,278.738083688
6.8,-2.0935621541E7,-28422.4551909,3820.49162552,2.79024066652,-1439.14823207,556.634931112,556.635075385,-87.5003117466,0.734171539849,9994.85979187,-179.950625503,0.010526192988,32.16802377657624,-10.4839051425,2.8062515026,-29.9955571537,0.0965029942389,0.981591256603,-1.6236382981,1077.42481227,0.00175583307616,1455.906911,483.043804396,-1268.00178002,80.5826476759,-23732.7786473,-1.06192903923,-127.210997534,86.1787827204,0.522979320366,278.738018612
6.9,-2.09356212631E7,-28566.2785766,3876.1406113,2.76645222549,-1437.31957355,556.343781366,556.343921796,-89.3289893292,0.701556325651,9994.78800288,-179.9506497,0.0106795167857,32.168023997670375,-10.6733486086,2.8101348346,-29.9956013918,0.096509152725,0.976073570041,-1.61529947522,1077.42509751,0.00175583703282,1455.91096269,483.044060162,-1267.54161781,79.3992517038,-23737.0940471,-1.51174179304,-142.952383741,94.8708510307,0.522978579966,278.73800508
7.0,-2.09356209877E7,-28709.9191319,3931.76018219,2.74233868329,-1435.49174937,556.04664695,556.046783309,-91.1568336054,0.668656004602,9994.71949312,-179.950674397,0.0108327595171,32.16802420861762,-10.8617773407,2.81390139515,-29.9956089536,0.0965088203827,0.969756956363,-1.60770984805,1077.42536972,0.00175584080876,1455.91482931,483.044304245,-1267.48537316,80.9459925227,-23736.6263885,-2.3974058454,-138.119222722,71.6941765906,0.522977888457,278.73800823
7.1,-2.09356207147E7,-28853.3769742,3987.34974347,2.71828554165,-1433.66539579,555.743598709,555.743730844,-92.9832078005,0.63585517716,9994.65427116,-179.950699594,0.0109859195465,32.1680244094119,-11.0493672745,2.81745872234,-29.9955870695,0.0965252926173,0.964299923172,-1.60310817049,1077.42562887,0.00175584440349,1455.91851037,483.044536614,-1267.7506626,84.0549853952,-23732.691084,-3.33000078066,-118.293521628,31.9183100752,0.522977214958,278.73799505
7.2,-2.0935620444E7,-28996.6522699,4042.90870604,2.69456655547,-1431.84084625,555.434676487,555.434804297,-94.807778094,0.603427100899,9994.59231224,-179.950725291,0.0111389952376,32.168024600147234,-11.2364911552,2.82075548086,-29.9955505537,0.096569368913,0.96067440199,-1.60222619244,1077.42587505,0.00175584781838,1455.92200728,483.044757358,-1268.18562678,87.3479193343,-23727.1151403,-4.00194554914,-92.4397907718,-7.65675240827,0.522976539635,278.737944666
7.3,-2.09356201757E7,-29139.7452032,4098.4364831,2.67131956541,-1430.01812614,555.119887225,555.12001064,-96.6305188927,0.571509543339,9994.53357112,-179.950751487,0.0112919850111,32.168024781017714,-11.4235508276,2.82378757736,-29.9955151932,0.0966388050111,0.959027082618,-1.60442715036,1077.42610845,0.00175585105593,1455.92532259,483.044966638,-1268.63358573,89.72819946,-23721.5484988,-4.26531445636,-69.2127430257,-34.4445846672,0.522975857473,278.737852222
7.4,-2.09356199098E7,-29282.6559486,4153.93248724,2.64856890795,-1428.19704561,554.799214059,554.799333019,-98.4516199985,0.540127073367,9994.47799475,-179.950778182,0.0114448873162,32.16802495211742,-11.6108417572,2.82658785943,-29.9954924619,0.0967221120506,0.958838462749,-1.60824713035,1077.42632927,0.00175585411906,1455.92845928,483.045164642,-1268.98330324,90.6615645228,-23717.0012993,-4.13942290118,-54.2739661873,-43.0510855179,0.522975176339,278.737726675
7.5,-2.0935619646E7,-29425.3846567,4209.39612879,2.626275819,-1426.37733654,554.472631234,554.472745673,-100.271349556,0.509241280256,9994.42553129,-179.950805375,0.0115977003921,32.168025113740356,-11.7984850851,2.82920673353,-29.9954869227,0.0968044921423,0.959255194259,-1.61206685039,1077.42653773,0.00175585701062,1455.93142029,483.045351556,-1269.19232766,90.2078197434,-23713.6992394,-3.76306577652,-49.2293702346,-35.2203391339,0.522974511345,278.737584697
7.6,-2.09356193845E7,-29567.9314529,4264.8268157,2.60439391371,-1424.55877912,554.140118797,554.140228645,-102.089927442,0.478806070759,9994.37613355,-179.950833066,0.0117504226567,32.16802526578049,-11.986432223,2.83169212068,-29.9954964792,0.0968734603886,0.959446794619,-1.61466712442,1077.426734,0.00175585973321,1455.93420828,483.045527547,-1269.28265465,88.8550281356,-23711.2243847,-3.32051802612,-52.1229760463,-17.5146785888,0.522973878251,278.737443597
7.7,-2.09356191251E7,-29710.2964465,4320.22395462,2.58291086629,-1422.74128012,553.801672372,553.801777562,-103.907446886,0.448809234921,9994.32975748,-179.950861254,0.0119030525434,32.16802540863176,-12.1745225993,2.83407530156,-29.995514693,0.0969223716519,0.958866809926,-1.61551938935,1077.42691827,0.00175586228927,1455.93682573,483.045692773,-1269.31693039,87.2578900207,-23708.8259478,-2.97143283266,-58.9447844256,1.97062526575,0.522973288256,278.737315787
7.8,-2.09356188679E7,-29852.4797447,4375.58695271,2.56186648501,-1420.92489001,553.457305821,553.457406295,-105.723857354,0.419290491925,9994.28635767,-179.950889939,0.0120555883667,32.16802554228809,-12.3625629809,2.83636570233,-29.9955339144,0.096951217555,0.957358641944,-1.61478395981,1077.42709071,0.00175586468128,1455.9392752,483.045847396,-1269.36756452,85.9875090575,-23705.759974,-2.80601629593,-65.4233349073,16.5709531293,0.5229727455,278.737206173
7.9,-2.09356186127E7,-29994.4814658,4430.91521927,2.54134733327,-1419.10976855,553.10704738,553.107143104,-107.538998939,0.390336154327,9994.24588236,-179.950919122,0.0122080284197,32.16802566694346,-12.5503977093,2.838554067,-29.9955480272,0.0969650968655,0.955110582454,-1.61308872613,1077.42725153,0.00175586691212,1455.94155962,483.045991599,-1269.49038462,85.3696424353,-23701.5422183,-2.83334247974,-68.4588815247,22.8274739797,0.52297224741,278.737112569
8.0,-2.09356183596E7,-30136.3017467,4486.20816684,2.52146551369,-1417.29612275,552.750931858,552.751022827,-109.352664461,0.362057996208,9994.2082696,-179.950948801,0.0123603712377,32.16802578279185,-12.7379496545,2.84062092001,-29.9955540261,0.09697142361,0.952511745531,-1.61121316678,1077.42740098,0.00175586898518,1455.94368248,483.046125604,-1269.71015707,85.441245799,-23696.0547614,-2.99854311947,-66.8258865917,20.8002710142,0.522971787069,278.737028275
8.1,-2.09356181084E7,-30277.940745,4541.46521141,2.50233238553,-1415.48414382,552.388992233,552.389078471,-111.16466253,0.334567066592,9994.17344609,-179.950978976,0.0125126151056,32.16802589002732,-12.9252260345,2.84254630177,-29.99555221,0.0969770607817,0.949979243881,-1.60980196824,1077.42753935,0.00175587090452,1455.94564791,483.046249671,-1270.01960252,86.0099836775,-23689.5087258,-3.21615079344,-61.1061403808,13.1802594075,0.522971356369,278.736945438
8.2,-2.09356178591E7,-30419.3986347,4596.6857719,2.48403697209,-1413.67396362,552.021253474,552.02133503,-112.974861132,0.30795215851,9994.14132841,-179.951009647,0.0126647584598,32.16802598894399,-13.1122959072,2.84431734036,-29.9955452717,0.0969863175354,0.947819006542,-1.60919241091,1077.42766696,0.00175587267472,1455.94746064,483.046364098,-1270.38895249,86.7722740343,-23682.310217,-3.40500959662,-53.0586863072,3.78009109024,0.522970948735,278.736857951
8.3,-2.09356176116E7,-30560.6755989,4651.86926921,2.46663489243,-1411.86563973,551.647730127,551.647807072,-114.783202584,0.282268768,9994.11182591,-179.951040813,0.0128167996489,32.16802607983596,-13.2992535156,2.84593176569,-29.9955368474,0.097000235678,0.946156349745,-1.60938256187,1077.42778418,0.00175587430078,1455.94912576,483.046469208,-1270.7803325,87.4377106405,-23674.8964999,-3.5131475146,-44.7714504047,-3.96054932449,0.522970560672,278.736763069
8.4,-2.09356173658E7,-30701.7718236,4707.01512521,2.45014885428,-1410.05916687,551.268427637,551.268500052,-116.589692101,0.257539569986,9994.08484406,-179.951072474,0.0129687372518,32.16802616299739,-13.4861826789,2.84739723792,-29.9955301234,0.0970171009067,0.944941274712,-1.61011565937,1077.42789139,0.00175587578792,1455.95064862,483.046565337,-1271.16124453,87.8185506657,-23667.6017984,-3.52714388396,-37.9147890151,-7.98136835374,0.522970191929,278.736661545
8.5,-2.09356171215E7,-30842.687492,4762.12276202,2.43457779603,-1408.25450459,550.883346187,550.883414162,-118.394370122,0.233763527568,9994.06028733,-179.951104628,0.013120569417,32.168026238622396,-13.6731333389,2.84872772408,-29.9955269305,0.0970337136787,0.94400833524,-1.61102504119,1077.42798896,0.00175587714139,1455.9520346,483.046652827,-1271.51304497,87.8643161386,-23660.5883554,-3.46692324269,-33.3119493702,-7.91877787644,0.522969844565,278.736556604
8.6,-2.09356168788E7,-30983.4227828,4817.19160172,2.41990971782,-1406.45160833,550.492485278,550.492548909,-120.197281179,0.210928669191,9994.038061,-179.951137277,0.0132722947158,32.16802630710511,-13.8601147463,2.84993880786,-29.995527496,0.0970468343948,0.943158491473,-1.61177837875,1077.42807727,0.00175587836642,1455.95328906,483.046732013,-1271.83288362,87.644013507,-23653.8490125,-3.37105824681,-30.8903014969,-4.80298484086,0.522969521491,278.736452377
8.7,-2.09356166375E7,-31123.9778712,4872.22106644,2.4061332932,-1404.6504533,550.095847417,550.095906801,-121.998450063,0.18902366972,9994.01807154,-179.951170418,0.013423911555,32.16802636873969,-14.0471033462,2.85104367724,-29.9955307684,0.0970542901229,0.942231380021,-1.61217532666,1077.4281567,0.00175587946816,1455.95441727,483.046803231,-1272.13023161,87.2945861548,-23647.2621227,-3.27990502835,-29.9244253759,-0.384783157472,0.522969225094,278.736352416
8.8,-2.09356163976E7,-31264.3529312,4927.21057881,2.39324495018,-1402.85104524,549.693439897,549.693495142,-123.797871025,0.168044912339,9994.00022623,-179.951204053,0.013575418357,32.16802642372023,-14.2340592128,2.85205090285,-29.9955350707,0.0970554677726,0.941147329263,-1.61217890798,1077.4282276,0.00175588045173,1455.95542446,483.046866809,-1272.42030401,86.9603999821,-23640.6690977,-3.2222310619,-29.4322736082,3.6015246842,0.52296895635,278.736258763
8.9,-2.09356161588E7,-31404.5481391,4982.15956243,2.38125036454,-1401.05341797,549.285274528,549.285325749,-125.595510188,0.147997986045,9993.98443226,-179.951238179,0.013726813376,32.1680264724409,-14.4209436672,2.8529642634,-29.9955387922,0.0970511867889,0.939913080459,-1.61188697559,1077.42829036,0.00175588132224,1455.95631588,483.046923079,-1272.71732314,86.7453024932,-23633.9437879,-3.20894973125,-28.5538033292,5.9879277553,0.522968714598,278.73617172
9.0,-2.09356159213E7,-31544.5636754,5037.06744222,2.37016137256,-1399.25762196,548.871365828,548.87141315,-127.391317056,0.128894609885,9993.97059589,-179.951272797,0.0138780952264,32.16802651509584,-14.6077321555,2.85378416123,-29.9955408879,0.0970431397251,0.938598475798,-1.61146766105,1077.42834534,0.00175588208485,1455.95709681,483.046972374,-1273.02982962,86.6894607525,-23627.0335292,-3.23398547714,-26.7941671393,6.40589056236,0.522968497894,278.736090223
9.1,-2.09356156848E7,-31684.399726,5091.93364459,2.35999050177,-1397.46370963,548.451728599,548.451772157,-129.185239157,0.110747191516,9993.95862209,-179.951307907,0.0140292622893,32.16802655197925,-14.7944194438,2.85450977976,-29.9955410737,0.0970331897708,0.937298683401,-1.61108831907,1077.42839291,0.0017558827448,1455.95777261,483.047015034,-1273.35893835,86.7722569673,-23619.9662415,-3.28047734548,-24.0946225445,5.20662655054,0.522968303669,278.736012563
9.2,-2.09356154493E7,-31824.0564813,5146.75759738,2.3507455386,-1395.67172314,548.026375797,548.026415737,-130.977234302,0.09356341178,9993.94841485,-179.951343507,0.0141803129455,32.16802658348531,-14.9810173614,2.85514110132,-29.9955397307,0.097022781035,0.936097538265,-1.61086226701,1077.42843347,0.00175588330738,1455.95834871,483.0470514,-1273.6994573,86.9338818165,-23612.8292112,-3.32879644638,-20.7440748295,3.17118838767,0.522968129428,278.735937118
9.3,-2.09356152146E7,-31963.5341354,5201.53872953,2.34242595295,-1393.88168785,547.595317338,547.595353813,-132.767277092,0.0773426602541,9993.93987777,-179.951379597,0.0143312455386,32.16802660990823,-15.1675476511,2.85568017099,-29.9955376203,0.0970126282236,0.935043545369,-1.61082593525,1077.42846739,0.00175588377792,1455.95883055,483.047081815,-1274.0427787,87.1041121256,-23605.7335294,-3.36352825214,-17.2008342291,1.15487041797,0.522967973248,278.735862879
9.4,-2.09356149807E7,-32102.8328839,5256.27647085,2.33502193772,-1392.09361232,547.158559997,547.158593166,-134.555358972,0.0620750738658,9993.93291494,-179.951416177,0.0144820585631,32.168026631342244,-15.3540334167,2.85613138433,-29.9955355482,0.0970027089422,0.934143011776,-1.61094621603,1077.42849505,0.00175588416168,1455.95922353,483.047106622,-1274.38017212,87.2273077854,-23598.7791189,-3.37733495497,-13.9043797218,-0.20428321822,0.522967833965,278.735789641
9.5,-2.09356147476E7,-32241.9529229,5310.97025169,2.3285158076,-1390.30749311,546.716108226,546.716138248,-136.341483367,0.0477429295402,9993.92743189,-179.951453246,0.0146327505698,32.168026648281554,-15.5404922403,2.85650094237,-29.9955340973,0.0969924992788,0.933368313168,-1.61114820593,1077.42851684,0.00175588446389,1455.959533,483.047126157,-1274.70530946,87.2765784583,-23592.0315023,-3.37133802768,-11.1411798427,-0.635599133392,0.522967711076,278.73571789
9.6,-2.0935614515E7,-32380.8944473,5365.61950277,2.3228847989,-1388.52332189,546.267965403,546.267992442,-138.125658627,0.0343234371551,9993.92333619,-179.951490804,0.0147833197645,32.16802666102041,-15.7269327551,2.85679585013,-29.9955334975,0.0969813043818,0.932674872672,-1.61134944543,1077.42853311,0.00175588468963,1455.95976416,483.047140749,-1275.01545704,87.255270142,-23585.5145629,-3.35263462893,-8.98985671698,-0.231495661589,0.522967604451,278.735648485
9.7,-2.0935614283E7,-32519.6576518,5420.22365517,2.318104113,-1386.74109189,545.814135045,545.814159265,-139.907891535,0.0217917649615,9993.92053781,-179.951528849,0.0149337648251,32.16802666975305,-15.9133549106,2.85702288642,-29.995533641,0.0969685650764,0.932019363517,-1.61148811615,1077.42854423,0.00175588484386,1455.9599221,483.047150719,-1275.31122137,87.1884284021,-23579.2180237,-3.33057081071,-7.34851580978,0.67169848836,0.522967513998,278.735582301
9.8,-2.09356140514E7,-32658.2427303,5474.78214033,2.31414923309,-1384.96080194,545.354621588,545.354643152,-141.688183274,0.0101233582275,9993.91894922,-179.951567382,0.0150840840133,32.168026674673705,-16.0997529323,2.85718787675,-29.9955342007,0.0969540419523,0.931372936497,-1.61153768266,1077.42855054,0.00175588493142,1455.96001177,483.047156378,-1275.59534768,87.1094398543,-23573.1132931,-3.31322895119,-6.01026575065,1.66138901086,0.522967439402,278.735519949
9.9,-2.09356138201E7,-32796.649877,5529.29439022,2.31099702713,-1383.18245742,544.889430596,544.889449669,-143.46652848,-7.04965546162E-4,9993.91848525,-179.951606402,0.0152342758003,32.16802667617663,-16.2861193639,2.85729542589,-29.9955347898,0.0969378512908,0.93072654394,-1.61150665039,1077.42855239,0.00175588495699,1455.96003795,483.047158031,-1275.87112305,87.0473086791,-23567.1709355,-3.30511156705,-4.75607579082,2.3993172717,0.522967380003,278.735461644
10.0,-2.09356135891E7,-32934.8792869,5583.75983741,2.30862564709,-1381.40606859,544.418568454,544.418585202,-145.242916902,-0.0107151127299,9993.919063,-179.951645909,0.0153843386287,32.16802667445608,-16.4724486309,2.85734907605,-29.9955351015,0.0969203745347,0.93008858291,-1.61142719254,1077.42855009,0.00175588492515,1455.96000534,483.047155973,-1276.14104323,87.0184751847,-23561.3735168,-3.30664861405,-3.42687246421,2.71122952615,0.522967334817,278.735407234
10.1,-2.09356133584E7,-33072.9311563,5638.1779151,2.30701361631,-1379.63164757,543.942041776,543.942056365,-147.017336431,-0.0199286218204,9993.92060173,-179.951685901,0.0155342709584,32.16802666980632,-16.6587391053,2.85735173428,-29.9955349875,0.096902105344,0.929477524291,-1.61133902704,1077.42854398,0.00175588484034,1455.9599185,483.047150491,-1276.40607452,87.0246671813,-23555.7210445,-3.31502584911,-1.95921230401,2.60202474785,0.522967302659,278.735356329
10.2,-2.09356131277E7,-33210.8056824,5692.54805716,2.30613865539,-1377.85920526,543.45985677,543.459869366,-148.789776185,-0.0283678320199,9993.9230229,-179.951726379,0.015684071204,32.168026662521626,-16.8449933794,2.85730616259,-29.9955344676,0.0968834946136,0.928913111604,-1.61127486567,1077.42853436,0.0017558847069,1455.95978185,483.047141865,-1276.66560401,87.0559809105,-23550.229078,-3.32590664587,-0.38171858227,2.20994528894,0.52296728231,278.735308476
10.3,-2.09356128971E7,-33348.5030636,5746.86969803,2.30597674339,-1376.08874925,542.9720188,542.972029569,-150.56022859,-0.0360568199927,9993.92625024,-179.951767341,0.0158337378919,32.16802665259629,-17.031217104,2.85721535796,-29.9955336821,0.0968648476846,0.928409321252,-1.61125169436,1077.42852153,0.00175588452902,1455.95959969,483.047130367,-1276.91793957,87.0969159136,-23544.9218739,-3.3351858791,1.21823098995,1.7294946634,0.52296727265,278.735263306
10.4,-2.09356126665E7,-33486.0234986,5801.14227264,2.30650170569,-1374.32028317,542.478532228,542.478541334,-152.328690039,-0.0430218079968,9993.93021003,-179.951808788,0.0159832693648,32.168026640524594,-17.2174171142,2.85708272495,-29.9955328184,0.096846288926,0.927970859147,-1.61126922923,1077.4285058,0.00175588431077,1455.9593762,483.047116259,-1277.16104017,87.1327071554,-23539.8241029,-3.34027095016,2.73771217433,1.33542273061,0.522967272743,278.735220619
10.5,-2.09356124358E7,-33623.3671866,5855.36521632,2.30768538423,-1372.55380736,541.979400546,541.979408152,-154.095160222,-0.0492909967784,9993.93483128,-179.951850718,0.016132664017,32.16802662640084,-17.4035996173,2.85691203675,-29.9955320399,0.0968277953377,0.927593494479,-1.61131426962,1077.42848744,0.00175588405606,1455.95911538,483.047099795,-1277.39316724,87.153858493,-23534.954273,-3.34050100834,4.09369143836,1.13179243513,0.522967281842,278.735180385
10.6,-2.09356122049E7,-33760.5343265,5909.5379647,2.30949823559,-1370.78932032,541.47462669,541.474632954,-155.859640654,-0.0548939713707,9993.94004586,-179.951893132,0.0162819204535,32.16802661041934,-17.5897690046,2.85670724679,-29.9955314408,0.0968092625024,0.927267130464,-1.61136810132,1077.42846672,0.00175588376865,1455.95882106,483.047081216,-1277.61335848,87.1578741365,-23530.32107,-3.33691726018,5.2484905928,1.136199406,0.522967299341,278.735142694
10.7,-2.09356119739E7,-33897.525117,5963.6599537,2.31191010592,-1369.02682039,540.964213398,540.964218476,-157.622133042,-0.0598609239086,9993.94578869,-179.951936028,0.0164310369753,32.16802659287439,-17.7759275133,2.85647224823,-29.9955310333,0.0967905831486,0.926979994095,-1.61141383265,1077.4284439,0.00175588345213,1455.95849694,483.047060756,-1277.82147822,87.1483267823,-23525.9238133,-3.33148705856,6.20870628009,1.29550405495,0.522967324705,278.735107679
10.8,-2.09356117425E7,-34034.3397569,6017.73061952,2.31489093272,-1367.26630696,540.448163498,540.448167542,-159.382638031,-0.0642219590609,9993.95199766,-179.951979407,0.0165800121099,32.16802657386034,-17.9620756343,2.85621066977,-29.9955307647,0.0967717018086,0.926722315498,-1.61144133679,1077.42841923,0.00175588310991,1455.9581465,483.047038635,-1278.01806255,87.1322180146,-23521.755198,-3.32627301429,7.01485004072,1.5202683891,0.522967357394,278.735075435
10.9,-2.09356115109E7,-34170.9784448,6071.74939865,2.31841120432,-1365.50778105,539.926480059,539.926483217,-161.141154611,-0.0680066323503,9993.95861367,-179.952023266,0.0167288442741,32.16802655357148,-18.1482129529,2.8559257625,-29.9955305509,0.0967526406156,0.926488437476,-1.61144881335,1077.42839294,0.00175588274526,1455.95777309,483.047015064,-1278.20397391,87.1168954623,-23517.8053361,-3.32273090895,7.72058123015,1.72228136759,0.522967396824,278.73504598
11.0,-2.09356112788E7,-34307.4413796,6125.71572789,2.32244213022,-1363.75124531,539.399166378,539.399168794,-162.897680191,-0.0712437821843,9993.9655805,-179.952067607,0.016877532029,32.168026532202155,-18.3343390455,2.85562039361,-29.9955303113,0.0967334911254,0.92627712719,-1.61144130517,1077.42836526,0.00175588236128,1455.95737988,483.046990243,-1278.38004301,87.1076208895,-23514.0654229,-3.32140464441,8.37246971107,1.84242518997,0.522967442356,278.735019238
11.1,-2.09356110464E7,-34443.7287604,6179.62904439,2.32695556491,-1361.99670339,538.866225871,538.866227684,-164.652211137,-0.0739616001805,9993.97284485,-179.952112429,0.0170260735456,32.16802650994672,-18.5204541324,2.85529711795,-29.9955299944,0.0967143837833,0.926090330165,-1.61142739608,1077.4283364,0.00175588196089,1455.95696988,483.046964362,-1278.54683834,87.1064051146,-23510.5297906,-3.32199957723,8.99843567947,1.86236825905,0.522967493312,278.734995062
11.2,-2.09356108134E7,-34579.840787,6233.48878565,2.33192381301,-1360.24415931,538.327661911,538.327663258,-166.40474346,-0.0761878347633,9993.98035617,-179.95215773,0.017174467658,32.16802648689949,-18.7065593385,2.8549582905,-29.9955295871,0.0966954533346,0.925931299006,-1.61141559343,1077.42830655,0.0017558815469,1455.95654594,483.046937601,-1278.70458738,87.1121688274,-23507.1962721,-3.32364941108,9.60511173613,1.80034511471,0.52296754901,278.734973274
11.3,-2.093561058E7,-34715.7776592,6287.29438947,2.33731942168,-1358.49361688,537.7834777,537.783478712,-168.155273393,-0.0779499841829,9993.98806667,-179.95220351,0.0173227124182,32.16802646325484,-18.8926565761,2.85460617059,-29.9955291101,0.0966768076351,0.925802710824,-1.61141162844,1077.42827592,0.00175588112192,1455.95611075,483.04691013,-1278.85320703,87.1218507154,-23504.0652876,-3.32535108752,10.1804200693,1.69630046722,0.522967608801,278.734953696
11.4,-2.09356103459E7,-34851.5395774,6341.04529399,2.34311506479,-1356.74507939,537.233676196,537.233676998,-169.903797679,-0.0792754255267,9993.99593132,-179.95224977,0.017470806553,32.168026439107145,-19.0787481794,2.85424298763,-29.9955286033,0.0966585124212,0.92570544965,-1.61141731005,1077.42824467,0.00175588068845,1455.95566687,483.046882111,-1278.99247416,87.1318749981,-23501.1379415,-3.32634386539,10.7046410894,1.59376838733,0.522967672092,278.734936184
11.5,-2.09356101113E7,-34987.1267422,6394.7409376,2.34928355445,-1354.99854965,536.678260129,536.678260844,-171.650313535,-0.0801913940514,9994.00390781,-179.952296507,0.0176187484852,32.16802641465073,-19.2648364707,2.85387095775,-29.9955281083,0.096640593246,0.925638286081,-1.61143091455,1077.42821298,0.00175588024882,1455.95521667,483.046853693,-1279.12216673,87.1394207444,-23498.4144295,-3.32624879207,11.1580652584,1.52508060193,0.522967738356,278.734920632
11.6,-2.09356098761E7,-35122.5393545,6448.38075899,2.3557979637,-1353.25403027,536.117232073,536.117232816,-173.394818386,-0.0807248634595,9994.01195655,-179.952343722,0.0177665366049,32.168026389980014,-19.4509234115,2.85349225708,-29.9955276554,0.09662304626,0.925598283405,-1.61144860726,1077.428181,0.0017558798052,1455.9547624,483.046825017,-1279.24221782,87.1431369077,-23495.8927485,-3.32515569102,11.5299927519,1.50380496515,0.522967807126,278.734906972
11.7,-2.09356096402E7,-35257.7776155,6501.96419708,2.36263181892,-1351.51152405,535.55059455,535.550595432,-175.137309476,-0.0809023542619,9994.02004061,-179.952391415,0.0179141692734,32.168026365189355,-19.6370104328,2.85310897458,-29.9955272566,0.0966058567758,0.925581712743,-1.61146618745,1077.42814888,0.00175587935964,1455.95430613,483.046796216,-1279.35274849,87.1432111224,-23493.5685328,-3.32340764436,11.8194988251,1.52504430423,0.522967877982,278.734895152
11.8,-2.09356094035E7,-35392.8417267,6555.49069105,2.36975929043,-1349.77103429,534.978350125,534.978351251,-176.877783532,-0.0807497467767,9994.02812572,-179.952439584,0.0180616451511,32.16802634047316,-19.8230984518,2.85272306258,-29.9955269068,0.0965890135782,0.925584937827,-1.61148051931,1077.42811675,0.00175587891402,1455.95384981,483.04676741,-1279.45406334,87.1409303953,-23491.435407,-3.32149172977,12.0348783976,1.57155832044,0.522967950529,278.734885124
11.9,-2.09356091662E7,-35527.7318899,6608.95968034,2.37715534627,-1348.03256504,534.400501475,534.400502946,-178.616236541,-0.0802921216918,9994.0361801,-179.952488229,0.0182089625386,32.16802631572583,-20.0091880266,2.85233630359,-29.9955265897,0.0965725193519,0.925605117965,-1.61149026957,1077.42808475,0.00175587847009,1455.95339522,483.046738715,-1279.54658619,87.1379990558,-23489.4858564,-3.31982369252,12.1897185393,1.62231575807,0.522968024387,278.734876825
12.0,-2.09356089281E7,-35662.4483074,6662.37060467,2.38479583441,-1346.29612115,533.817051414,533.817053323,-180.35266369,-0.0795536833831,9994.04417448,-179.95253735,0.018356119962,32.16802629124175,-20.1952795632,2.85195029981,-29.995526286,0.096556392237,0.92564044817,-1.61149588733,1077.42805298,0.00175587802947,1455.95294401,483.046710233,-1279.63078396,87.1358919354,-23487.7121015,-3.31864102406,12.2987035727,1.66014541449,0.522968099183,278.734870176
12.1,-2.09356086892E7,-35796.991182,6715.72290405,2.39265750392,-1344.56170819,533.228002882,533.228005318,-182.087059442,-0.0785577362275,9994.05208194,-179.952586945,0.0185031159061,32.16802626701535,-20.3813734995,2.85156648544,-29.9955259803,0.0965406605393,0.925690073325,-1.61149901978,1077.42802157,0.00175587759364,1455.95249772,483.04668206,-1279.70707743,87.1354405823,-23486.1069043,-3.31795986877,12.372385971,1.67626469343,0.522968174553,278.734865076
12.2,-2.09356084496E7,-35931.3607171,6769.01601878,2.4007179739,-1342.8293323,532.633358916,532.633361962,-183.819417678,-0.0773267147313,9994.05987788,-179.952637015,0.0186499487442,32.16802624314106,-20.5674704116,2.85118615219,-29.9955256655,0.0965253553734,0.925753677667,-1.61150168965,1077.42799059,0.00175587716396,1455.95205771,483.046654285,-1279.77581735,87.1367271207,-23484.6637831,-3.31762907752,12.4165735385,1.67101120335,0.522968250146,278.734861419
12.3,-2.09356082091E7,-36065.5571167,6822.24938947,2.40895568998,-1341.09900008,532.033122615,532.033126351,-185.549731846,-0.0758822286693,9994.06753988,-179.952687559,0.018796616932,32.16802621961329,-20.7535710288,2.85081047863,-29.9955253428,0.0965105042836,0.925831058793,-1.61150555598,1077.42796015,0.00175587674166,1455.95162527,483.046626988,-1279.83728492,87.1392437078,-23483.376933,-3.31743747453,12.4328619735,1.65148096978,0.522968325631,278.734859094
12.4,-2.09356079678E7,-36199.5805856,6875.42245705,2.41734988633,-1339.37071843,531.427297123,531.427301621,-187.277995058,-0.0742451007914,9994.07504762,-179.952738576,0.0189431190053,32.16802619662649,-20.9396761766,2.8504405535,-29.9955250195,0.0964961241082,0.92592176611,-1.61151147357,1077.42793032,0.00175587632786,1455.95120153,483.04660024,-1279.89170754,87.1422009912,-23482.2409457,-3.31718409209,12.4196602576,1.62759140392,0.522968400705,278.734857999
12.5,-2.09356077256E7,-36333.4313291,6928.53466274,2.42588057057,-1337.64449459,530.815885626,530.815890954,-189.004200128,-0.0724353807488,9994.08238286,-179.952790066,0.0190894534477,32.16802617417511,-21.1257866834,2.85007738841,-29.9955247052,0.0964822215238,0.926024917537,-1.61151941828,1077.42790117,0.00175587592357,1455.95078753,483.046574106,-1279.9392881,87.1448502962,-23481.250447,-3.316735141,12.3738593768,1.60821588626,0.522968475097,278.734858041
12.6,-2.09356074826E7,-36467.1095535,6981.58544813,2.43452853698,-1335.92033609,530.198891371,530.198897591,-190.728339528,-0.0704723312658,9994.0895293,-179.952842027,0.0192356186239,32.16802615225361,-21.3119032899,2.84972191941,-29.9955244081,0.0964687931497,0.926139232611,-1.61152871142,1077.42787277,0.00175587552968,1455.95038418,483.046548645,-1279.98025356,87.1467132797,-23480.3997062,-3.31604664521,12.2939477159,1.59860613901,0.522968548566,278.734859138
12.7,-2.09356072387E7,-36600.6154656,7034.57425508,2.44327539508,-1334.19825092,529.576317689,529.576324859,-192.450405328,-0.0683744021225,9994.09647255,-179.952894461,0.0193816130375,32.168026130956456,-21.4980265925,2.8493750021,-29.9955241331,0.0964558303994,0.926263175934,-1.61153839793,1077.42784519,0.001755875147,1455.9499923,483.046523908,-1280.01487093,87.1476686091,-23479.6825067,-3.31519675077,12.180755999,1.59960799264,0.522968620898,278.734861218
