time,eiPosition_ft_X,eiPosition_ft_Y,eiPosition_ft_Z,gePosition_ft_X,gePosition_ft_Y,gePosition_ft_Z,eiVelocity_ft_s_X,eiVelocity_ft_s_Y,eiVelocity_ft_s_Z,feVelocity_ft_s_X,feVelocity_ft_s_Y,feVelocity_ft_s_Z,altitudeMsl_ft,longitude_deg,latitude_deg,localGravity_ft_s2,eulerAngle_deg_Yaw,eulerAngle_deg_Pitch,eulerAngle_deg_Roll,bodyAngularRateWrtEi_deg_s_Roll,bodyAngularRateWrtEi_deg_s_Pitch,bodyAngularRateWrtEi_deg_s_Yaw,altitudeRateWrtMsl_ft_min,speedOfSound_ft_s,airDensity_slug_ft3,ambientPressure_lbf_ft2,ambientTemperature_dgR,aero_bodyForce_lbf_X,aero_bodyForce_lbf_Y,aero_bodyForce_lbf_Z,aero_bodyMoment_ftlbf_L,aero_bodyMoment_ftlbf_M,aero_bodyMoment_ftlbf_N,mach,dynamicPressure_lbf_ft2,trueAirspeed_nmi_h,feVelocity_ft_s_Z
0.0,-2.0935638353756614E7,-18269.79565174292,0.0,-2.0935638353756614E7,-18269.79565174292,0.0,1.3322545163927477,-1526.6508247400327,563.642515374396,563.642515374396,-8.095951428595545E-14,7.20269179921777E-9,10000.0,-179.95,0.0,32.168007953013294,-3.3366844495328228E-15,2.6653970310312984,3.1529185144808394E-18,0.004173554049577616,-0.0015529437066335,1.942937203068795E-4,-4.321615079530662E-7,1077.4036205934658,0.0017555542445852656,1455.6034586032633,483.0254911534173,-1404.6711391690692,8.18318065732332E-12,-20393.399413699004,2.4874375681835256E-11,-0.0020790926610061433,-5.4761221579700737E-11,0.5231488943099976,278.8635559082031,333.9490661621094,7.20269179921777E-9
0.10000000149011612,-2.09356382204867E7,-18422.461004635035,56.36441070688829,-2.093563835426878E7,-18269.7959226444,56.36441070688831,1.3487333400895474,-1526.645457854477,563.6443696254856,563.6443696379188,-0.005352460782483075,0.003823305483374892,10000.000588788225,-179.94999999925983,1.552947474951047E-4,32.16800795120146,-0.018608066136133857,2.655416309615221,-0.9974566963086443,-12.082137400565536,-0.05917875114156509,-0.27228043813888303,-0.22939832900249352,1077.4036182539717,0.0017555542121380082,1455.6034253784367,483.0254890557164,-1424.3130306796459,120.65225741780377,-20235.11262491475,2094.0246559060897,1393.5556971237274,-1495.5791187493946,0.523150622844696,278.8653869628906,333.9501647949219,0.003823305483374892
0.20000000298023224,-2.0935638084058225E7,-18575.122851372915,112.72878136930193,-2.093563835273559E7,-18269.792688393616,112.72878136930196,1.3772255250551826,-1526.5819226698536,563.6431759878514,563.6431761029874,-0.0688622303077025,0.01971190992076825,9999.999281929646,-179.9500000081075,3.10589507555837E-4,32.168007955225306,-0.053636558562694295,2.6531558644186375,-2.189582901683073,-11.779382183291236,0.008975582165212504,-0.4390764578522259,-1.182714595246095,1077.40362344665,0.0017555542841570717,1455.603499123372,483.0254937117171,-1409.1248510170087,188.6843448198876,-20335.35325024609,547.3886905906214,160.89786596781414,-2159.2909682006684,0.5231494903564453,278.86419677734375,333.949462890625,0.01971190992076825
0.30000001192092896,-2.093563794521087E7,-18727.77541097901,169.09307073824493,-2.0935638349896513E7,-18269.7801680497,169.09307073824493,1.3997845975988754,-1526.4585356570265,563.6426636424796,563.642663902793,-0.19222868052024553,0.029722551726162037,9999.996813853133,-179.95000004236587,4.658839227823517E-4,32.16800796282428,-0.10743727504127047,2.652379401949904,-3.354286063881671,-11.449793996344042,0.025098912089807843,-0.6349561009019785,-1.783353103569722,1077.4036332533174,0.0017555544201691621,1455.6036383948717,483.02550250483836,-1408.2100488295414,200.37710141966497,-20349.82909633368,616.5208748507796,100.60585542517947,-2166.592120222979,0.5231490731239319,278.86376953125,333.94915771484375,0.029722551726162037
0.4000000059604645,-2.0935637804054856E7,-18880.41238133123,225.45731473279284,-2.09356383458614E7,-18269.752059524042,225.4573147327929,1.4235820459952948,-1526.269276879473,563.6421960538439,563.642196531843,-0.3814654142589418,0.041033912277035595,9999.993288909012,-179.9500001192824,6.211782915935957E-4,32.16800797367721,-0.18004402156867355,2.651115284956423,-4.484714946206975,-11.076799253461735,0.04753686831570594,-0.8058451816826603,-2.462034736622136,1077.4036472593477,0.0017555546144236965,1455.6038373045483,483.02551506330695,-1408.2889612656254,168.23403478613133,-20366.282208924807,671.5036563955297,137.60784407006213,-1670.3116457016595,0.5231487154960632,278.8634338378906,333.9489440917969,0.041033912277035595
0.5,-2.0935637660454746E7,-19033.026975859102,281.8215047540352,-2.0935638340494215E7,-18269.70157628539,281.82150475403523,1.4485857792274537,-1526.010747076244,563.64157471956,563.6415754979622,-0.6399716815301126,0.05361892899734203,9999.988565132013,-179.9500002574299,7.764725347038538E-4,32.16800798822102,-0.2671247960603949,2.6496729744919847,-5.577043537525196,-10.679076006966902,0.07379473150019387,-0.9181887247887925,-3.217135739840522,1077.403666028826,0.0017555548747441902,1455.6041038634055,483.0255318929084,-1407.4071236834934,113.65953212676777,-20395.830435382577,677.292611292518,129.35100589539798,-945.1236010029913,0.5231483578681946,278.8630676269531,333.94873046875,0.05361892899734203
0.6000000238418579,-2.0935637514311574E7,-19185.612251441336,338.18562344880024,-2.0935638333695192E7,-18269.621775254047,338.18562344880024,1.4743902507311148,-1525.683262321188,563.6407636112516,563.6407647765637,-0.9674317448249934,0.06707378854166321,9999.982536700287,-179.95000047580965,9.317665650355922E-4,32.168008006781484,-0.3623037261775303,2.648347089462214,-6.6299071407720405,-10.284636770541605,0.09858603601922702,-0.9648325114729333,-4.0244273124997925,1077.4036899822252,0.001755555206962355,1455.6044440429155,483.02555337065894,-1405.7521974365022,60.0720328581689,-20435.20640870641,639.5535433445054,91.20463412379468,-273.3697456582155,0.5231480002403259,278.86279296875,333.9485168457031,0.06707378854166321
0.699999988079071,-2.093563736555591E7,-19338.16146984206,394.5496493926597,-2.0935638325393938E7,-18269.505918237133,394.5496493926597,1.5008384584711982,-1525.290428736828,563.6397056282697,563.6397072710671,-1.3602396037746096,0.08124015853625069,9999.975127347685,-179.9500007928622,0.0010870603097684593,32.168008029593324,-0.459648684343052,2.6473190036712198,-7.644588864346555,-9.916592812086618,0.11877235618012737,-0.9609492223801455,-4.874409512175041,1077.4037194225814,0.0017555556152811405,1455.604862146758,483.02557976827507,-1403.7061032473628,24.922602502142432,-20479.191244193993,576.6611048951729,44.58677457218437,147.34053318216039,0.5231477618217468,278.86260986328125,333.9483642578125,0.08124015853625069
0.800000011920929,-2.093563721411588E7,-19490.668362279863,450.91355277168987,-2.0935638315517403E7,-18269.34773649841,450.91355277168987,1.5281464363878365,-1524.8377465852186,563.6382883074581,563.6382905287154,-1.812894776524181,0.09633083982346419,9999.966258545284,-179.95000122574345,0.0012423537538383484,32.16800805689824,-0.555422597201258,2.646605545568096,-8.624249157928626,-9.586564355755439,0.1341192738029835,-0.9338086987626719,-5.7798503894078515,1077.4037546619213,0.0017555561040282048,1455.6053626063135,483.0256113655352,-1401.7305113491864,15.524947860421298,-20522.67916295531,509.48788009856577,13.333822576252714,247.3412129678823,0.5231476426124573,278.862548828125,333.94830322265625,0.09633083982346419
0.8999999761581421,-2.093563705988043E7,-19643.1272342209,507.2772897883842,-2.093563830395324E7,-18269.141535553896,507.27728978838434,1.5568572121479118,-1524.3309240205358,563.6363470065049,563.6363499278693,-2.31968857341423,0.11288523325037356,9999.95581297338,-179.95000179003753,0.0013976466456750397,32.16800808905735,-0.6487164199204255,2.6460762793316306,-9.572686428122298,-9.293139715162404,0.14702770241253624,-0.9111033996162837,-6.773113995022413,1077.4037961664026,0.0017555566796689244,1455.6059520419133,483.02564858041916,-1400.1570546871203,29.13276286608235,-20562.858834973078,459.2072257729114,13.074666689706646,76.70165233862087,0.5231475234031677,278.8625793457031,333.9482421875,0.11288523325037356
1.0,-2.0935636902676247E7,-19795.532912626277,563.6407984595635,-2.093563829052671E7,-18268.882142422364,563.6407984595635,1.5876283553800112,-1523.7744988104355,563.6336873857371,563.6336911585053,-2.8760825623141164,0.1315581834353793,9999.943611381861,-179.9500024999012,0.0015529389206630426,32.16800812662243,-0.7410291172776918,2.645533943995919,-10.493115838048567,-9.024819254107818,0.1611574002932391,-0.9119352906014724,-7.893491006122758,1077.403844648258,0.0017555573520815885,1455.6066405685965,483.02569205154913,-1399.0558908297664,56.24687571657898,-20600.113339054104,436.4794151254303,44.96815216327377,-239.62172521784262,0.5231474041938782,278.8625793457031,333.94818115234375,0.1315581834353793
1.100000023841858,-2.093563674226939E7,-19947.8805872818,620.0039970525187,-2.093563827500232E7,-18268.564746957236,620.0039970525187,1.620973900154195,-1523.1711354828399,563.630113196569,563.6301180045555,-3.4794116633386523,0.15286262700334816,9999.929414079725,-179.9500033684981,0.0017082304800753146,32.16800817033121,-0.8351797025890015,2.644811062657475,-11.3873860093361,-8.765573833562039,0.17972074994058798,-0.9427356043325961,-9.17175762020089,1077.4039010598758,0.0017555581344753275,1455.6074417120712,483.02574263288244,-1398.2384267079494,85.29286759866412,-20637.423428495225,438.1252696507224,96.83112983120009,-559.9814313343828,0.5231472253799438,278.862548828125,333.9480895996094,0.15286262700334816
1.2000000476837158,-2.0935636578389954E7,-20100.16561972356,676.3667850021147,-2.0935638257108495E7,-18268.18471077221,676.3667850021147,1.6570787778824763,-1522.5216678483227,563.625446292767,563.6254523472136,-4.128841811611351,0.17698406986806195,9999.912945438637,-179.95000440852172,0.0018635208194426372,32.16800822103209,-0.934057670173267,2.6438400224119185,-12.255810210669958,-8.501598840250354,0.204210171776101,-0.998260999899199,-10.619044192083717,1077.4039664964375,0.0017555590420397578,1455.6083710260057,483.02580130641184,-1397.3662110880498,106.82578045475854,-20678.801916207914,457.4574157583383,149.65857525646425,-775.5683676908387,0.52314692735672,278.8624267578125,333.94793701171875,0.17698406986806195
1.2999999523162842,-2.0935636410768576E7,-20252.383386838177,732.7290451240766,-2.0935638236574054E7,-18267.737410839367,732.7290451240766,1.695751378181657,-1521.825703172715,563.6195320915284,563.6195396198884,-4.824765845407126,0.20373263458500157,9999.893930237804,-179.95000563262352,0.0020188096970488907,32.16800827957216,-1.039648837867116,2.6426734985042546,-13.097556543783197,-8.2252163630042,0.23398899233726783,-1.0660952303396853,-12.223958075100095,1077.4040420515046,0.001755560089942083,1455.60944404113,483.02586905267833,-1396.10300580205,116.06149487815982,-20727.548964441863,481.1997379025217,185.88595490728767,-837.4430316064356,0.5231465697288513,278.8622131347656,333.94769287109375,0.20373263458500157
1.399999976158142,-2.0935636239170622E7,-20404.529199945348,789.0906456687228,-2.093563821316243E7,-18267.21815856822,789.090645668723,1.7365134820572121,-1521.08246892057,563.612231718,563.612240951018,-5.56795669157692,0.23263222258379385,9999.872127816929,-179.95000705363444,0.0021740967289245756,32.16800834669225,-1.1525811081617299,2.641455512805656,-13.91134944664091,-7.9364008168983196,0.26676146575554216,-1.1323798491899608,-13.957933355027631,1077.4041286813156,0.0017555612914449748,1455.610674338017,483.0259467290926,-1394.2436957759392,113.29259490457264,-20785.03250453749,496.1314895125659,195.86135566007943,-757.8265422854313,0.5231460928916931,278.8619689941406,333.94744873046875,0.23263222258379385
1.5,-2.093563606341654E7,-20556.59830693922,845.4514411874285,-2.0935638186691955E7,-18266.622201943566,845.4514411874285,1.7787744403510346,-1520.291578113253,563.6034074562527,563.6034186182156,-6.358801848680434,0.26309395278083963,9999.847352362824,-179.95000868455915,0.0023293816073818208,32.16800842296428,-1.2722111892219277,2.640361871242989,-14.696193742073243,-7.6415200753379375,0.2996035162576508,-1.1866309304926426,-15.785637166850378,1077.404227124178,0.0017555626567886044,1455.6120724023224,483.0260349976592,-1391.7752892109834,102.57252348062099,-20850.372393491012,496.60086901061777,180.39519082134575,-591.4967840947353,0.5231456756591797,278.86175537109375,333.9471740722656,0.26309395278083963
1.600000023841858,-2.0935635883383717E7,-20708.58595692741,901.8112719305987,-2.0935638157037802E7,-18265.94479016233,901.8112719305987,1.8220135297287632,-1519.4534875191853,563.5929090894084,563.5929223947575,-7.196845020812684,0.2945980491868051,9999.819474882815,-179.9500105383992,0.002484663777494221,32.16800850878525,-1.3970963363165625,2.639537239089004,-15.451857287094628,-7.349562521824721,0.3300771394265948,-1.2243047539549485,-17.675882951208305,1077.4043378926292,0.0017555641930818951,1455.6136455134301,483.0261343179461,-1388.8573348836626,89.51981137662221,-20921.007547986548,481.03429181005407,149.02325415191808,-408.02295360640727,0.5231452584266663,278.8616027832031,333.94696044921875,0.2945980491868051
1.7000000476837158,-2.0935635698992647E7,-20860.487491534823,958.1699621545354,-2.0935638124118097E7,-18265.181264936982,958.1699621545354,1.865903281338076,-1518.5695724603088,563.5805663090279,563.5805819655832,-8.080711184756993,0.3268170534860405,9999.788409438352,-179.9500126279029,0.0026399429088423613,32.16800860441969,-1.5256102029473357,2.63905288671146,-16.17899887448213,-7.068911390120332,0.35699844020688287,-1.2468501285088158,-19.60902320916243,1077.4044613281333,0.0017555659050611625,1455.6153985212725,483.0262449961302,-1385.7419922736012,79.13603537461073,-20993.791963438573,454.34769463993405,115.32756974882795,-265.91441239678136,0.5231448411941528,278.8615417480469,333.9467468261719,0.3268170534860405
1.7999999523162842,-2.0935635510185223E7,-21012.298426577257,1014.5273180495632,-2.0935638087872263E7,-18264.327142170438,1014.5273180495632,1.9103396693311792,-1517.6418796375833,563.5661886942719,563.5662069105451,-9.00835372549617,0.3596462290049037,9999.754091534694,-179.9500149653421,0.0027952182439108823,32.16800871006616,-1.6564728035263692,2.6388974376860963,-16.87896312890452,-6.804325603193489,0.38063112313029857,-1.2598122614152285,-21.57877374029422,1077.4045976869497,0.0017555677962810333,1455.6173350657905,483.0263672619898,-1382.6727561367156,74.34546775673326,-21066.12870132366,425.5164210752322,91.49104411953522,-196.46223795306648,0.523144543170929,278.8615417480469,333.9465637207031,0.3596462290049037
1.899999976158142,-2.093563531690469E7,-21164.014499049485,1070.8831259893525,-2.093563804824097E7,-18263.378158946143,1070.8831259893527,1.9553845248474204,-1516.6727101293486,563.5495716926888,563.5495926852708,-9.977471486305463,0.3931463615506277,9999.716458104662,-179.95001756238312,0.002950489304220836,32.16800882591876,-1.7890458053823615,2.6389984259293717,-17.553379619371174,-6.556094351446023,0.4023310879447197,-1.2700778877211458,-23.588781693037664,1077.404747219665,0.001755569870217517,1455.6194587064394,483.0265013402171,-1379.8028349569133,75.55693180804545,-21136.71894481042,401.13577803961186,84.2288379786005,-200.18437720945136,0.5231441855430603,278.8616027832031,333.9464111328125,0.3931463615506277
2.0,-2.093563511908424E7,-21315.631671147225,1127.2371515454756,-2.0935638005154748E7,-18262.330277551653,1127.2371515454756,2.0011566237440355,-1515.664204757524,563.5305053352006,563.5305293325092,-10.985923506396942,0.42743526268341103,9999.675436144391,-179.9500204300761,0.003105755578980762,32.16800895220216,-1.923353802513825,2.6392614594855437,-18.203742501909996,-6.320907328745663,0.423866227047108,-1.2833472429915995,-25.646115761004662,1077.4049102163474,0.0017555721308942778,1455.6217735634725,483.02664749090627,-1377.1595038720848,81.13240250693136,-21205.72291035355,383.8702409699476,93.34630367795398,-253.98699616701725,0.5231438875198364,278.8616943359375,333.9462585449219,0.42743526268341103
2.0999999046325684,-2.0935634916647106E7,-21467.146098767353,1183.589139365503,-2.0935637958534077E7,-18261.179653979198,1183.5891393655031,2.0477197138215866,-1514.6180652126825,563.5087822674654,563.5088095079071,-12.032008008455996,0.4625760951055908,9999.630942774433,-179.95002357894097,0.0032610160798904365,32.1680090891715,-2.059888909123655,2.639609774945867,-18.83113019660765,-6.09362105813126,0.44671281039550986,-1.3025894461882572,-27.75456570633545,1077.405087006304,0.0017555745828792756,1455.6242843145035,483.0268060093356,-1374.6591698938223,88.39386705669432,-21274.3808963394,376.77383250458513,112.99246229652636,-324.20160540650477,0.523143470287323,278.86175537109375,333.946044921875,0.4625760951055908
2.200000047683716,-2.0935634709516205E7,-21618.5540817364,1239.9388137156948,-2.093563790829903E7,-18259.922588153007,1239.9388137156948,2.095007734097249,-1513.5354710462059,563.4842027468374,563.4842334717815,-13.114545486345243,0.49850268655780017,9999.582894814268,-179.95002701910366,0.0034162703943351634,32.168009237082785,-2.1993114017714595,2.6400102573148105,-19.436115665474567,-5.8695237289048485,0.47157946188352645,-1.3277494151005649,-29.91016119346801,1077.4052779200376,0.0017555772307571288,1455.626995654224,483.026977191856,-1372.1581929954175,94.74714536550054,-21344.328639619696,374.7398567690696,134.6504422371254,-379.96187154677307,0.5231429934501648,278.8617858886719,333.9458312988281,0.49850268655780017
2.299999952316284,-2.0935634497628562E7,-21769.852015133412,1296.285879334913,-2.0935637854383703E7,-18258.555475249745,1296.285879334913,2.142807004179601,-1512.4171760425384,563.4565758861809,563.4566103300574,-14.232782357145378,0.5350016543473051,9999.531223211892,-179.95003076042966,0.0035715173542403417,32.168009396148626,-2.342166639774039,2.64047926486087,-20.018879234608395,-5.645720776642751,0.49828335777511124,-1.3564956853566525,-32.100099260838306,1077.405483231912,0.001755580078333917,1455.6299114801495,483.02716128448225,-1369.5154013784331,98.48351445769325,-21416.900722202972,375.9269043148511,150.52286824975454,-402.4553812074337,0.5231425166130066,278.8617858886719,333.945556640625,0.5350016543473051
2.4000000953674316,-2.0935634280948654E7,-21921.036356431512,1352.6300222535815,-2.0935637796749543E7,-18257.07477283725,1352.6300222535815,2.1907915147130685,-1511.2637135715067,563.4257179448932,563.4257563255887,-15.38618557828229,0.5717474850995113,9999.475886293823,-179.95003481261355,0.0037267564007860106,32.1680095664972,-2.4887047787478935,2.641070095955375,-20.57942606439874,-5.421877013276441,0.5259549770568955,-1.3855282333015446,-34.30484910597068,1077.4057031075047,0.0017555831279069789,1455.6330341449157,483.0273584356863,-1366.642219150745,99.13658391410794,-21492.665954639862,373.744167603758,156.04509546770714,-388.158956016464,0.5231419205665588,278.8617858886719,333.94525146484375,0.5717474850995113
2.5,-2.0935634059476443E7,-22072.103614868283,1408.970910359632,-2.0935637735393398E7,-18255.47699024243,1408.970910359632,2.2385901294504764,-1510.075620728075,563.3914492746992,563.3914917869619,-16.57421844166514,0.6083695212522269,9999.416877841173,-179.9500391852085,0.0038819863707689893,32.16800974814771,-2.63883735435975,2.6418497475824596,-21.11782637034599,-5.199867540276149,0.5534405892716513,-1.4118878302434243,-36.50217127513361,1077.405937571517,0.0017555863798198428,1455.6363640005375,483.0275686676248,-1363.5256789258042,97.32481484773031,-21571.310330865388,368.47294684338067,150.83963556251183,-346.3445222477015,0.5231413245201111,278.8617858886719,333.9449462890625,0.6083695212522269
2.5999999046325684,-2.0935633833248265E7,-22223.050360873123,1465.3081936604528,-2.093563767034838E7,-18253.75869797717,1465.3081936604528,2.28585759029381,-1508.8536048966366,563.3535915241382,563.3536383373706,-17.796173935790844,0.6445227792017235,9999.354227959868,-179.95004388760026,0.004037206448607611,32.16800994100748,-2.792212834020674,2.642874968360409,-21.634380848398898,-4.982465215967053,0.5797272669637061,-1.4338409009020805,-38.67136675210341,1077.4061865043166,0.0017555898324142511,1455.6398993492817,483.0277918730382,-1360.2214503886091,94.31270940270781,-21651.842661108978,357.184605270116,138.07264732048134,-293.09447619585035,0.5231406688690186,278.8617858886719,333.9446105957031,0.6445227792017235
2.700000047683716,-2.0935633602331445E7,-22373.87324741349,1521.6415043225788,-2.0935637601678528E7,-18251.916549084308,1521.6415043225788,2.332325162249623,-1507.5986120898829,563.3119660913926,563.3120173514874,-19.051106351450958,0.6799385193049072,9999.287997732043,-179.95004892894883,0.004192415587146522,32.16801014488849,-2.948359643796013,2.6441758746511788,-22.129676932125506,-4.772433214245764,0.6042417075418375,-1.4511671427178208,-40.796311158294436,1077.4064496631906,0.0017555934823249117,1455.643636745476,483.02802783430695,-1356.8249881781585,91.4395804804307,-21732.991621974874,342.3342254405074,122.73949278083455,-244.5056726895445,0.5231400728225708,278.8618469238281,333.9443054199219,0.6799385193049072
2.799999952316284,-2.0935633366815485E7,-22524.56903307432,1577.9704566306002,-2.093563752946997E7,-18249.94730221773,1577.9704566306002,2.377818341394925,-1506.3117965637439,563.2663940349521,563.2664498685084,-20.33786164431449,0.7144419740585242,9999.218270449801,-179.95005431812513,0.004347612735090427,32.16801035953438,-3.1068351596459487,2.6457513253759695,-22.604529062591503,-4.571541837015198,0.6269448301069874,-1.4648863609051592,-42.86651844351145,1077.4067267171763,0.0017555973249625742,1455.6475714901624,483.02827625468274,-1353.434520222856,89.67764666685686,-21813.623786733748,325.68286723449586,109.64521792792948,-211.49847868728222,0.5231394171714783,278.8619079589844,333.9440002441406,0.7144419740585242
2.9000000953674316,-2.093563312680311E7,-22675.13459840536,1634.294646995898,-2.093563745382199E7,-18247.847837990776,1634.294646995898,2.4222424759576326,-1504.9944235738258,563.2166970568146,563.2167575755038,-21.65517468995694,0.7479380665350134,9999.145142630396,-179.95006006366643,0.004502796762980811,32.16801058464803,-3.2673317430230484,2.647575286615285,-23.05986253270905,-4.380044515837388,0.648230308519706,-1.4766479476176577,-44.8762839921008,1077.4070172827626,0.0017556013550091773,1455.651698138107,483.02853679029977,-1350.1204382264948,89.39924034253559,-21893.034962874157,310.96122287956393,101.85623475598914,-197.49595270409765,0.5231388211250305,278.8620300292969,333.94366455078125,0.7479380665350134
3.0,-2.093563288240392E7,-22825.566951110453,1690.6136540919656,-2.0935637374840688E7,-18245.615164166433,1690.6136540919656,2.4655476149875835,-1503.6477517367366,563.1626989515304,563.1627642546947,-23.00178695744747,0.7803763827477025,9999.06871774113,-179.950066173762,0.004657966478961197,32.16801081991102,-3.429715281625658,2.6496100352970036,-23.496568977692252,-4.196942525931745,0.6686982649545921,-1.4880619577759302,-46.82258296486215,1077.4073209488222,0.001755605566763653,1455.6560108518909,483.02880907253086,-1346.9095647987547,90.40463150801796,-21971.04408453471,297.96741979667934,100.00551165435172,-199.0724535026145,0.5231381058692932,278.86212158203125,333.9433288574219,0.7803763827477025
3.0999999046325684,-2.0935632633731972E7,-22975.86322029996,1746.927039134825,-2.093563729263655E7,-18243.246409910076,1746.927039134825,2.5076887068889837,-1502.2729379533234,563.1042269775285,563.1042971520509,-24.3765416279486,0.8117114741650103,9998.989103723667,-179.95007265626893,0.0048131207269580655,32.168011064991035,-3.593999661195492,2.6518202487481015,-23.91541568616831,-4.020634166906186,0.6889065696019676,-1.5001999160463735,-48.70268844990062,1077.4076372864508,0.001755609954278354,1455.6605035416067,483.02909271680795,-1343.7875345545658,92.11246503917478,-22047.89324831213,288.34966008050117,102.58533915081352,-208.65549798651767,0.5231374502182007,278.86224365234375,333.9429931640625,0.8117114741650103
3.200000047683716,-2.093563238090687E7,-23126.020643510976,1803.234346282174,-2.0935637207325563E7,-18240.73881280924,1803.234346282174,2.548595538052789,-1500.8709906912447,563.0411128456853,563.0411879633238,-25.778430345214858,0.8418728533698844,9998.906414120986,-179.95007951874754,0.004968258297311273,32.16801131953865,-3.7602796531592535,2.654183253682343,-24.31700143295541,-3.849545930115857,0.7091862821626052,-1.5133845990984336,-50.512371202193066,1077.4079658444862,0.0017556145112969396,1455.6651698012508,483.0293873186067,-1340.7139715196843,93.84380996253716,-22124.030574545737,280.8746475962656,106.8635257003225,-217.94337429278164,0.5231366753578186,278.8623352050781,333.9425964355469,0.8418728533698844
3.299999952316284,-2.0935632124057114E7,-23276.036551778503,1859.5351031107973,-2.0935637119032554E7,-18238.08970394379,1859.5351031107973,2.588160604303594,-1499.4427764363788,562.9731932913304,562.9732734046262,-27.206586778808948,0.8707528665577927,9998.820771397557,-179.95008676850227,0.005123377736884662,32.168011583176906,-3.9286536515101305,2.6566926354518,-24.701787474199584,-3.682389605644348,0.7295715291315401,-1.527267746608809,-52.245171993467565,1077.4083061363192,0.001755619231071393,1455.6700027213546,483.0296924416181,-1337.6435361772756,95.06244363310392,-22199.86891367703,274.0648661760325,110.04875751808868,-220.75705189125654,0.5231359004974365,278.8624267578125,333.9422302246094,0.8707528665577927
3.4000000953674316,-2.0935631863323607E7,-23425.908357500124,1915.8288211356594,-2.0935637027894683E7,-18235.29649574944,1915.8288211356598,2.626245183953974,-1497.9890659698501,562.9003103790558,562.9003955173004,-28.660240341882552,0.8982127165668966,9998.732310410498,-179.95009441261504,0.005278477772173058,32.16801185549068,-4.099163208252582,2.6593554882005437,-25.070157019859753,-3.5190760313872342,0.74984277586756,-1.541119349187106,-53.89276299401379,1077.408657626099,0.001755624106170719,1455.6749946930897,483.0300076053811,-1334.5441569200257,95.51429650648366,-22275.60795375803,268.23336447554755,110.23056459682994,-214.5631669404314,0.5231350660324097,278.8625183105469,333.9418029785156,0.8982127165668966
3.5,-2.093563159886193E7,-23575.63354791536,1972.1149963505493,-2.0935636934063733E7,-18232.35667549601,1972.1149963505493,2.662698430888987,-1496.5105958796328,562.8223116446981,562.8224018112805,-30.13865465938844,0.9241014926588822,9998.641180711242,-179.95010245796294,0.005433557093687566,32.1680121360197,-4.271765356315363,2.66218541877269,-25.422494377007872,-3.3598032749250226,0.7696474414112471,-1.554154563751705,-55.44608955953293,1077.4090197195899,0.0017556291283540788,1455.6801372783598,483.03033227708255,-1331.4071311323473,95.25284767387095,-22351.165758777668,260.46015403581964,106.84186177358788,-200.44669163554386,0.5231342315673828,278.8625793457031,333.9413757324219,0.9241014926588822
3.5999999046325684,-2.0935631330842424E7,-23725.20968456086,2028.3931097826105,-2.09356368377062E7,-18229.26780474211,2028.3931097826105,2.6973800655527,-1495.0081229959153,562.7390502352722,562.7391454070687,-31.641073107453977,0.9482788025006988,9998.547546617287,-179.9501109112198,0.005588614205460905,32.16801242425814,-4.4463390453021,2.6651945977428393,-25.759238795297076,-3.205290669489898,0.7886407714397539,-1.5658186232720355,-56.89672815004193,1077.4093917638847,0.0017556342885668291,1455.68542120574,483.0306658713018,-1328.2473141615426,94.5444544389341,-22426.220284573163,250.3631820706167,100.58262424761415,-181.926009321428,0.5231333374977112,278.8626708984375,333.94091796875,0.9482788025006988
3.700000047683716,-2.0935631059448108E7,-23874.634407054837,2084.6626280580763,-2.0935636739001207E7,-18226.027523119606,2084.6626280580763,2.730178747409251,-1493.4824549445775,562.6503850004156,562.6504851291614,-33.166688238437985,0.9706331075192021,9998.451585152576,-179.9501197788458,0.005743647549372962,32.16801271966117,-4.622716062097486,2.668387687707767,-26.080907681710386,-3.0565388859624303,0.8065965376935357,-1.575927512228758,-58.237986451152125,1077.4097730555893,0.0017556395770540099,1455.69083648668,483.0310077573481,-1325.095265531806,93.7310855473512,-22500.325400644884,241.0400606420007,92.93332332170394,-163.2521144858659,0.5231324434280396,278.8627624511719,333.9404602050781,0.9706331075192021
3.799999952316284,-2.0935630784871284E7,-24023.905438504276,2140.9230039733343,-2.0935636638137113E7,-18222.633553741267,2140.9230039733343,2.761021015075195,-1491.9344519955125,562.5561804825406,562.5562854975199,-34.71463992106002,0.991090655441898,9998.353482624358,-179.95012906707265,0.00589865583551813,32.16801302165528,-4.800720909997718,2.671759292530656,-26.388086892237176,-2.9139026580950604,0.8234568909976021,-1.5846452150006218,-59.46543932651388,1077.4101628544247,0.001755644983548983,1455.6963726086622,483.0313572714569,-1321.9857328016196,93.11447076953228,-22573.04687941632,230.38659466238852,85.51306425975054,-147.8590042370952,0.5231315493583679,278.86285400390625,333.94000244140625,0.991090655441898
3.9000000953674316,-2.093563050730974E7,-24173.020589893582,2197.173677059819,-2.0935636535307728E7,-18219.083707590195,2197.1736770598195,2.7898693612207177,-1490.365006514249,562.4563068069835,562.4564166180155,-36.284035889352324,1.0096135844131062,9998.253430889705,-179.95013878189167,0.006053637260158642,32.16801332964996,-4.980204643751016,2.6752951320065637,-26.681391881241318,-2.777453921751717,0.8393162902885181,-1.592366226836562,-60.57681506478637,1077.4105603980609,0.0017556504974791793,1455.7020187458781,483.031713730091,-1318.9470117266637,92.85463942069167,-22644.068941279354,220.02087704174298,79.52451993400246,-137.42367727649116,0.5231305956840515,278.8629455566406,333.9395446777344,1.0096135844131062
4.0,-2.0935630226963595E7,-24321.97776173621,2253.4140741307187,-2.093563643070913E7,-18215.375885172125,2253.4140741307187,2.8167126632337474,-1488.7750110262161,562.3506394325824,562.3507539324764,-37.87398368797801,1.0261903807142438,9998.151624136164,-179.95014892904913,0.0062085904031991155,32.168013643047495,-5.161063216073144,2.6789757417666693,-26.96142963960171,-2.6469039744820027,0.8543598530814701,-1.5995428496065318,-61.57142284285463,1077.4109649149084,0.0017556561081435076,1455.707763940889,483.03207644141014,-1315.9943911151408,92.95745260236384,-22713.243318078024,210.3987349601227,75.43986094676075,-131.72974577594414,0.5231296420097351,278.863037109375,333.9390563964844,1.0261903807142438
4.099999904632568,-2.09356299440333E7,-24470.774942514072,2309.6436098005984,-2.0935636324537728E7,-18211.50807495542,2309.6436098005984,2.841553334395736,-1487.1653280552198,562.2390588922228,562.239177958159,-39.48362084766275,1.0408230707889898,9998.048256956998,-179.9501595140506,0.006363513673309621,32.1680139612489,-5.3432376962453825,2.68278103070948,-27.228761616399026,-2.521727432885183,0.8687841682574897,-1.6065334300931375,-62.44938424733939,1077.4113756317674,0.0017556618048184254,1455.7135972132367,483.03244471212867,-1313.1293412977498,93.3059719886832,-22780.574031616543,201.86147180408477,73.00828725559404,-129.15979458142328,0.5231286883354187,278.8631286621094,333.9385681152344,1.0408230707889898
4.199999809265137,-2.093562965871885E7,-24619.410204613407,2365.8616869828124,-2.0935636216989428E7,-18207.478349307083,2365.8616869828124,2.8643961679062624,-1485.5367712349355,562.12145061578,562.1215741096041,-41.11213378626788,1.0535160887532655,9997.943523512722,-179.95017054217197,0.006518405319868656,32.168014283656596,-5.5267004599296445,2.6866939772380514,-27.483889279026954,-2.401350276607962,0.8827320960170842,-1.6135156631548537,-63.21096532519593,1077.4117917771587,0.0017556675768041425,1455.719507606756,483.0328178505027,-1310.3431746696401,93.72564226259679,-22846.15869472463,195.2248976669036,71.48804143873713,-127.53875771327944,0.5231277346611023,278.8631896972656,333.9380798339844,1.0535160887532655
4.300000190734863,-2.0935629371219955E7,-24767.88169911277,2422.067697377883,-2.093563610825981E7,-18203.284859280786,2422.067697377883,2.88524203646141,-1483.890101234503,561.9977049275416,561.9978326953683,-42.75876189056787,1.0642699800377349,9997.837617712445,-179.95018201847387,0.00667326372596808,32.16801460967369,-5.711434959778381,2.6907024540849145,-27.727259853829885,-2.2850602824331343,0.8962593580194793,-1.6204743090167235,-63.85619880226409,1077.412212580602,0.0017556734134146269,1455.7254841793376,483.033195165684,-1307.6232419263722,94.06076400433318,-22910.113441834426,188.02743645934206,69.99628558753466,-124.9692634021903,0.5231267213821411,278.86328125,333.93756103515625,1.0642699800377349
4.400000095367432,-2.0935629081736468E7,-24916.187650855016,2478.2610219725243,-2.0935635998544574E7,-18198.92582968868,2478.2610219725243,2.9040871007572724,-1482.2260350767579,561.8677172822705,561.8678491539337,-44.42278819913793,1.073080602948348,9997.730733635064,-179.95019394781502,0.006828087210713064,32.1680149387028,-5.897416996065262,2.6947990210402186,-27.959279310882657,-2.172840042160389,0.9093368106206245,-1.6272676006884377,-64.38483617690088,1077.412637270945,0.001755679303954383,1455.7315159791501,483.0335759662194,-1304.9591117285595,94.21123119493143,-22972.50939671462,181.78315601000517,67.83901245738889,-120.38858847420566,0.5231257081031799,278.86334228515625,333.9370422363281,1.073080602948348
4.5,-2.093562879046871E7,-25064.326354845656,2534.441031568068,-2.093563588803987E7,-18194.399555499658,2534.441031568068,2.9209270727646697,-1480.5452619773303,561.73138858202,561.7315243709796,-46.103523558347156,1.0799433740638924,9997.623065864344,-179.95020633486214,0.006982874097861777,32.168015270145,-6.084603433608043,2.6989791131633365,-28.180339718358695,-2.064486057189569,0.9218818877807408,-1.6336993480619475,-64.79660244383355,1077.413065075029,0.0017556852376999859,1455.737592025729,483.0339595588569,-1302.3464487350363,94.16390885527531,-23033.341154108537,174.33438624717024,64.69632208183248,-113.72040228147287,0.523124635219574,278.8634033203125,333.9365234375,1.0799433740638924
4.599999904632568,-2.0935628497617193E7,-25212.29617433529,2590.6070873451094,-2.093563577694199E7,-18189.70439992186,2590.6070873451094,2.9357631677525458,-1478.8484601431032,561.5886255674773,561.5887650714546,-47.80028981673764,1.0848592039522955,9997.514809207805,-179.9502191840952,0.007137622423775615,32.16801560340071,-6.272930184027471,2.7032386757941036,-28.390834178534952,-1.9602537804803855,0.933800458447289,-1.6396118861191042,-65.09155223713773,1077.413495218809,0.0017556912039155736,1455.7437013258416,483.0343452495476,-1299.7881316977653,93.9656788541272,-23092.52837499602,168.01760564590944,60.659861307060055,-105.67586266466411,0.5231236219406128,278.8634338378906,333.93597412109375,1.0848592039522955
4.699999809265137,-2.0935628203381803E7,-25360.09554033479,2646.758541460161,-2.0935635665446598E7,-18184.838793918123,2646.7585414601613,2.948607928543781,-1477.1363078234676,561.4393410369618,561.4394840394019,-49.51240876646892,1.0878403019005105,9997.406157870595,-179.95023249980878,0.007292330602190716,32.16801593787207,-6.46231824575562,2.707572069536706,-28.591171015415227,-1.8601100657625484,0.9450250049724169,-1.644928095653137,-65.27041811403063,1077.4139269306327,0.0017556971918983666,1455.7498329200953,483.0347323463881,-1297.2925513825885,93.70879907320167,-23149.945071107668,160.25670976730882,56.1188987947462,-97.3453598611453,0.5231225490570068,278.8634948730469,333.9354248046875,1.0878403019005105
4.800000190734863,-2.0935627907960437E7,-25507.72295187026,2702.894737655127,-2.0935635553747326E7,-18179.801236461455,2702.894737655127,2.959488347176714,-1475.4094869439796,561.2834538808651,561.283600152941,-51.239198505356185,1.0889133008954701,9997.297304107997,-179.95024628611128,0.0074469966297638504,32.16801627296741,-6.652683876080759,2.7119709961396206,-28.78176856060071,-1.7641495601168868,0.9555355722523488,-1.6496714913680715,-65.3347980537282,1077.4143594465986,0.0017557031910529414,1455.755975958994,483.0351201644225,-1294.8702493191709,93.47720275801854,-23205.460437179052,152.7519570868786,51.565446143824374,-89.7464509301904,0.5231214761734009,278.863525390625,333.93487548828125,1.0889133008954701
4.900000095367432,-2.093562761154758E7,-25655.176976211624,2759.015011857982,-2.0935635442034397E7,-18174.590294764203,2759.015011857982,2.968445901647768,-1473.6686794288194,561.1208888831574,561.1210381859922,-52.97997711375569,1.0881192908945414,9997.188436801114,-179.95026054692434,0.007601618886741613,32.16801660810527,-6.843948752917174,2.71642451375871,-28.96304712124687,-1.6725394236782853,0.9653611812609734,-1.6539429071857938,-65.28715745367248,1077.4147920162115,0.0017557091909697164,1455.762119783307,483.03550803071573,-1292.5305974848422,93.32861730687674,-23258.97420818379,146.05410719077244,47.41743009447964,-83.51469930192427,0.5231204032897949,278.86358642578125,333.9343566894531,1.0881192908945414
5.0,-2.0935627314332943E7,-25802.4562484761,2815.118692752963,-2.0935635330493227E7,-18169.204603882135,2815.1186927529634,2.9755340269394006,-1471.9145587504247,560.9515763161326,560.9517284028614,-54.73407110742954,1.085511307289098,9997.079740096084,-179.95027528598393,0.007756195428120038,32.16801694271891,-7.036046799319612,2.720919969620416,-29.13541827409055,-1.5849858682891442,0.9745649043256163,-1.657869715575508,-65.13067843734588,1077.4152239077923,0.00175571518149996,1455.768254000875,483.03589528920236,-1290.2794054828216,93.28099529614023,-23310.43696106747,139.62752251547812,43.89893379895511,-78.76545964334186,0.523119330406189,278.8636169433594,333.9338073730469,1.085511307289098
5.099999904632568,-2.0935627016500447E7,-25949.55947033933,2871.20510230868,-2.0935635219303425E7,-18163.642865426107,2871.20510230868,2.9808140030793964,-1470.1477810769993,560.7754515099061,560.7756061273393,-56.500824294640125,1.0811502270042594,9996.97139237887,-179.95029050684388,0.00791072432866073,32.16801727625923,-7.228926111856665,2.725444351781961,-29.29927357704056,-1.501109340895518,0.9832211505477103,-1.6615672967642658,-64.86901362025557,1077.4156544125494,0.0017557211528122908,1455.7743685444686,483.0362813043389,-1288.1180314162757,93.31473191498743,-23359.851822019486,132.93651748730787,41.00263850732517,-75.17486995709223,0.523118257522583,278.8636474609375,333.9332580566406,1.0811502270042594
5.199999809265137,-2.0935626718227662E7,-26096.485407942782,2927.273556264347,-2.0935635108638246E7,-18157.903845469944,2927.273556264347,2.984350748967,-1468.3689788164877,560.592454500392,560.5926113901978,-58.27960423709605,1.0751005696837785,9996.863565742815,-179.95030621288154,0.008065203836223143,32.16801760819649,-7.422546435124349,2.729985548652503,-29.454976647982516,-1.4208792552593674,0.9913935411178212,-1.6651143648702973,-64.5060341810267,1077.416082846696,0.0017557270954220287,1455.780453701844,483.0366654630008,-1286.044236804507,93.38465509548652,-23407.259232020646,127.34745371006892,38.550414170844306,-72.18633168288326,0.523117184638977,278.8636779785156,333.93267822265625,1.0751005696837785
5.300000190734863,-2.0935626419685636E7,-26243.23288933652,2983.3233645859236,-2.0935634998664416E7,-18151.986371993462,2983.3233645859236,2.9862102023519115,-1466.5787576592256,560.4025297640987,560.4026886636485,-60.06980521045023,1.0674278875637102,9996.756425802694,-179.95032240730487,0.008219631847874028,32.16801793802099,-7.616874060400361,2.7345330843160216,-29.60286604562921,-1.3438465642370419,0.9991220371711952,-1.6685301962947319,-64.04567325382261,1077.4165085521875,0.0017557330002014484,1455.7865001262442,483.0370471751451,-1284.0537637711275,93.44519915410488,-23452.715798458183,122.38089375408322,36.28130124816016,-69.22965829631289,0.5231161117553711,278.8636779785156,333.93212890625,1.0674278875637102
5.400000095367432,-2.093562612103881E7,-26389.80080186815,3039.353831908269,-2.093563488954203E7,-18145.88933227169,3039.3538319082695,2.986457934390879,-1464.777698351546,560.2056262004126,560.205786843452,-61.87084643240158,1.0581973718614643,9996.650131574504,-179.95033909315947,0.008374006631863893,32.16801826524322,-7.811876250085087,2.739078267542406,-29.743257743693725,-1.2699070420842162,1.0064199583087994,-1.671795116507058,-63.49184231168786,1077.4169308971993,0.0017557388583864097,1455.7924988431907,483.03742587423847,-1282.1423533510817,93.46418731241859,-23496.2727379203,117.42305713567599,33.96326411008704,-65.92258115163322,0.5231150388717651,278.8636779785156,333.93157958984375,1.0581973718614643
5.5,-2.093562582244507E7,-26536.188089866955,3095.3642579788,-2.09356347814246E7,-18139.61167055923,3095.3642579788,2.9851596351687446,-1462.9663606575116,560.0016971865052,560.0018593038798,-63.682168100371065,1.0474743400578856,9996.544835564648,-179.95035627333507,0.008528326240029365,32.16801858939376,-8.007517205918752,2.7436137990857765,-29.87645187460603,-1.198950743876036,1.0132808353621714,-1.674866076869203,-62.84846040347314,1077.4173492757736,0.0017557446615714494,1455.7984412454598,483.0378010169395,-1280.3070946215128,93.42988235009638,-23537.96329768331,111.99782692343561,31.45863857108634,-62.14261145735464,0.523114025592804,278.86370849609375,333.9310302734375,1.0474743400578856
5.599999904632568,-2.0935625524053212E7,-26682.393748205384,3151.3539375919554,-2.0935634674456593E7,-18133.152381653024,3151.3539375919554,2.9825522181436575,-1461.1449346254858,559.7906619436752,559.79082529006,-65.50357990639331,1.0354957901039163,9996.440681257158,-179.950373950583,0.008682588671222626,32.168018910031,-8.203609115603722,2.7482177083057757,-29.992187898846566,-0.3377738337217912,1.019107215098831,-1.6649183104874805,-62.12974740623498,1077.4177631178018,0.0017557504018482744,1455.8043192348994,483.0381720920513,-1278.040951616301,83.34128991483574,-23580.24672338277,3898.971639936722,-11.107672034740972,-9.87113928760239,0.523112952709198,278.86370849609375,333.93048095703125,1.0354957901039163
5.699999809265137,-2.093562522605612E7,-26828.416847583274,3207.3221707508987,-2.093563456882651E7,-18126.510536154805,3207.3221707508987,2.976686326207597,-1459.3165287778077,559.5729419535147,559.5731059721994,-67.33197586909397,1.02030862284506,9996.337856244787,-179.9503921274473,0.008836791952862048,32.168019226577506,-8.398107297739438,2.7535219923370624,-29.995501911657012,0.10244976941963448,1.0125251950261616,-1.6508127181551806,-61.218517370703594,1077.418171677917,0.001755756068877537,1455.8101222239536,483.03853843122886,-1275.6873182821123,76.2764873776287,-23615.886117385788,-78.85723007345406,-69.86163276974548,157.20765850620168,0.5231120586395264,278.86383056640625,333.9300537109375,1.02030862284506
5.800000190734863,-2.0935624928820487E7,-26974.25695738307,3263.268316499323,-2.0935634464896888E7,-18119.685703269814,3263.268316499323,2.9674892921764995,-1457.4852600730587,559.3488975738562,559.3490616700152,-69.1632392207493,1.001835007096958,9996.23672258301,-179.9504108051077,0.008990934517194276,32.16801953791883,-8.591009010449678,2.7588606698900118,-29.995622567307247,0.09527352290638753,1.0041204780794484,-1.632592461765927,-60.11010042581748,1077.418573517551,0.0017557616427045337,1455.8158297789853,483.038898744561,-1274.000852610673,68.9076062296241,-23642.771767544924,-6.077316966268603,-97.85318515959443,231.14637930164548,0.5231112241744995,278.8640441894531,333.92962646484375,1.001835007096958
5.900000095367432,-2.0935624632656008E7,-27119.913848925557,3319.1917446294065,-2.09356343629733E7,-18112.677654155472,3319.1917446294065,2.9553611885767035,-1455.6524630878164,559.1186208931819,559.1187845090641,-70.99603495876956,0.9804733685619136,9996.137585554881,-179.95042998419132,0.00914501443240861,32.168019843115395,-8.781650634995755,2.7643350831457534,-29.995691708061514,0.09527803933972005,0.9924942098231339,-1.6118485490636731,-58.828402113714816,1077.4189674237155,0.0017557671065033136,1455.8214246701198,483.0392519444023,-1272.719082248199,69.30187794575367,-23661.17413116224,-7.057284155947184,-118.33304791634146,213.1507619589555,0.5231104493141174,278.8642883300781,333.92926025390625,0.9804733685619136
6.0,-2.0935624337818395E7,-27265.38745689879,3375.0918403468777,-2.093563426330743E7,-18105.48632335112,3375.0918403468777,2.941101332634945,-1453.8198518631807,558.8822708936631,558.8824335776116,-72.82864808123729,0.9570208204186024,9996.04069669078,-179.95044966487788,0.009299029980003459,32.16802014139288,-8.970060219314437,2.7697099159235257,-29.99567960452732,0.09522251145372883,0.9808157756371543,-1.5959245889764284,-57.42124922511614,1077.4193523970005,0.0017557724464102933,1455.8268927008842,483.03959713461416,-1272.2555914482894,75.30517779738128,-23670.01726599973,-5.5530647083993285,-99.71011011587689,131.7104053356124,0.5231096744537354,278.864501953125,333.92889404296875,0.9570208204186024
6.099999904632568,-2.0935624044480406E7,-27410.677865613547,3430.968001505397,-2.0935634166068073E7,-18098.111795048324,3430.9680015053978,2.9254756421819046,-1451.988614255354,558.6399396921872,558.6401011018255,-74.6598897860876,0.9322417146871798,9995.946224754865,-179.95046984693732,0.009452979633438774,32.1680204322319,-9.156941918363561,2.774785274549807,-29.99561130265679,0.09526626284822622,0.9724909185064119,-1.5887172538793415,-55.934502881230785,1077.419727766857,0.0017557776531233501,1455.8322243456817,483.03993371393295,-1272.3664499816366,83.60825881771503,-23672.97220380111,-3.7286265892984507,-56.54735879760119,28.60025023998196,0.5231088399887085,278.8646545410156,333.928466796875,0.9322417146871798
6.199999809265137,-2.093562375275271E7,-27555.78523911073,3486.819631888426,-2.0935634071361948E7,-18090.55423319182,3486.819631888426,2.9089459863172995,-1450.1591511673762,558.391655230658,558.391815090304,-76.48935859810655,0.9065973632374962,9995.854276504235,-179.95049052992127,0.00960686173679899,32.168020715303804,-9.343297053982527,2.7794764452565555,-29.995523662021068,0.09541014639551627,0.9689849075923015,-1.590370621526418,-54.39584179424977,1077.4200931091116,0.0017557827207577573,1455.837413578294,483.0402613020101,-1272.6870397939583,90.98450950907446,-23674.29243709348,-2.2286812901779594,-9.240489256309957,-57.827442485164866,0.5231079459190369,278.8647155761719,333.92803955078125,0.9065973632374962
6.300000190734863,-2.0935623462715797E7,-27700.709745716722,3542.6461353444383,-2.093563397926563E7,-18082.81380602253,3542.6461353444392,2.891663514770113,-1448.3311867980915,558.1373938159459,558.137551868795,-78.31733014176369,0.880239252295123,9995.764928566306,-179.95051171336948,0.009760674537574916,32.16802099037274,-9.530027915584885,2.783808540265092,-29.995450523347024,0.09562181105251981,0.969817362376741,-1.5981589340960272,-52.81435513770738,1077.4204481193078,0.0017557876450893346,1455.8424560728874,483.04057962584164,-1272.9002633517734,95.30350971507309,-23677.20344066855,-1.4553505638640867,25.737551807189448,-104.06359590975542,0.5231069922447205,278.8646545410156,333.9275207519531,0.880239252295123
6.400000095367432,-2.093562317444693E7,-27845.45150437891,3598.4469116577266,-2.0935633889852423E7,-18074.89063240161,3598.4469116577266,2.873562685160053,-1446.504068389321,557.8771022997256,557.8772582720809,-80.14445728195795,0.8531026919029172,9995.6782542401,-179.95053339695679,0.009914416499227887,32.16802125721312,-9.717672020029877,2.787878330914853,-29.99541263727162,0.09585271616825132,0.9732106564093057,-1.6080698174559076,-51.18616151417503,1077.4207925062126,0.0017557924220773322,1455.8473476914571,483.0408884242815,-1272.823535574315,95.94073531385857,-23683.16027853637,-1.4787120190167335,40.00089543329523,-105.28078524175596,0.5231059789657593,278.8645324707031,333.927001953125,0.8531026919029172
6.5,-2.0935622888035156E7,-27990.01056435379,3654.221354946366,-2.093563380320742E7,-18066.784761491548,3654.221354946366,2.8544972490389187,-1444.6771098714562,557.61072499609,557.6108785825054,-81.97142630549452,0.8250423556696329,9995.594338556608,-179.95055558054887,0.010068085970258298,32.168021515563176,-9.906319270221214,2.7918032520262663,-29.995414274420504,0.09605767163160008,0.9769842453290614,-1.6164063995545312,-49.50254134017798,1077.421125931979,0.0017557970470343963,1455.852083633876,483.041187394386,-1272.43245110277,93.60414279597438,-23691.84687913194,-2.096390384413926,33.90105639108151,-72.24555103663272,0.5231049656867981,278.8643798828125,333.92645263671875,0.8250423556696329
6.599999904632568,-2.093562260358283E7,-28134.38691625951,3709.9688546162697,-2.0935633719428968E7,-18058.496183807547,3709.9688546162706,2.8343650471725836,-1442.8498589388273,557.3382264513424,557.3383773208841,-83.79868968113705,0.7959567135813733,9995.513279747098,-179.9505782641719,0.010221681155142262,32.168021765120585,-10.095692983753114,2.795676757988494,-29.995445948309225,0.09620863644550041,0.979355349126409,-1.6208914356833233,-47.7574028148824,1077.421448006311,0.0017558015145456372,1455.8566583550185,483.04147618618185,-1271.828339918294,89.77759111737582,-23701.73985139722,-2.9655024274873747,14.24694533044385,-24.01133439641721,0.5231040120124817,278.8642272949219,333.92596435546875,0.7959567135813733
6.699999809265137,-2.0935622321196895E7,-28278.580522983033,3765.68879809418,-2.093563363861998E7,-18050.02486212843,3765.68879809418,2.813184565333695,-1441.0222211848618,557.0596034983387,557.0597513152688,-85.6263418189996,0.7658644050598833,9995.4351805764,-179.95060144792805,0.01037520034711808,32.168022005568986,-10.285328251989942,2.7995426989960865,-29.995490860963056,0.09629963587076108,0.9794137743629624,-1.6210439183493577,-45.951864303593,1077.4217583208986,0.0017558058189462878,1455.8610660538823,483.04175443354416,-1271.1736991860548,86.0540034922878,-23710.918162419955,-3.747272170784168,-9.471403334780916,20.227221535775826,0.5231031775474548,278.8641357421875,333.92547607421875,0.7658644050598833
6.800000190734863,-2.0935622040975507E7,-28422.591355442026,3821.3805741284273,-2.0935633560874622E7,-18041.37076726507,3821.380574128428,2.7911107729069355,-1439.1944371042596,556.7748846388872,556.7750290878746,-87.45414204173542,0.7349200928625959,9995.360135078627,-179.95062513189734,0.010528642007086197,32.168022236618995,-10.474766475169462,2.8033921865706093,-29.995532090609945,0.09634339201287692,0.9772000250966386,-1.6178879690932384,-44.09520557175575,1077.4220565021221,0.0017558099550527655,1455.8653014221943,483.04202180145313,-1270.6239571594006,83.59882569809575,-23717.799662746213,-4.214475566826175,-28.788507521843712,47.308093206330824,0.523102343082428,278.8640441894531,333.925048828125,0.7349200928625959
6.900000095367432,-2.0935621762995783E7,-28566.419420373357,3877.0435754854225,-2.0935633486265995E7,-18032.533905855278,3877.0435754854225,2.768400241964366,-1437.366955846262,556.484119322734,556.4842601294048,-89.28164087317835,0.7033797461726294,9995.288216244491,-179.9506493160618,0.01068200439643839,32.168022458045904,-10.663699841130937,2.8071783624679605,-29.995558040591515,0.09636281737648886,0.9734597575296772,-1.6132524176042415,-42.202784770357766,1077.4223422599746,0.0017558139188412875,1455.8693603393165,483.0422780298612,-1270.2785470128545,82.88312276675273,-23721.5856702791,-4.296519040762303,-38.712927338594454,52.818009106375285,0.5231015682220459,278.864013671875,333.9246520996094,0.7033797461726294
7.0,-2.093562148730665E7,-28710.064773057275,3932.6772002879407,-2.093563341483907E7,-18023.514333092462,3932.6772002879407,2.7453493255641392,-1435.5402717605073,556.187362543799,556.1874994849959,-91.10834357313269,0.6715390355146469,9995.219468982837,-179.95067400027048,0.010835285805862295,32.1680226697115,-10.852031925846992,2.8108399049631223,-29.995564835156557,0.09638133147321899,0.9692333746255739,-1.6089864356083485,-40.292342130878815,1077.4226154160283,0.0017558177078358128,1455.873240269501,483.0425229587696,-1270.1618973168931,83.70491746544032,-23722.34512905264,-4.0632334772543235,-38.470277170014015,40.33740629073162,0.5231008529663086,278.8639831542969,333.92425537109375,0.6715390355146469
7.099999904632568,-2.093562121392802E7,-28853.5275144676,3988.280851829234,-2.0935633346609812E7,-18014.31214987723,3988.280851829234,2.7222319033747477,-1433.7147852933726,555.8846606890137,555.8847935916784,-92.93384932529999,0.6396712708031992,9995.153909223727,-179.95069918424727,0.010988484626748311,32.16802287156671,-11.039855794369089,2.814323571376821,-29.995555648678895,0.09641533020109083,0.9654528108676643,-1.6063629531590617,-38.380276248191954,1077.4228759069963,0.0017558213211574852,1455.8769403125266,483.0427565314232,-1270.233265708429,85.42054838650088,-23720.799289431296,-3.6679061356706737,-30.70443935345247,18.314739787018084,0.5231001377105713,278.86395263671875,333.92388916015625,0.6396712708031992
7.199999809265137,-2.0935620942855462E7,-28996.80777745138,4043.853937226153,-2.0935633281569865E7,-18004.927488995694,4043.853937226154,2.699256781762357,-1431.8907267297297,555.5760430002294,555.5761717317212,-94.75792755558184,0.6079849139647264,9995.091528619882,-179.95072486762876,0.011141599261355632,32.1680230636373,-11.227377037247216,2.817598791118821,-29.99553794212033,0.09647066225311732,0.9626726800330926,-1.6058142298166656,-36.479094837883586,1077.4231237660547,0.0017558247592655344,1455.8804609383837,483.0429787775611,-1270.4149283027043,87.25999802893007,-23717.95090830128,-3.2777287259965315,-19.789247323766176,-3.8424769325431782,0.523099422454834,278.8638916015625,333.92352294921875,0.6079849139647264
7.300000190734863,-2.0935620674067605E7,-29139.905708912327,4099.395865580001,-2.0935633219693936E7,-17995.360497299793,4099.395865580001,2.676553598403144,-1430.068151627385,555.2615203010948,555.2616447558592,-96.5805225200356,0.5766094978158923,9995.032301887824,-179.95075105001297,0.011294628088349447,32.16802324600102,-11.414819996251277,2.8206615913168602,-29.995520011777472,0.09654330242948397,0.9609886539337179,-1.607001886395204,-34.59656986895354,1077.4233590936713,0.0017558280235526714,1455.8838035729636,483.04318978726167,-1270.6252934475835,88.6045059608886,-23714.714413961618,-3.0168981539019146,-10.000107513533294,-19.014792399598107,0.5230987668037415,278.8638000488281,333.92315673828125,0.5766094978158923
7.400000095367432,-2.093562040753366E7,-29282.821454524335,4154.906046338765,-2.0935633160947334E7,-17985.611320417454,4154.906046338765,2.6541847413105732,-1428.2469916408845,554.9410899273304,554.9412100148824,-98.40170246770629,0.5456074813715467,9994.976194333129,-179.95077773100127,0.011447569350915109,32.168023418764655,-11.602351338155167,2.8235292329402686,-29.995508127114498,0.09662304593684984,0.9601226576830199,-1.609116100435765,-32.7364488822928,1077.4235820277067,0.0017558311159303426,1455.8869701733574,483.043389684132,-1270.8050301505837,89.1470079518702,-23711.665552770453,-2.937571001903455,-4.173053234884719,-24.0811569548528,0.5230980515480042,278.8636779785156,333.9228210449219,0.5456074813715467
7.5,-2.0935620143218856E7,-29425.55515007547,4210.383888347744,-2.0935633105291374E7,-17975.68009409387,4210.383888347744,2.632173118430128,-1426.427130777402,554.6147439914896,554.6148596291041,-100.22158334847637,0.5150019113434519,9994.923167277058,-179.95080491022205,0.01160042159180873,32.1680235820473,-11.790041114597173,2.8262295578521672,-29.99550502803055,0.09669830582846627,0.959606388050592,-1.6112514570821999,-30.90011468060711,1077.4237927218524,0.0017558340385296389,1455.8899629215894,483.0435786059745,-1270.9296277136057,88.9131192259513,-23708.960787124608,-3.0208336479705316,-3.156544027995551,-19.926387595838065,0.5230974555015564,278.8635559082031,333.9224548339844,0.5150019113434519
7.599999904632568,-2.0935619881086797E7,-29568.1069204092,4265.828799751896,-2.093563305268575E7,-17965.56694313164,4265.828799751896,2.610533049078397,-1424.6084764250047,554.2824776064997,554.2825887176858,-102.04025774276235,0.4848072188403316,9994.873180398215,-179.95083258733368,0.01175318308151396,32.16802373597305,-11.977864468535062,2.8287897535982625,-29.99550992462719,0.09676022525117842,0.9589800429351998,-1.61272023985146,-29.088433130419897,1077.4239913363247,0.0017558367935722374,1455.8927840924587,483.04375669644367,-1271.0077601694413,88.17050832496858,-23706.409995104987,-3.2003839124760325,-6.032848004841071,-10.165551149538004,0.5230967998504639,278.8634338378906,333.922119140625,0.4848072188403316
7.699999809265137,-2.0935619621099055E7,-29710.476884264386,4321.240188602168,-2.093563300308812E7,-17955.271986231,4321.240188602169,2.5892937124716697,-1422.7910037858526,553.9442943946738,553.9444009123979,-103.85775039534732,0.4550525988503189,9994.826191337314,-179.9508607620112,0.011905852193889286,32.16802388067232,-12.165733362234075,2.8312282622263933,-29.99551962664677,0.09680491313769096,0.9579389378072632,-1.6132184638830418,-27.303155931019134,1077.4241780394382,0.0017558393833921819,1455.8954360758441,483.0439241064548,-1271.0694441981436,87.28330153554919,-23703.64148075672,-3.395383068494941,-10.851638624120824,0.688786962676815,0.5230962038040161,278.8633117675781,333.92181396484375,0.4550525988503189
7.800000190734863,-2.0935619363213055E7,-29852.665161856057,4376.617463818582,-2.093563295645199E7,-17944.79534357188,4376.617463818582,2.568509592409792,-1420.9747661642084,553.6002080390485,553.6003099113458,-105.67400791183454,0.4257924379541863,9994.782153571043,-179.9508894339255,0.012058427305019916,32.16802401628819,-12.3535407312472,2.833551625659309,-29.995530160931565,0.09683355402010128,0.9563940348031842,-1.6128280341487242,-25.54754627725118,1077.4243530160516,0.0017558418105530656,1455.897921496698,483.04408100175834,-1271.150367173041,86.57170626227747,-23700.28330845419,-3.539974552404313,-15.509486400984315,8.892309415961279,0.5230956673622131,278.86322021484375,333.9215087890625,0.4257924379541863
7.900000095367432,-2.093561910737957E7,-29994.67188195261,4431.960036117223,-2.0935632912724253E7,-17934.137143892727,4431.960036117224,2.5482578899255848,-1419.1598763543152,553.2502401754496,553.250337370825,-107.48891737342643,0.39710375036143364,9994.741013986084,-179.95091860272427,0.012210906841250698,32.16802414298428,-12.541199858169827,2.8357560461363147,-29.995538238549504,0.09685085876345521,0.9544483541373281,-1.6118949361699788,-23.826225021686017,1077.4245164772065,0.0017558440779817366,1455.900243351962,483.0442275715833,-1271.278260515082,86.22046122875958,-23696.099367864586,-3.600632362784903,-18.464643768831593,12.47632283640803,0.5230951905250549,278.8631286621094,333.9212341308594,0.39710375036143364
8.0,-2.093561885354098E7,-30136.497186177192,4487.267318599991,-2.093563287184338E7,-17923.297528793104,4487.267318599992,2.528627060921558,-1417.3464723198385,552.8944160587479,552.8945085694126,-109.30234067305324,0.36907476503429076,9994.70271103442,-179.95094826801972,0.012363289119457183,32.16802426094995,-12.728667546389795,2.837831977659745,-29.995542139350142,0.09686276392605456,0.9523176756485664,-1.6108531309993568,-22.144485902057447,1077.4246686674592,0.0017558461890699762,1455.9024051146848,483.0443640352095,-1271.4653115524445,86.2533019572911,-23691.04711814996,-3.5789012036989014,-19.08823281453806,11.437610004430013,0.5230947136878967,278.863037109375,333.9209899902344,0.36907476503429076
