time,feVelocity_ft_s_X,feVelocity_ft_s_Y,feVelocity_ft_s_Z,altitudeMsl_ft,longitude_deg,latitude_deg,localGravity_ft_s2,eulerAngle_deg_Yaw,eulerAngle_deg_Pitch,eulerAngle_deg_Roll,bodyAngularRateWrtEi_deg_s_Roll,bodyAngularRateWrtEi_deg_s_Pitch,bodyAngularRateWrtEi_deg_s_Yaw,altitudeRateWrtMsl_ft_min,speedOfSound_ft_s,airDensity_slug_ft3,ambientPressure_lbf_ft2,ambientTemperature_dgR,aero_bodyForce_lbf_X,aero_bodyForce_lbf_Y,aero_bodyForce_lbf_Z,aero_bodyMoment_ftlbf_L,aero_bodyMoment_ftlbf_M,aero_bodyMoment_ftlbf_N,mach,trueAirspeed_nmi_h
0.0,3.67E-15,-9.39E-9,0.0,30000.0,0.0,0.0,32.10653699,0.0,0.0,0.0,0.0,0.0,0.0,0.0,994.8492583,8.90951E-4,629.8546116,411.8392612,-1.75E-9,0.003498757,0.0,0.0,0.0,0.0,0.020103548,11.849676
0.1,1.77E-11,3.72311E-4,3.199482683,29999.84003,4.97E-11,-2.38E-19,32.10653738,-1.74E-25,-2.38E-19,-4.17807E-4,0.0,0.0,0.0,-191.968961,994.8499466,8.90956E-4,629.8591389,411.8398311,1.77E-9,0.003534738,-5.08905E-4,0.0,0.0,0.0,0.020358782,12.00012711
0.2,1.83E-11,8.00071E-4,6.398906765,29999.36011,2.09E-10,-2.37E-19,32.10653876,-1.74E-25,-2.38E-19,-8.35615E-4,0.0,0.0,0.0,-383.9344059,994.8520117,8.90972E-4,629.872771,411.8415408,1.83E-9,0.003656631,-0.001111414,0.0,0.0,0.0,0.021106609,12.44094663
0.3,1.93E-11,0.001291456,9.598266549,29998.56025,4.93E-10,-2.35E-19,32.10654111,-1.74E-25,-2.37E-19,-0.001253423,0.0,0.0,0.0,-575.8959929,994.8554451,8.90998E-4,629.8954474,411.8443835,1.93E-9,0.003856714,-0.001789206,0.0,0.0,0.0,0.022297476,13.14292891
0.4,2.07E-11,0.001853615,12.79755271,29997.44045,9.21E-10,-2.34E-19,32.10654445,-1.74E-25,-2.36E-19,-0.001671231,0.0,0.0,0.0,-767.8531628,994.8602553,8.91034E-4,629.9271791,411.8483661,2.06E-9,0.00412363,-0.002572724,0.0,0.0,0.0,0.023865095,14.06700804
0.5,2.23E-11,0.002492506,15.99675336,29996.00074,1.51E-9,-2.33E-19,32.10654877,-1.74E-25,-2.35E-19,-0.002089039,0.0,0.0,0.0,-959.8052016,994.866442,8.91081E-4,629.9680164,411.8534885,2.22E-9,0.004445371,-0.003484634,0.0,0.0,0.0,0.025740664,15.17263471
0.6,2.41E-11,0.003212938,19.19585474,29994.24111,2.29E-9,-2.32E-19,32.10655408,-1.74E-25,-2.34E-19,-0.002506847,0.0,0.0,0.0,-1151.751284,994.8739972,8.91138E-4,630.0178994,411.8597438,2.41E-9,0.00481097,-0.004540903,0.0,0.0,0.0,0.02786199,16.4231586
0.7,2.61E-11,0.004018725,22.39484182,29992.16157,3.28E-9,-2.31E-19,32.10656036,-1.74E-25,-2.34E-19,-0.002924655,0.0,0.0,0.0,-1343.690509,994.8829289,8.91205E-4,630.0768892,411.867139,2.61E-9,0.005211231,-0.005752433,0.0,0.0,0.0,0.030177214,17.78801954
0.8,2.83E-11,0.004912872,25.59369872,29989.76214,4.5E-9,-2.3E-19,32.10656763,-1.74E-25,-2.33E-19,-0.003342464,0.0,0.0,0.0,-1535.621923,994.8932372,8.91283E-4,630.1449367,411.875674,2.82E-9,0.005638804,-0.007126579,0.0,0.0,0.0,0.032645025,19.24287528
0.9,3.05E-11,0.005897753,28.79240894,29987.04284,5.97E-9,-2.29E-19,32.10657587,-1.74E-25,-2.32E-19,-0.003760273,0.0,0.0,0.0,-1727.544536,994.9049137,8.91371E-4,630.2220322,411.8853419,3.04E-9,0.006087968,-0.008668312,0.0,0.0,0.0,0.035233289,20.76879208
1.0,3.28E-11,0.006975245,31.99095562,29984.00367,7.73E-9,-2.27E-19,32.1065851,-1.74E-25,-2.31E-19,-0.004178082,0.0,0.0,0.0,-1919.457337,994.9179666,8.9147E-4,630.3082373,411.8961497,3.28E-9,0.006554318,-0.010381028,0.0,0.0,0.0,0.037917255,22.3511895
1.1,3.52E-11,0.008146851,35.1893216,29980.64465,9.8E-9,-2.26E-19,32.10659532,-1.74E-25,-2.3E-19,-0.004595891,0.0,0.0,0.0,-2111.359296,994.932396,8.91578E-4,630.4035031,411.9080974,3.52E-9,0.007034472,-0.012267087,0.0,0.0,0.0,0.040677889,23.97885622
1.2,3.77E-11,0.009413783,38.38748954,29976.96581,1.22E-8,-2.25E-19,32.10660651,-1.74E-25,-2.29E-19,-0.005013701,0.0,0.0,0.0,-2303.249372,994.9481935,8.91698E-4,630.5078204,411.921178,3.76E-9,0.007525822,-0.01432816,0.0,0.0,0.0,0.043500501,25.64314028
1.3,4.02E-11,0.010777027,41.58544196,29972.96716,1.5E-8,-2.24E-19,32.10661868,-1.74E-25,-2.28E-19,-0.005431511,0.0,0.0,0.0,-2495.126517,994.9653673,8.91827E-4,630.6212512,411.9353984,4.01E-9,0.00802635,-0.01656547,0.0,0.0,0.0,0.046373674,27.33732078
1.4,4.28E-11,0.012237396,44.78316127,29968.64873,1.81E-8,-2.23E-19,32.10663184,-1.74E-25,-2.27E-19,-0.005849322,0.0,0.0,0.0,-2686.989676,994.9839172,8.91967E-4,630.7437468,411.9507587,4.27E-9,0.00853448,-0.018979928,0.0,0.0,0.0,0.049288464,29.05613399
1.5,4.53E-11,0.013795564,47.98062981,29964.01054,2.17E-8,-2.22E-19,32.10664598,-1.74E-25,-2.26E-19,-0.006267132,0.0,0.0,0.0,-2878.837789,995.0038351,8.92118E-4,630.8752985,411.9672519,4.53E-9,0.009048967,-0.021572232,0.0,0.0,0.0,0.052237803,30.79542033
1.6,4.79E-11,0.015452096,51.17782986,29959.05261,2.56E-8,-2.21E-19,32.1066611,-1.74E-25,-2.25E-19,-0.006684944,0.0,0.0,0.0,-3070.669792,995.025129,8.92278E-4,631.0159686,411.9848849,4.79E-9,0.009568827,-0.024342943,0.0,0.0,0.0,0.055216047,32.55186244
1.7,5.06E-11,0.017207471,54.37474365,29953.77498,3.01E-8,-2.2E-19,32.1066772,-1.74E-25,-2.24E-19,-0.007102756,0.0,0.0,0.0,-3262.484619,995.0477905,8.92449E-4,631.1656983,412.003651,5.05E-9,0.010093269,-0.027292519,0.0,0.0,0.0,0.058218655,34.32279029
1.8,5.32E-11,0.019062097,57.57135336,29948.17767,3.51E-8,-2.19E-19,32.10669428,-1.74E-25,-2.23E-19,-0.007520568,0.0,0.0,0.0,-3454.281202,995.071828,8.92631E-4,631.3245002,412.0235568,5.31E-9,0.010621653,-0.030421343,0.0,0.0,0.0,0.061241934,36.10603572
1.9,5.59E-11,0.021016324,60.76764115,29942.26072,4.05E-8,-2.18E-19,32.10671234,-1.74E-25,-2.22E-19,-0.007938381,0.0,0.0,0.0,-3646.058469,995.0972412,8.92823E-4,631.4923764,412.0446025,5.58E-9,0.011153462,-0.033729759,0.0,0.0,0.0,0.064282858,37.89982299
2.0,5.86E-11,0.023070457,63.96358912,29936.02416,4.66E-8,-2.17E-19,32.10673138,-1.74E-25,-2.21E-19,-0.008356194,0.0,0.0,0.0,-3837.815347,995.1240218,8.93025E-4,631.6693688,412.0667812,5.85E-9,0.011688267,-0.037218068,0.0,0.0,0.0,0.067338928,39.7026858
2.1,6.12E-11,0.025224761,67.15917937,29929.46801,5.32E-8,-2.16E-19,32.10675141,-1.74E-25,-2.2E-19,-0.008774008,0.0,0.0,0.0,-4029.550762,995.1521697,8.93237E-4,631.8554295,412.0900928,6.12E-9,0.012225716,-0.040886553,0.0,0.0,0.0,0.070408059,41.51340399
2.2,6.4E-11,0.027479469,70.35439397,29922.59233,6.04E-8,-2.15E-19,32.10677241,-1.74E-25,-2.19E-19,-0.009191823,0.0,0.0,0.0,-4221.263638,995.1817013,8.9346E-4,632.0505822,412.1145511,6.39E-9,0.012765518,-0.044735481,0.0,0.0,0.0,0.073488502,43.33095477
2.3,6.67E-11,0.029834787,73.54921494,29915.39715,6.82E-8,-2.14E-19,32.1067944,-1.74E-25,-2.18E-19,-0.009609638,0.0,0.0,0.0,-4412.952897,995.2125917,8.93693E-4,632.2547978,412.1401355,6.66E-9,0.013307428,-0.048765106,0.0,0.0,0.0,0.076578782,45.15447477
2.4,6.94E-11,0.0322909,76.74362431,29907.8825,7.67E-8,-2.13E-19,32.10681736,-1.74E-25,-2.17E-19,-0.010027454,0.0,0.0,0.0,-4604.617459,995.2448573,8.93937E-4,632.4681503,412.1668597,6.93E-9,0.013851239,-0.052975673,0.0,0.0,0.0,0.079677638,46.98323044
2.5,7.21E-11,0.03484797,79.93760405,29900.04844,8.59E-8,-2.12E-19,32.10684131,-1.74E-25,-2.16E-19,-0.01044527,0.0,0.0,0.0,-4796.256243,995.2784979,8.94191E-4,632.6905422,412.1947238,7.21E-9,0.014396779,-0.057367435,0.0,0.0,0.0,0.082783995,48.81659463
2.6,7.49E-11,0.037506147,83.13113613,29891.895,9.58E-8,-2.11E-19,32.10686624,-1.74E-25,-2.15E-19,-0.010863087,0.0,0.0,0.0,-4987.868168,995.3134969,8.94455E-4,632.9220558,412.223714,7.48E-9,0.014943902,-0.06194064,0.0,0.0,0.0,0.085896924,50.65402802
2.7,7.76E-11,0.040265564,86.32420249,29883.42223,1.06E-7,-2.1E-19,32.10689214,-1.74E-25,-2.14E-19,-0.011280905,0.0,0.0,0.0,-5179.452149,995.3498789,8.9473E-4,633.1626756,412.2538509,7.76E-9,0.015492481,-0.066695525,0.0,0.0,0.0,0.08901562,52.49506418
2.8,8.04E-11,0.043126343,89.51678503,29874.63017,1.18E-7,-2.09E-19,32.10691903,-1.74E-25,-2.13E-19,-0.011698724,0.0,0.0,0.0,-5371.007102,995.387619,8.95015E-4,633.4123731,412.2851138,8.03E-9,0.016042409,-0.071632344,0.0,0.0,0.0,0.092139384,54.33929765
2.9,8.32E-11,0.046088596,92.70886566,29865.51889,1.3E-7,-2.08E-19,32.1069469,-1.74E-25,-2.12E-19,-0.012116544,0.0,0.0,0.0,-5562.531939,995.4267336,8.9531E-4,633.6711729,412.3175166,8.31E-9,0.016593596,-0.076751356,0.0,0.0,0.0,0.0952676,56.18637414
3.0,8.59E-11,0.049152424,95.90042621,29856.08842,1.43E-7,-2.07E-19,32.10697574,-1.74E-25,-2.11E-19,-0.012534364,0.0,0.0,0.0,-5754.025573,995.4672142,8.95616E-4,633.9390678,412.3510524,8.59E-9,0.017145961,-0.082052807,0.0,0.0,0.0,0.098399729,58.03598259
3.1,8.87E-11,0.052317922,99.09144854,29846.33882,1.57E-7,-2.06E-19,32.10700557,-1.74E-25,-2.1E-19,-0.012952185,0.0,0.0,0.0,-5945.486913,995.509069,8.95932E-4,634.216122,412.385728,8.86E-9,0.017699439,-0.087536971,0.0,0.0,0.0,0.101535289,59.88784866
3.2,9.15E-11,0.055585178,102.2819145,29836.27015,1.72E-7,-2.05E-19,32.10703638,-1.74E-25,-2.09E-19,-0.013370007,0.0,0.0,0.0,-6136.914867,995.5522894,8.96258E-4,634.5022285,412.4215366,9.14E-9,0.01825397,-0.093204105,0.0,0.0,0.0,0.104673859,61.74172934
3.3,9.43E-11,0.058954274,105.4718057,29825.88246,1.87E-7,-2.04E-19,32.10706816,-1.74E-25,-2.08E-19,-0.01378783,0.0,0.0,0.0,-6328.308344,995.5968753,8.96595E-4,634.7974412,412.4584781,9.42E-9,0.018809505,-0.099054496,0.0,0.0,0.0,0.107815056,63.59740844
3.4,9.71E-11,0.062425286,108.6611041,29815.17581,2.04E-7,-2.03E-19,32.10710092,-1.74E-25,-2.07E-19,-0.014205654,0.0,0.0,0.0,-6519.666247,995.6428266,8.96942E-4,635.101764,412.4965526,9.7E-9,0.019366001,-0.105088417,0.0,0.0,0.0,0.110958542,65.45469288
3.5,9.99E-11,0.065998286,111.8497914,29804.15026,2.21E-7,-2.02E-19,32.10713467,-1.74E-25,-2.06E-19,-0.014623479,0.0,0.0,0.0,-6710.987482,995.690143,8.97299E-4,635.415201,412.53576,9.98E-9,0.019923417,-0.111306148,0.0,0.0,0.0,0.114104008,67.31340953
3.6,1.03E-10,0.069673342,115.0378491,29792.80587,2.4E-7,-2.01E-19,32.10716939,-1.74E-25,-2.05E-19,-0.015041305,0.0,0.0,0.0,-6902.270948,995.7388326,8.97667E-4,635.7377669,412.5761073,1.03E-8,0.020481724,-0.117707989,0.0,0.0,0.0,0.117251178,69.17340258
3.7,1.05E-10,0.073450517,118.2252591,29781.14271,2.6E-7,-2.0E-19,32.10720509,-1.74E-25,-2.04E-19,-0.015459132,0.0,0.0,0.0,-7093.515547,995.7888787,8.98045E-4,636.0694448,412.6175807,1.05E-8,0.021040894,-0.124294241,0.0,0.0,0.0,0.120399801,71.0345313
3.8,1.08E-10,0.077329873,121.4120029,29769.16084,2.8E-7,-1.99E-19,32.10724177,-1.74E-25,-2.03E-19,-0.01587696,0.0,0.0,0.0,-7284.720177,995.8402976,8.98433E-4,636.4102102,412.6601939,1.08E-8,0.021600902,-0.131065212,0.0,0.0,0.0,0.123549645,72.89666815
3.9,1.11E-10,0.081311467,124.5980622,29756.86033,3.02E-7,-1.98E-19,32.10727942,-1.74E-25,-2.02E-19,-0.016294789,0.0,0.0,0.0,-7475.883733,995.8930808,8.98832E-4,636.7601574,412.7039401,1.11E-8,0.022161728,-0.138021216,0.0,0.0,0.0,0.126700503,74.75969712
4.0,1.14E-10,0.085395355,127.7834185,29744.24125,3.25E-7,-1.97E-19,32.10731806,-1.74E-25,-2.01E-19,-0.016712619,0.0,0.0,0.0,-7667.005111,995.9472198,8.99241E-4,637.1191801,412.7488124,1.14E-8,0.022723356,-0.145162576,0.0,0.0,0.0,0.129852182,76.62351239
4.1,1.17E-10,0.08958159,130.9680534,29731.30367,3.49E-7,-1.96E-19,32.10735767,-1.74E-25,-2.0E-19,-0.01713045,0.0,0.0,0.0,-7858.083202,996.002731,8.9966E-4,637.4873544,412.7948245,1.17E-8,0.023285767,-0.152489608,0.0,0.0,0.0,0.133004504,78.48801707
4.2,1.2E-10,0.093870223,134.1519483,29718.04766,3.74E-7,-1.95E-19,32.10739826,-1.74E-25,-1.99E-19,-0.017548282,0.0,0.0,0.0,-8049.116898,996.0596058,9.0009E-4,637.8646244,412.8419696,1.2E-8,0.023848953,-0.16000266,0.0,0.0,0.0,0.136157305,80.35312223
4.3,1.22E-10,0.098261303,137.3350848,29704.47331,4.0E-7,-1.94E-19,32.10743982,-1.74E-25,-1.98E-19,-0.017966116,0.0,0.0,0.0,-8240.105086,996.1178358,9.0053E-4,638.2510849,412.8902408,1.22E-8,0.024412901,-0.167702076,0.0,0.0,0.0,0.139310436,82.21874597
4.4,1.25E-10,0.102754879,140.5174442,29690.58067,4.27E-7,-1.93E-19,32.10748237,-1.74E-25,-1.97E-19,-0.018383951,0.0,0.0,0.0,-8431.046653,996.177429,9.0098E-4,638.646601,412.9396449,1.25E-8,0.024977602,-0.175588193,0.0,0.0,0.0,0.142463754,84.08481264
4.5,1.28E-10,0.107350996,143.6990081,29676.36984,4.56E-7,-1.92E-19,32.10752589,-1.74E-25,-1.96E-19,-0.018801787,0.0,0.0,0.0,-8621.940483,996.2383851,9.01441E-4,639.0513287,412.990182,1.28E-8,0.02554305,-0.183661381,0.0,0.0,0.0,0.145617127,85.95125219
4.6,1.31E-10,0.112049699,146.8797576,29661.8409,4.86E-7,-1.91E-19,32.10757038,-1.74E-25,-1.95E-19,-0.019219624,0.0,0.0,0.0,-8812.785458,996.3007039,9.01912E-4,639.4651728,413.0418521,1.31E-8,0.026109241,-0.191922006,0.0,0.0,0.0,0.148770431,87.81799954
4.7,1.34E-10,0.116851033,150.0596743,29646.99392,5.17E-7,-1.9E-19,32.10761586,-1.74E-25,-1.94E-19,-0.019637463,0.0,0.0,0.0,-9003.580458,996.3643851,9.02393E-4,639.8881891,413.0946552,1.34E-8,0.026676167,-0.200370426,0.0,0.0,0.0,0.151923553,89.68499411
4.8,1.37E-10,0.121755039,153.2387393,29631.82899,5.5E-7,-1.89E-19,32.1076623,-1.74E-25,-1.93E-19,-0.020055302,0.0,0.0,0.0,-9194.324361,996.4294203,9.02885E-4,640.3203223,413.1485843,1.37E-8,0.027243826,-0.209007019,0.0,0.0,0.0,0.155076384,91.55217931
4.9,1.4E-10,0.12676176,156.416934,29616.3462,5.84E-7,-1.88E-19,32.10770973,-1.74E-25,-1.92E-19,-0.020473144,0.0,0.0,0.0,-9385.016041,996.4958173,9.03387E-4,640.7615888,413.2036464,1.4E-8,0.027812217,-0.217832187,0.0,0.0,0.0,0.15822882,93.41950218
5.0,1.43E-10,0.131871236,159.5942395,29600.54564,6.19E-7,-1.87E-19,32.10775813,-1.74E-25,-1.91E-19,-0.020890986,0.0,0.0,0.0,-9575.654372,996.5635677,9.03899E-4,641.212034,413.2598346,1.42E-8,0.02838134,-0.226846325,0.0,0.0,0.0,0.161380765,95.28691301
5.1,1.45E-10,0.137083508,162.7706371,29584.42738,6.56E-7,-1.86E-19,32.1078075,-1.74E-25,-1.9E-19,-0.02130883,0.0,0.0,0.0,-9766.238224,996.6326794,9.04421E-4,641.6716243,413.3171558,1.45E-8,0.028951189,-0.236049798,0.0,0.0,0.0,0.164532128,97.15436503
5.2,1.48E-10,0.142398614,165.9461078,29567.99154,6.94E-7,-1.85E-19,32.10785785,-1.74E-25,-1.89E-19,-0.021726676,0.0,0.0,0.0,-9956.766466,996.7031522,9.04954E-4,642.1404159,413.3756099,1.48E-8,0.02952177,-0.245443049,0.0,0.0,0.0,0.167682819,99.02181415
5.3,1.51E-10,0.147816595,169.1206327,29551.23819,7.34E-7,-1.84E-19,32.10790918,-1.74E-25,-1.88E-19,-0.022144523,0.0,0.0,0.0,-10147.23796,996.7749775,9.05497E-4,642.6183543,413.4351901,1.51E-8,0.030093083,-0.255026494,0.0,0.0,0.0,0.170832758,100.8892187
5.4,1.54E-10,0.153337487,172.2941929,29534.16744,7.75E-7,-1.83E-19,32.10796148,-1.74E-25,-1.87E-19,-0.022562371,0.0,0.0,0.0,-10337.65158,996.848155,9.0605E-4,643.1054457,413.4958965,1.54E-8,0.030665127,-0.264800516,0.0,0.0,0.0,0.173981864,102.7565391
5.5,1.57E-10,0.158961346,175.4667693,29516.77939,8.18E-7,-1.82E-19,32.10801475,-1.74E-25,-1.86E-19,-0.022980221,0.0,0.0,0.0,-10528.00616,996.9226927,9.0663E-4,643.6133737,413.5577357,1.57E-8,0.03123838,-0.274769747,0.0,0.0,0.0,0.17713006,104.6237379
5.6,1.6E-10,0.164688278,178.6383422,29499.07412,8.62E-7,-1.81E-19,32.108069,-1.74E-25,-1.85E-19,-0.023398073,0.0,0.0,0.0,-10718.30053,996.9985821,9.07231E-4,644.1379652,413.6207011,1.6E-8,0.031812848,-0.284934877,0.0,0.0,0.0,0.180277274,106.4907791
5.7,1.63E-10,0.170518332,181.8088924,29481.05175,9.08E-7,-1.8E-19,32.10812422,-1.74E-25,-1.84E-19,-0.023815926,0.0,0.0,0.0,-10908.53355,997.0758227,9.07843E-4,644.672037,413.6847926,1.63E-8,0.032388104,-0.295292651,0.0,0.0,0.0,0.183423436,108.3576284
5.8,1.66E-10,0.176451548,184.9784007,29462.71238,9.55E-7,-1.79E-19,32.10818041,-1.74E-25,-1.83E-19,-0.02423378,0.0,0.0,0.0,-11098.70404,997.1544143,9.08465E-4,645.215697,413.7500102,1.66E-8,0.032964155,-0.30584357,0.0,0.0,0.0,0.186568478,110.2242533
5.9,1.69E-10,0.182487968,188.1468478,29444.05611,1.0E-6,-1.78E-19,32.10823758,-1.74E-25,-1.82E-19,-0.024651637,0.0,0.0,0.0,-11288.81087,997.2343649,9.09098E-4,645.7688624,413.8163608,1.69E-8,0.033541004,-0.316588123,0.0,0.0,0.0,0.189712334,112.0906228
6.0,1.72E-10,0.188627633,191.3142145,29425.08305,1.06E-6,-1.77E-19,32.10829572,-1.74E-25,-1.81E-19,-0.025069495,0.0,0.0,0.0,-11478.85287,997.3156575,9.09742E-4,646.3315695,413.8838306,1.71E-8,0.034118657,-0.327526806,0.0,0.0,0.0,0.192854942,113.9567069
6.1,1.75E-10,0.194870583,194.4804814,29405.7933,1.11E-6,-1.76E-19,32.10835483,-1.74E-25,-1.8E-19,-0.025487354,0.0,0.0,0.0,-11668.82888,997.3983085,9.10397E-4,646.9038472,413.9524333,1.74E-8,0.03469712,-0.338660122,0.0,0.0,0.0,0.19599624,115.8224769
6.2,1.77E-10,0.201216859,197.6456291,29386.18699,1.16E-6,-1.75E-19,32.10841492,-1.74E-25,-1.79E-19,-0.025905216,0.0,0.0,0.0,-11858.73775,997.4823091,9.11062E-4,647.4856419,414.0221622,1.77E-8,0.035276395,-0.349988554,0.0,0.0,0.0,0.19913617,117.6879052
6.3,1.8E-10,0.2076665,200.8096381,29366.26422,1.22E-6,-1.74E-19,32.10847597,-1.74E-25,-1.78E-19,-0.026323079,0.0,0.0,0.0,-12048.57829,997.5676508,9.11738E-4,648.0770011,414.0930103,1.8E-8,0.035856491,-0.361512644,0.0,0.0,0.0,0.202274676,119.552965
6.4,1.83E-10,0.214219548,203.972489,29346.0251,1.28E-6,-1.73E-19,32.108538,-1.74E-25,-1.77E-19,-0.026740944,0.0,0.0,0.0,-12238.34934,997.6543414,9.12425E-4,648.6779433,414.1649844,1.83E-8,0.036437413,-0.373232917,0.0,0.0,0.0,0.2054117,121.4176307
6.5,1.86E-10,0.220876042,207.1341622,29325.46976,1.33E-6,-1.71E-19,32.10860099,-1.74E-25,-1.76E-19,-0.027158811,0.0,0.0,0.0,-12428.04973,997.7423807,9.13122E-4,649.2884261,414.2380847,1.86E-8,0.037019162,-0.385149845,0.0,0.0,0.0,0.208547188,123.2818772
6.6,1.89E-10,0.227636021,210.2946381,29304.59831,1.4E-6,-1.7E-19,32.10866496,-1.74E-25,-1.75E-19,-0.027576679,0.0,0.0,0.0,-12617.67828,997.8317683,9.1383E-4,649.9084575,414.3123111,1.89E-8,0.037601753,-0.397264053,0.0,0.0,0.0,0.211681087,125.1456804
6.7,1.92E-10,0.234499526,213.453897,29283.41087,1.46E-6,-1.69E-19,32.1087299,-1.74E-25,-1.73E-19,-0.02799455,0.0,0.0,0.0,-12807.23382,997.9224956,9.14549E-4,650.5380855,414.3876567,1.92E-8,0.038185187,-0.409576026,0.0,0.0,0.0,0.214813347,127.0090168
6.8,1.95E-10,0.241466596,216.6119192,29261.90757,1.52E-6,-1.68E-19,32.10879581,-1.74E-25,-1.72E-19,-0.028412422,0.0,0.0,0.0,-12996.71515,998.0145703,9.15279E-4,651.1772786,414.4641284,1.95E-8,0.03876947,-0.422086312,0.0,0.0,0.0,0.217943915,128.8718638
6.9,1.98E-10,0.24853727,219.768685,29240.08853,1.59E-6,-1.67E-19,32.10886269,-1.74E-25,-1.71E-19,-0.028830296,0.0,0.0,0.0,-13186.1211,998.1079923,9.1602E-4,651.8260958,414.5417262,1.98E-8,0.039354608,-0.434795468,0.0,0.0,0.0,0.221072741,130.7341989
7.0,2.01E-10,0.255711589,222.9241745,29217.95388,1.66E-6,-1.66E-19,32.10893053,-1.74E-25,-1.7E-19,-0.029248172,0.0,0.0,0.0,-13375.45047,998.2027528,9.16771E-4,652.484434,414.6204433,2.01E-8,0.039940608,-0.447704057,0.0,0.0,0.0,0.22419978,132.5960007
7.1,2.04E-10,0.26298959,226.0783678,29195.50374,1.73E-6,-1.65E-19,32.10899935,-1.74E-25,-1.69E-19,-0.02966605,0.0,0.0,0.0,-13564.70207,998.2988515,9.17533E-4,653.1524026,414.7002795,2.04E-8,0.040527481,-0.460812683,0.0,0.0,0.0,0.227324983,134.457248
7.2,2.07E-10,0.270371314,229.231245,29172.73825,1.8E-6,-1.64E-19,32.10906913,-1.74E-25,-1.68E-19,-0.03008393,0.0,0.0,0.0,-13753.8747,998.3962962,9.18305E-4,653.829971,414.7812419,2.07E-8,0.041115229,-0.474121889,0.0,0.0,0.0,0.230448301,136.3179202
7.3,2.1E-10,0.277856799,232.3827861,29149.65753,1.88E-6,-1.63E-19,32.10913988,-1.74E-25,-1.67E-19,-0.030501813,0.0,0.0,0.0,-13942.96717,998.4950783,9.19088E-4,654.5171372,414.8633235,2.1E-8,0.041703861,-0.487632256,0.0,0.0,0.0,0.23356969,138.177997
7.4,2.13E-10,0.285446085,235.5329711,29126.26173,1.96E-6,-1.62E-19,32.1092116,-1.74E-25,-1.66E-19,-0.030919697,0.0,0.0,0.0,-14131.97826,998.5951974,9.19882E-4,655.2139102,414.9465244,2.13E-8,0.042293379,-0.501344335,0.0,0.0,0.0,0.236689105,140.0374587
7.5,2.16E-10,0.29313921,238.6817797,29102.55099,2.04E-6,-1.61E-19,32.10928428,-1.74E-25,-1.65E-19,-0.031337583,0.0,0.0,0.0,-14320.90678,998.6966613,9.20687E-4,655.9202596,415.0308513,2.16E-8,0.042883797,-0.515258797,0.0,0.0,0.0,0.2398065,141.8962859
7.6,2.19E-10,0.300936213,241.829192,29078.52543,2.12E-6,-1.6E-19,32.10935794,-1.74E-25,-1.64E-19,-0.031755471,0.0,0.0,0.0,-14509.75152,998.7994531,9.21502E-4,656.6362738,415.1162906,2.19E-8,0.043475115,-0.529376165,0.0,0.0,0.0,0.242921833,143.7544595
7.7,2.22E-10,0.308837133,244.9751875,29054.18519,2.2E-6,-1.59E-19,32.10943255,-1.74E-25,-1.63E-19,-0.032173362,0.0,0.0,0.0,-14698.51125,998.9035807,9.22328E-4,657.3618723,415.2028491,2.22E-8,0.044067344,-0.543697084,0.0,0.0,0.0,0.246035061,145.6119609
7.8,2.25E-10,0.316842009,248.119746,29029.53044,2.29E-6,-1.58E-19,32.10950814,-1.74E-25,-1.62E-19,-0.032591255,0.0,0.0,0.0,-14887.18476,999.0090519,9.23165E-4,658.0971259,415.2905338,2.25E-8,0.044660491,-0.558222168,0.0,0.0,0.0,0.249146138,147.4687716
7.9,2.28E-10,0.324950879,251.2628472,29004.56129,2.37E-6,-1.57E-19,32.10958469,-1.74E-25,-1.61E-19,-0.03300915,0.0,0.0,0.0,-15075.77083,999.1158497,9.24012E-4,658.8419719,415.3793307,2.28E-8,0.045254563,-0.572952036,0.0,0.0,0.0,0.252255025,149.3248735
8.0,2.31E-10,0.333163782,254.4044707,28979.27792,2.46E-6,-1.56E-19,32.1096622,-1.74E-25,-1.6E-19,-0.033427047,0.0,0.0,0.0,-15264.26824,999.2239738,9.2487E-4,659.5965211,415.4692401,2.31E-8,0.045849563,-0.587887269,0.0,0.0,0.0,0.255361682,151.1802487
8.1,2.35E-10,0.341480756,257.5445959,28953.68045,2.56E-6,-1.55E-19,32.10974068,-1.74E-25,-1.59E-19,-0.033844946,0.0,0.0,0.0,-15452.67575,999.3334402,9.25739E-4,660.3606537,415.5602756,2.34E-8,0.046445499,-0.603028495,0.0,0.0,0.0,0.258466062,153.0348797
8.2,2.38E-10,0.34990184,260.6832023,28927.76905,2.65E-6,-1.54E-19,32.10982012,-1.74E-25,-1.58E-19,-0.034262848,0.0,0.0,0.0,-15640.99214,999.4442319,9.26618E-4,661.1344588,415.6524234,2.38E-8,0.04704238,-0.618376393,0.0,0.0,0.0,0.261568129,154.888749
8.3,2.41E-10,0.35842707,263.8202693,28901.54386,2.75E-6,-1.53E-19,32.10990053,-1.74E-25,-1.57E-19,-0.034680752,0.0,0.0,0.0,-15829.21616,999.5563569,9.27508E-4,661.917907,415.7456905,2.41E-8,0.047640211,-0.633931559,0.0,0.0,0.0,0.26466784,156.7418394
8.4,2.44E-10,0.367056487,266.9557762,28875.00505,2.85E-6,-1.52E-19,32.1099819,-1.74E-25,-1.56E-19,-0.035098658,0.0,0.0,0.0,-16017.34657,999.6698063,9.28409E-4,662.7110482,415.8400699,2.44E-8,0.048238998,-0.649694638,0.0,0.0,0.0,0.267765158,158.5941341
8.5,2.47E-10,0.375790126,270.0897023,28848.15276,2.95E-6,-1.5E-19,32.11006423,-1.74E-25,-1.55E-19,-0.035516567,0.0,0.0,0.0,-16205.38214,999.7845797,9.2932E-4,663.5137914,415.9355617,2.47E-8,0.048838751,-0.665666329,0.0,0.0,0.0,0.270860042,160.4456161
8.6,2.5E-10,0.384628027,273.2220269,28820.98716,3.05E-6,-1.49E-19,32.11014753,-1.73E-25,-1.54E-19,-0.035934478,0.0,0.0,0.0,-16393.32161,999.9006849,9.30242E-4,664.3262594,416.0321727,2.5E-8,0.049439474,-0.681847241,0.0,0.0,0.0,0.273952451,162.2962689
8.7,2.53E-10,0.393570227,276.3527289,28793.50841,3.16E-6,-1.48E-19,32.11023178,-1.73E-25,-1.53E-19,-0.036352392,0.0,0.0,0.0,-16581.16373,1000.018113,9.31174E-4,665.148401,416.1298961,2.53E-8,0.05004117,-0.698237981,0.0,0.0,0.0,0.277042348,164.146076
8.8,2.56E-10,0.402616762,279.4817875,28765.71667,3.27E-6,-1.47E-19,32.110317,-1.73E-25,-1.52E-19,-0.036770308,0.0,0.0,0.0,-16768.90725,1000.136856,9.32117E-4,665.9801655,416.228725,2.56E-8,0.050643853,-0.714839321,0.0,0.0,0.0,0.280129696,165.9950211
8.9,2.59E-10,0.411767671,282.6091817,28737.61211,3.38E-6,-1.46E-19,32.11040318,-1.73E-25,-1.5E-19,-0.037188226,0.0,0.0,0.0,-16956.5509,1000.256929,9.33071E-4,666.8216868,416.3286731,2.59E-8,0.051247526,-0.73165188,0.0,0.0,0.0,0.283214453,167.843088
9.0,2.62E-10,0.421022991,285.7348905,28709.19489,3.49E-6,-1.45E-19,32.11049031,-1.73E-25,-1.49E-19,-0.037606147,0.0,0.0,0.0,-17144.09343,1000.378324,9.34035E-4,667.6728636,416.4297336,2.62E-8,0.051852192,-0.748676278,0.0,0.0,0.0,0.286296582,169.6902606
9.1,2.66E-10,0.430382758,288.8588926,28680.46519,3.61E-6,-1.44E-19,32.11057841,-1.73E-25,-1.48E-19,-0.038024071,0.0,0.0,0.0,-17331.53356,1000.50104,9.3501E-4,668.5337577,416.5319064,2.65E-8,0.05245786,-0.76591325,0.0,0.0,0.0,0.289376046,171.536523
9.2,2.69E-10,0.439847009,291.9811669,28651.42317,3.73E-6,-1.43E-19,32.11066747,-1.73E-25,-1.47E-19,-0.038441997,0.0,0.0,0.0,-17518.87001,1000.625077,9.35996E-4,669.4043801,416.6351917,2.69E-8,0.053064539,-0.783363483,0.0,0.0,0.0,0.292452806,173.3818594
9.3,2.72E-10,0.44941578,295.1016921,28622.06901,3.85E-6,-1.42E-19,32.11075748,-1.73E-25,-1.46E-19,-0.038859926,0.0,0.0,0.0,-17706.10153,1000.750426,9.36992E-4,670.2846804,416.7395824,2.72E-8,0.053672229,-0.801027607,0.0,0.0,0.0,0.295526828,175.226254
9.4,2.75E-10,0.459089109,298.2204469,28592.40289,3.97E-6,-1.41E-19,32.11084846,-1.73E-25,-1.45E-19,-0.039277857,0.0,0.0,0.0,-17893.22681,1000.877086,9.37999E-4,671.17467,416.8450786,2.75E-8,0.054280941,-0.818906376,0.0,0.0,0.0,0.298598075,177.0696912
9.5,2.78E-10,0.468867031,301.3374098,28562.42498,4.1E-6,-1.4E-19,32.11094039,-1.73E-25,-1.44E-19,-0.039695791,0.0,0.0,0.0,-18080.24459,1001.005074,9.39016E-4,672.0744333,416.951694,2.78E-8,0.054890678,-0.837000427,0.0,0.0,0.0,0.301666503,178.9121553
9.6,2.81E-10,0.478749581,304.4525594,28532.13547,4.23E-6,-1.39E-19,32.11103328,-1.73E-25,-1.43E-19,-0.040113728,0.0,0.0,0.0,-18267.15357,1001.134364,9.40044E-4,672.9839485,417.0594081,2.81E-8,0.055501445,-0.855310461,0.0,0.0,0.0,0.304732084,180.7536311
9.7,2.84E-10,0.488736796,307.5658742,28501.53453,4.36E-6,-1.38E-19,32.11112712,-1.73E-25,-1.42E-19,-0.040531667,0.0,0.0,0.0,-18453.95245,1001.264972,9.41082E-4,673.9031483,417.1682346,2.84E-8,0.056113249,-0.873837184,0.0,0.0,0.0,0.307794776,182.5941029
9.8,2.88E-10,0.49882871,310.6773325,28470.62235,4.5E-6,-1.37E-19,32.11122192,-1.73E-25,-1.41E-19,-0.040949609,0.0,0.0,0.0,-18640.63995,1001.39689,9.42131E-4,674.8321348,417.2781665,2.88E-8,0.056726099,-0.892581372,0.0,0.0,0.0,0.310854544,184.4335555
9.9,2.91E-10,0.509025359,313.7869126,28439.39913,4.63E-6,-1.36E-19,32.11131768,-1.73E-25,-1.4E-19,-0.041367554,0.0,0.0,0.0,-18827.21475,1001.530116,9.43191E-4,675.7708184,417.3892039,2.91E-8,0.057339998,-0.911543675,0.0,0.0,0.0,0.313911353,186.2719736
10.0,2.94E-10,0.519326777,316.8945927,28407.86504,4.77E-6,-1.35E-19,32.11141439,-1.73E-25,-1.39E-19,-0.041785502,0.0,0.0,0.0,-19013.67556,1001.66466,9.44261E-4,676.7192732,417.5013538,2.94E-8,0.057954947,-0.93072474,0.0,0.0,0.0,0.316965163,188.109342
10.1,2.97E-10,0.529732999,320.0003511,28376.02027,4.92E-6,-1.34E-19,32.11151205,-1.73E-25,-1.38E-19,-0.042203453,0.0,0.0,0.0,-19200.02107,1001.800503,9.45341E-4,677.6775397,417.6146022,2.97E-8,0.05857096,-0.950125428,0.0,0.0,0.0,0.320015944,189.9456455
10.2,3.01E-10,0.540244058,323.1041658,28343.86503,5.06E-6,-1.32E-19,32.11161067,-1.73E-25,-1.37E-19,-0.042621406,0.0,0.0,0.0,-19386.24995,1001.937653,9.46433E-4,678.64554,417.7289561,3.0E-8,0.059188035,-0.969746324,0.0,0.0,0.0,0.323063656,191.7808689
10.3,3.04E-10,0.550859989,326.2060149,28311.39951,5.21E-6,-1.31E-19,32.11171024,-1.73E-25,-1.36E-19,-0.043039362,0.0,0.0,0.0,-19572.36089,1002.076102,9.47534E-4,679.6232751,417.8444087,3.04E-8,0.059806176,-0.989588152,0.0,0.0,0.0,0.326108267,193.6149972
10.4,3.07E-10,0.561580825,329.3058763,28278.62389,5.37E-6,-1.3E-19,32.11181077,-1.73E-25,-1.35E-19,-0.043457321,0.0,0.0,0.0,-19758.35258,1002.215857,9.48647E-4,680.6108705,417.9609668,3.07E-8,0.060425398,-1.009651794,0.0,0.0,0.0,0.329149739,195.4480152
10.5,3.1E-10,0.572406598,332.4037278,28245.5384,5.52E-6,-1.29E-19,32.11191224,-1.73E-25,-1.34E-19,-0.043875284,0.0,0.0,0.0,-19944.22367,1002.356918,9.49769E-4,681.6081863,418.0786304,3.1E-8,0.061045697,-1.029937835,0.0,0.0,0.0,0.332188034,197.2799081
10.6,3.13E-10,0.583337342,335.4995474,28212.14322,5.68E-6,-1.28E-19,32.11201467,-1.73E-25,-1.33E-19,-0.044293249,0.0,0.0,0.0,-20129.97284,1002.499276,9.50903E-4,682.6153257,418.1973926,3.13E-8,0.061667078,-1.050447014,0.0,0.0,0.0,0.335223121,199.1106607
10.7,3.17E-10,0.594373089,338.5933126,28178.43856,5.84E-6,-1.27E-19,32.11211805,-1.73E-25,-1.32E-19,-0.044711217,0.0,0.0,0.0,-20315.59876,1002.642939,9.52046E-4,683.6323127,418.3172603,3.17E-8,0.062289547,-1.071180068,0.0,0.0,0.0,0.338254962,200.9402581
10.8,3.2E-10,0.60551387,341.6850012,28144.42462,6.0E-6,-1.26E-19,32.11222237,-1.73E-25,-1.31E-19,-0.045129188,0.0,0.0,0.0,-20501.10007,1002.787889,9.53201E-4,684.6590363,418.4382198,3.2E-8,0.062913113,-1.092137821,0.0,0.0,0.0,0.341283526,202.7686854
10.9,3.23E-10,0.616759717,344.7745908,28110.10163,6.17E-6,-1.25E-19,32.11232765,-1.73E-25,-1.3E-19,-0.045547162,0.0,0.0,0.0,-20686.47545,1002.934143,9.54365E-4,685.6955827,418.5602847,3.23E-8,0.063537772,-1.113320859,0.0,0.0,0.0,0.344308773,204.5959277
11.0,3.27E-10,0.62811066,347.8620589,28075.46978,6.34E-6,-1.24E-19,32.11243388,-1.73E-25,-1.29E-19,-0.04596514,0.0,0.0,0.0,-20871.72353,1003.081683,9.55541E-4,686.7419935,418.6834415,3.27E-8,0.064163537,-1.134730095,0.0,0.0,0.0,0.347330673,206.4219699
11.1,3.3E-10,0.639566731,350.9473829,28040.52929,6.51E-6,-1.23E-19,32.11254105,-1.73E-25,-1.27E-19,-0.04638312,0.0,0.0,0.0,-21056.84297,1003.230526,9.56726E-4,687.7982028,418.8077037,3.3E-8,0.064790409,-1.156366198,0.0,0.0,0.0,0.350349186,208.2467973
11.2,3.33E-10,0.651127959,354.0305401,28005.28037,6.69E-6,-1.22E-19,32.11264917,-1.73E-25,-1.26E-19,-0.046801103,0.0,0.0,0.0,-21241.83241,1003.380654,9.57922E-4,688.8642524,418.9330577,3.33E-8,0.065418387,-1.178229836,0.0,0.0,0.0,0.353364282,210.0703949
11.3,3.37E-10,0.662794374,357.1115079,27969.72325,6.87E-6,-1.21E-19,32.11275824,-1.73E-25,-1.25E-19,-0.04721909,0.0,0.0,0.0,-21426.69048,1003.532075,9.59129E-4,689.940167,419.0595103,3.36E-8,0.06604748,-1.200321851,0.0,0.0,0.0,0.356375923,211.8927478
11.4,3.4E-10,0.674566005,360.1902635,27933.85815,7.05E-6,-1.2E-19,32.11286826,-1.73E-25,-1.24E-19,-0.04763708,0.0,0.0,0.0,-21611.41581,1003.68478,9.60346E-4,691.0258979,419.1870547,3.4E-8,0.066677689,-1.222642912,0.0,0.0,0.0,0.359384077,213.7138412
11.5,3.43E-10,0.68644288,363.266784,27897.68527,7.24E-6,-1.19E-19,32.11297922,-1.73E-25,-1.23E-19,-0.048055073,0.0,0.0,0.0,-21796.00704,1003.838777,9.61574E-4,692.1215213,419.3156978,3.43E-8,0.067309021,-1.245193869,0.0,0.0,0.0,0.362388707,215.5336602
11.6,3.47E-10,0.698425126,366.3410446,27861.20486,7.43E-6,-1.18E-19,32.11309112,-1.73E-25,-1.22E-19,-0.04847307,0.0,0.0,0.0,-21980.46268,1003.994057,9.62852E-4,693.2564683,419.4454326,3.46E-8,0.06794396,-1.268021754,0.0,0.0,0.0,0.36538978,217.3521888
11.7,3.5E-10,0.71051306,369.4130167,27824.41714,7.62E-6,-1.17E-19,32.11320397,-1.73E-25,-1.21E-19,-0.048891069,0.0,0.0,0.0,-22164.781,1004.15062,9.64159E-4,694.4136381,419.5762592,3.5E-8,0.068581691,-1.291113123,0.0,0.0,0.0,0.368387254,219.1694089
11.8,3.53E-10,0.722706734,372.4826766,27787.32234,7.82E-6,-1.16E-19,32.11331776,-1.73E-25,-1.21E-19,-0.049309072,0.0,0.0,0.0,-22348.9606,1004.308464,9.65476E-4,695.5811145,419.7081775,3.53E-8,0.06922065,-1.314439805,0.0,0.0,0.0,0.371381095,220.9853051
11.9,3.57E-10,0.735006184,375.5500009,27749.92069,8.02E-6,-1.15E-19,32.1134325,-1.73E-25,-1.2E-19,-0.049727079,0.0,0.0,0.0,-22533.00006,1004.46759,9.66805E-4,696.7588102,419.8411876,3.57E-8,0.069860842,-1.338002624,0.0,0.0,0.0,0.374371268,222.7998625
12.0,3.6E-10,0.747411443,378.614966,27712.21242,8.22E-6,-1.14E-19,32.11354818,-1.73E-25,-1.19E-19,-0.050145089,0.0,0.0,0.0,-22716.89796,1004.627996,9.68144E-4,697.9467911,419.9752895,3.6E-8,0.070502266,-1.361802308,0.0,0.0,0.0,0.377357737,224.6130659
12.1,3.63E-10,0.759922546,381.6775482,27674.19777,8.43E-6,-1.13E-19,32.11366479,-1.73E-25,-1.18E-19,-0.050563102,0.0,0.0,0.0,-22900.65289,1004.789682,9.69494E-4,699.1450213,420.1104831,3.63E-8,0.071144935,-1.385839885,0.0,0.0,0.0,0.380340469,226.4249003
12.2,3.67E-10,0.772539527,384.7377238,27635.87699,8.64E-6,-1.12E-19,32.11378235,-1.73E-25,-1.17E-19,-0.050981118,0.0,0.0,0.0,-23084.26343,1004.952639,9.70855E-4,700.3535556,420.2467616,3.67E-8,0.071788839,-1.410115881,0.0,0.0,0.0,0.383319432,228.2353505
12.3,3.7E-10,0.785262419,387.7954689,27597.25031,8.85E-6,-1.11E-19,32.11390085,-1.73E-25,-1.16E-19,-0.051399138,0.0,0.0,0.0,-23267.72814,1005.116867,9.72227E-4,701.5724091,420.3841251,3.7E-8,0.072433989,-1.434631329,0.0,0.0,0.0,0.386294591,230.0444014
12.4,3.74E-10,0.798091253,390.8507598,27558.31798,9.06E-6,-1.1E-19,32.11402029,-1.73E-25,-1.15E-19,-0.051817162,0.0,0.0,0.0,-23451.04559,1005.282373,9.73609E-4,702.8015066,420.5225803,3.74E-8,0.073080386,-1.459386957,0.0,0.0,0.0,0.389265908,231.852038
12.5,3.77E-10,0.811026063,393.9035723,27519.08024,9.28E-6,-1.09E-19,32.11414067,-1.73E-25,-1.14E-19,-0.052235189,0.0,0.0,0.0,-23634.21434,1005.449149,9.75003E-4,704.0409542,420.6621204,3.77E-8,0.073728037,-1.484383704,0.0,0.0,0.0,0.392233352,233.6582449
12.6,3.81E-10,0.824066878,396.9538825,27479.53735,9.51E-6,-1.08E-19,32.11426198,-1.73E-25,-1.13E-19,-0.05265322,0.0,0.0,0.0,-23817.23295,1005.617193,9.76407E-4,705.2907164,420.8027454,3.81E-8,0.074376935,-1.509622188,0.0,0.0,0.0,0.395196888,235.4630071
12.7,3.84E-10,0.837213729,400.0016662,27439.68955,9.74E-6,-1.07E-19,32.11438423,-1.73E-25,-1.12E-19,-0.053071254,0.0,0.0,0.0,-24000.09997,1005.786505,9.77822E-4,706.5507577,420.9444553,3.84E-8,0.075027094,-1.53510346,0.0,0.0,0.0,0.398156482,237.2663094
12.8,3.88E-10,0.850466645,403.0468991,27399.5371,9.97E-6,-1.07E-19,32.11450742,-1.73E-25,-1.11E-19,-0.053489292,0.0,0.0,0.0,-24182.81395,1005.957084,9.79248E-4,707.8211451,421.0872501,3.88E-8,0.075678504,-1.560828134,0.0,0.0,0.0,0.4011121,239.0681365
12.9,3.91E-10,0.863825655,406.089557,27359.08025,1.02E-5,-1.06E-19,32.11463155,-1.73E-25,-1.1E-19,-0.053907333,0.0,0.0,0.0,-24365.37342,1006.12893,9.80685E-4,709.1018946,421.2311298,3.91E-8,0.07633117,-1.58679704,0.0,0.0,0.0,0.404063706,240.8684733
13.0,3.95E-10,0.877290787,409.1296155,27318.31927,1.04E-5,-1.05E-19,32.1147566,-1.73E-25,-1.09E-19,-0.054325378,0.0,0.0,0.0,-24547.77693,1006.302034,9.82133E-4,710.3930105,421.3760875,3.95E-8,0.076985099,-1.613011127,0.0,0.0,0.0,0.40701127,242.6673044
13.1,3.98E-10,0.890862068,412.1670502,27277.25442,1.07E-5,-1.04E-19,32.11488259,-1.73E-25,-1.08E-19,-0.054743427,0.0,0.0,0.0,-24730.02301,1006.476396,9.83591E-4,711.6944066,421.5221233,3.98E-8,0.077640293,-1.639471229,0.0,0.0,0.0,0.409954758,244.4646146
13.2,4.02E-10,0.904539524,415.2018363,27235.88595,1.09E-5,-1.03E-19,32.11500952,-1.73E-25,-1.08E-19,-0.055161479,0.0,0.0,0.0,-24912.11018,1006.652022,9.8506E-4,713.006213,421.6692439,4.02E-8,0.078296749,-1.666178067,0.0,0.0,0.0,0.412894131,246.2603885
13.3,4.05E-10,0.918323182,418.2339494,27194.21414,1.12E-5,-1.02E-19,32.11513738,-1.73E-25,-1.07E-19,-0.055579536,0.0,0.0,0.0,-25094.03697,1006.828895,9.8654E-4,714.3283718,421.8174358,4.05E-8,0.078954464,-1.69313235,0.0,0.0,0.0,0.415829363,248.0546109
13.4,4.09E-10,0.932213064,421.2633647,27152.23925,1.14E-5,-1.01E-19,32.11526616,-1.73E-25,-1.06E-19,-0.055997596,0.0,0.0,0.0,-25275.80188,1007.007033,9.88031E-4,715.6609225,421.9667125,4.09E-8,0.079613449,-1.720335153,0.0,0.0,0.0,0.418760412,249.8472663
13.5,4.12E-10,0.946209196,424.2900575,27109.96156,1.17E-5,-9.98E-20,32.11539588,-1.73E-25,-1.05E-19,-0.05641566,0.0,0.0,0.0,-25457.40345,1007.186416,9.89532E-4,717.0038585,422.1170604,4.12E-8,0.080273703,-1.747787189,0.0,0.0,0.0,0.421687251,251.6383395
13.6,4.16E-10,0.9603116,427.3140027,27067.38133,1.19E-5,-9.89E-20,32.11552653,-1.73E-25,-1.04E-19,-0.056833727,0.0,0.0,0.0,-25638.84016,1007.367062,9.91044E-4,718.3572196,422.2684932,4.16E-8,0.080935219,-1.775489164,0.0,0.0,0.0,0.424609838,253.4278149
13.7,4.19E-10,0.974520298,430.3351755,27024.49885,1.22E-5,-9.79E-20,32.11565811,-1.74E-25,-1.03E-19,-0.057251799,0.0,0.0,0.0,-25820.11053,1007.548945,9.92567E-4,719.7209364,422.4209903,4.19E-8,0.081598006,-1.803442036,0.0,0.0,0.0,0.42752815,255.2156771
13.8,4.23E-10,0.988835311,433.3535509,26981.31439,1.25E-5,-9.69E-20,32.11579061,-1.74E-25,-1.02E-19,-0.057669874,0.0,0.0,0.0,-26001.21305,1007.73208,9.94101E-4,721.095049,422.5745654,4.23E-8,0.082262058,-1.831646504,0.0,0.0,0.0,0.430442146,257.0019107
13.9,4.27E-10,1.003256658,436.3691036,26937.82824,1.28E-5,-9.6E-20,32.11592405,-1.74E-25,-1.01E-19,-0.058087954,0.0,0.0,0.0,-26182.14622,1007.916468,9.95645E-4,722.4796257,422.7292186,4.27E-8,0.082927383,-1.86010353,0.0,0.0,0.0,0.433351791,258.7865001
14.0,4.3E-10,1.017784359,439.3818086,26894.04067,1.3E-5,-9.5E-20,32.11605841,-1.74E-25,-1.0E-19,-0.058506037,0.0,0.0,0.0,-26362.90851,1008.10209,9.972E-4,723.8745574,422.8849361,4.3E-8,0.083593969,-1.888813675,0.0,0.0,0.0,0.436257059,260.5694299
14.1,4.34E-10,1.032418432,442.3916404,26849.95197,1.33E-5,-9.41E-20,32.11619369,-1.74E-25,-9.91E-20,-0.058924124,0.0,0.0,0.0,-26543.49843,1008.288962,9.98766E-4,725.2799875,423.0417316,4.34E-8,0.08426183,-1.917778032,0.0,0.0,0.0,0.439157909,262.3506844
14.2,4.38E-10,1.047158894,445.3985738,26805.56244,1.36E-5,-9.32E-20,32.1163299,-1.74E-25,-9.81E-20,-0.059342216,0.0,0.0,0.0,-26723.91443,1008.477068,0.001000343,726.6958584,423.1995914,4.37E-8,0.084930953,-1.946997155,0.0,0.0,0.0,0.442054313,264.1302481
14.3,4.41E-10,1.06200576,448.4025833,26760.87235,1.39E-5,-9.22E-20,32.11646703,-1.74E-25,-9.72E-20,-0.059760311,0.0,0.0,0.0,-26904.155,1008.666415,0.00100193,728.1221477,423.3585223,4.41E-8,0.085601351,-1.976472142,0.0,0.0,0.0,0.444946233,265.9081053
14.4,4.45E-10,1.076959046,451.4036434,26715.88202,1.42E-5,-9.13E-20,32.11660509,-1.74E-25,-9.63E-20,-0.060178411,0.0,0.0,0.0,-27084.21861,1008.857003,0.001003527,729.5589244,423.5185245,4.45E-8,0.086273006,-2.006203395,0.0,0.0,0.0,0.447833637,267.6842404
14.5,4.49E-10,1.092018765,454.4017285,26670.59173,1.45E-5,-9.04E-20,32.11674407,-1.74E-25,-9.54E-20,-0.060596514,0.0,0.0,0.0,-27264.10371,1009.048813,0.001005136,731.0061309,423.679584,4.48E-8,0.086945931,-2.036192011,0.0,0.0,0.0,0.450716496,269.4586376
14.6,4.52E-10,1.107184929,457.3968128,26625.00177,1.48E-5,-8.95E-20,32.11688397,-1.74E-25,-9.45E-20,-0.061014622,0.0,0.0,0.0,-27443.80877,1009.241863,0.001006755,732.4638085,423.8417148,4.52E-8,0.087620125,-2.066438811,0.0,0.0,0.0,0.453594771,271.2312814
14.7,4.56E-10,1.122457551,460.3888707,26579.11246,1.51E-5,-8.85E-20,32.11702479,-1.74E-25,-9.36E-20,-0.061432734,0.0,0.0,0.0,-27623.33224,1009.436142,0.001008385,733.9320147,424.0049098,4.56E-8,0.088295575,-2.096944316,0.0,0.0,0.0,0.45646843,273.0021558
14.8,4.6E-10,1.13783664,463.3778762,26532.9241,1.54E-5,-8.76E-20,32.11716653,-1.74E-25,-9.27E-20,-0.06185085,0.0,0.0,0.0,-27802.67257,1009.631651,0.001010025,735.4106643,424.1691692,4.59E-8,0.088972294,-2.127709631,0.0,0.0,0.0,0.459337439,274.7712451
14.9,4.63E-10,1.153322205,466.3638035,26486.43699,1.57E-5,-8.67E-20,32.11730918,-1.74E-25,-9.18E-20,-0.06226897,0.0,0.0,0.0,-27981.82821,1009.828388,0.001011676,736.8998267,424.3344928,4.63E-8,0.089650268,-2.158735268,0.0,0.0,0.0,0.462201766,276.5385336
15.0,4.67E-10,1.168914255,469.3466266,26439.65144,1.6E-5,-8.58E-20,32.11745276,-1.74E-25,-9.09E-20,-0.062687094,0.0,0.0,0.0,-28160.79759,1010.026345,0.001013337,738.3995081,424.5008739,4.67E-8,0.090329502,-2.19002218,0.0,0.0,0.0,0.465061379,278.3040052
15.1,4.71E-10,1.184612797,472.3263193,26392.56777,1.63E-5,-8.49E-20,32.11759725,-1.74E-25,-9.0E-20,-0.063105223,0.0,0.0,0.0,-28339.57916,1010.225529,0.00101501,739.909687,424.6683192,4.71E-8,0.09100999,-2.221571017,0.0,0.0,0.0,0.467916241,280.0676442
15.2,4.75E-10,1.200417834,475.3028555,26345.18629,1.67E-5,-8.39E-20,32.11774266,-1.74E-25,-8.9E-20,-0.063523356,0.0,0.0,0.0,-28518.17133,1010.425931,0.001016692,741.4304214,424.8368221,4.74E-8,0.091691736,-2.253382733,0.0,0.0,0.0,0.470766322,281.8294346
15.3,4.78E-10,1.216329373,478.276209,26297.50731,1.7E-5,-8.3E-20,32.11788898,-1.74E-25,-8.81E-20,-0.063941494,0.0,0.0,0.0,-28696.57254,1010.627551,0.001018386,742.9616262,425.0063823,4.78E-8,0.092374726,-2.285457808,0.0,0.0,0.0,0.473611588,283.5893604
15.4,4.82E-10,1.232347415,481.2463535,26249.53115,1.73E-5,-8.2E-20,32.11803622,-1.74E-25,-8.72E-20,-0.064359636,0.0,0.0,0.0,-28874.78121,1010.830379,0.001020089,744.5034112,425.1769931,4.82E-8,0.093058971,-2.31779735,0.0,0.0,0.0,0.476452009,285.3474057
15.5,4.86E-10,1.248472271,484.2132546,26201.25814,1.77E-5,-8.11E-20,32.11818436,-1.75E-25,-8.63E-20,-0.064777782,0.0,0.0,0.0,-29052.79527,1011.034489,0.001021878,746.1101584,425.3487163,4.86E-8,0.093750565,-2.350554959,0.0,0.0,0.0,0.47928751,287.1035496
15.6,4.9E-10,1.264704344,487.1768753,26152.68861,1.8E-5,-8.02E-20,32.11833342,-1.75E-25,-8.54E-20,-0.065195932,0.0,0.0,0.0,-29230.61252,1011.239814,0.001023683,747.7312533,425.5214969,4.9E-8,0.094444656,-2.383612054,0.0,0.0,0.0,0.482118075,288.85777
15.7,4.94E-10,1.281043641,490.1371885,26103.82288,1.84E-5,-7.92E-20,32.11848339,-1.75E-25,-8.45E-20,-0.065614087,0.0,0.0,0.0,-29408.23131,1011.446353,0.001025498,749.3633031,425.6953349,4.93E-8,0.095140103,-2.416941144,0.0,0.0,0.0,0.484943672,290.6100503
15.8,4.97E-10,1.297490172,493.0941672,26054.66129,1.87E-5,-7.83E-20,32.11863427,-1.75E-25,-8.36E-20,-0.066032247,0.0,0.0,0.0,-29585.65003,1011.65409,0.001027324,751.0063553,425.8702167,4.97E-8,0.095836912,-2.450543237,0.0,0.0,0.0,0.487764274,292.3603742
15.9,5.01E-10,1.314043942,496.0477841,26005.20416,1.91E-5,-7.74E-20,32.11878606,-1.75E-25,-8.27E-20,-0.066450411,0.0,0.0,0.0,-29762.86705,1011.86304,0.001029162,752.6603501,426.0461559,5.01E-8,0.096535073,-2.484419003,0.0,0.0,0.0,0.490579838,294.108725
16.0,5.05E-10,1.330704957,498.9980118,25955.45184,1.94E-5,-7.65E-20,32.11893876,-1.75E-25,-8.18E-20,-0.06686858,0.0,0.0,0.0,-29939.88071,1012.073194,0.00103101,754.3253473,426.2231456,5.05E-8,0.097234584,-2.518569274,0.0,0.0,0.0,0.493390335,295.8550863
16.1,5.09E-10,1.347473221,501.9448229,25905.40467,1.98E-5,-7.56E-20,32.11909236,-1.75E-25,-8.09E-20,-0.067286753,0.0,0.0,0.0,-30116.68937,1012.284552,0.00103287,756.0013667,426.4011859,5.09E-8,0.097935436,-2.552994702,0.0,0.0,0.0,0.49619573,297.5994416
16.2,5.13E-10,1.364348736,504.88819,25855.06299,2.02E-5,-7.47E-20,32.11924687,-1.75E-25,-8.0E-20,-0.06770493,0.0,0.0,0.0,-30293.2914,1012.497104,0.00103474,757.6883644,426.5802699,5.13E-8,0.098637631,-2.587696284,0.0,0.0,0.0,0.498995993,299.3417741
16.3,5.17E-10,1.381331503,507.8280854,25804.42715,2.05E-5,-7.38E-20,32.11940229,-1.75E-25,-7.91E-20,-0.068123113,0.0,0.0,0.0,-30469.68512,1012.71085,0.001036621,759.3863606,426.7603976,5.17E-8,0.099341161,-2.622674659,0.0,0.0,0.0,0.501791091,301.0820672
16.4,5.21E-10,1.398421521,510.7644816,25753.49749,2.09E-5,-7.28E-20,32.1195586,-1.75E-25,-7.82E-20,-0.0685413,0.0,0.0,0.0,-30645.86889,1012.925797,0.001038513,761.0954397,426.9415759,5.21E-8,0.100046022,-2.657930637,0.0,0.0,0.0,0.504580984,302.8203043
16.5,5.25E-10,1.415618789,513.6973507,25702.27437,2.13E-5,-7.19E-20,32.11971582,-1.75E-25,-7.73E-20,-0.068959492,0.0,0.0,0.0,-30821.84104,1013.141936,0.001040416,762.8155059,427.1237979,5.25E-8,0.10075221,-2.693465022,0.0,0.0,0.0,0.507365644,304.5564685
16.6,5.29E-10,1.432923301,516.6266651,25650.75814,2.17E-5,-7.1E-20,32.11987394,-1.75E-25,-7.64E-20,-0.069377688,0.0,0.0,0.0,-30997.59991,1013.359259,0.00104233,764.5466713,427.3070567,5.29E-8,0.101459722,-2.729278614,0.0,0.0,0.0,0.510145039,306.2905432
16.7,5.33E-10,1.450335053,519.5523969,25598.94916,2.21E-5,-7.01E-20,32.12003297,-1.75E-25,-7.55E-20,-0.069795889,0.0,0.0,0.0,-31173.14381,1013.577772,0.001044255,766.2888129,427.4913593,5.33E-8,0.102168546,-2.765372022,0.0,0.0,0.0,0.512919133,308.0225115
16.8,5.37E-10,1.467854037,522.474518,25546.84778,2.25E-5,-6.92E-20,32.12019289,-1.75E-25,-7.46E-20,-0.070214095,0.0,0.0,0.0,-31348.47108,1013.797475,0.00104619,768.0421072,427.6767055,5.37E-8,0.102878686,-2.801746218,0.0,0.0,0.0,0.515687891,309.7523566
16.9,5.41E-10,1.485480244,525.3930005,25494.45438,2.29E-5,-6.83E-20,32.12035371,-1.76E-25,-7.37E-20,-0.070632306,0.0,0.0,0.0,-31523.58003,1014.01836,0.001048137,769.8064067,427.8630885,5.41E-8,0.10359013,-2.838401797,0.0,0.0,0.0,0.518451283,311.4800615
17.0,5.45E-10,1.503213665,528.3078162,25441.76931,2.33E-5,-6.74E-20,32.12051542,-1.76E-25,-7.29E-20,-0.071050521,0.0,0.0,0.0,-31698.46897,1014.240424,0.001050094,771.5817841,428.0505084,5.45E-8,0.104302874,-2.875339531,0.0,0.0,0.0,0.521209275,313.2056095
17.1,5.49E-10,1.521054286,531.2189371,25388.79294,2.37E-5,-6.65E-20,32.12067803,-1.76E-25,-7.2E-20,-0.071468742,0.0,0.0,0.0,-31873.13623,1014.463668,0.001052062,773.3682604,428.2389651,5.49E-8,0.105016912,-2.912560189,0.0,0.0,0.0,0.523961834,314.9289834
17.2,5.53E-10,1.539002093,534.1263348,25335.52564,2.41E-5,-6.55E-20,32.12084154,-1.76E-25,-7.11E-20,-0.071886967,0.0,0.0,0.0,-32047.58009,1014.688091,0.001054041,775.1658567,428.4284587,5.53E-8,0.105732233,-2.950064335,0.0,0.0,0.0,0.526708925,316.6501663
17.3,5.57E-10,1.557057072,537.029981,25281.9678,2.46E-5,-6.46E-20,32.12100594,-1.76E-25,-7.02E-20,-0.072305198,0.0,0.0,0.0,-32221.79886,1014.913691,0.001056031,776.9745418,428.6189891,5.57E-8,0.106448839,-2.987852919,0.0,0.0,0.0,0.529450514,318.3691412
17.4,5.61E-10,1.575219204,539.9298474,25228.11977,2.5E-5,-6.37E-20,32.12117123,-1.76E-25,-6.93E-20,-0.072723433,0.0,0.0,0.0,-32395.79084,1015.140453,0.001058032,778.7943121,428.8105426,5.61E-8,0.107166718,-3.025926489,0.0,0.0,0.0,0.532186577,320.0858911
17.5,5.65E-10,1.593488469,542.8259055,25173.98195,2.54E-5,-6.28E-20,32.12133742,-1.76E-25,-6.84E-20,-0.073141673,0.0,0.0,0.0,-32569.55433,1015.368391,0.001060043,780.6252137,429.0031329,5.65E-8,0.107885862,-3.064285783,0.0,0.0,0.0,0.534917072,321.8003987
17.6,5.69E-10,1.611864847,545.7181267,25119.55472,2.59E-5,-6.19E-20,32.12150449,-1.76E-25,-6.75E-20,-0.073559918,0.0,0.0,0.0,-32743.0876,1015.597496,0.001062065,782.4672556,429.1967532,5.69E-8,0.108606261,-3.102931326,0.0,0.0,0.0,0.537641967,323.512647
17.7,5.73E-10,1.630348315,548.6064825,25064.83846,2.63E-5,-6.1E-20,32.12167246,-1.76E-25,-6.67E-20,-0.073978168,0.0,0.0,0.0,-32916.38895,1015.82776,0.001064098,784.3203943,429.3913966,5.73E-8,0.109327921,-3.141864255,0.0,0.0,0.0,0.540361235,325.2226188
17.8,5.77E-10,1.648938847,551.4909442,25009.83356,2.67E-5,-6.02E-20,32.12184131,-1.76E-25,-6.58E-20,-0.074396424,0.0,0.0,0.0,-33089.45665,1016.059189,0.001066141,786.1847163,429.58707,5.77E-8,0.110050823,-3.181084872,0.0,0.0,0.0,0.543074837,326.9302969
17.9,5.81E-10,1.667636417,554.3714831,24954.5404,2.72E-5,-5.93E-20,32.12201105,-1.76E-25,-6.49E-20,-0.074814684,0.0,0.0,0.0,-33262.28898,1016.291784,0.001068195,788.0601908,429.7837733,5.81E-8,0.110774953,-3.220593669,0.0,0.0,0.0,0.54578274,328.635664
18.0,5.86E-10,1.686440995,557.2480703,24898.95939,2.77E-5,-5.84E-20,32.12218167,-1.76E-25,-6.4E-20,-0.07523295,0.0,0.0,0.0,-33434.88422,1016.525527,0.00107026,789.9468144,429.9814929,5.85E-8,0.111500318,-3.260391768,0.0,0.0,0.0,0.548484918,330.3387029
18.1,5.9E-10,1.705352552,560.1206771,24843.09092,2.81E-5,-5.75E-20,32.12235318,-1.77E-25,-6.32E-20,-0.07565122,0.0,0.0,0.0,-33607.24062,1016.760425,0.001072336,791.8446214,430.1802356,5.9E-8,0.112226904,-3.30047965,0.0,0.0,0.0,0.551181334,332.0393962
18.2,5.94E-10,1.724371053,562.9892744,24786.93539,2.86E-5,-5.66E-20,32.12252557,-1.77E-25,-6.23E-20,-0.076069496,0.0,0.0,0.0,-33779.35647,1016.996486,0.001074422,793.753594,430.3800082,5.94E-8,0.112954698,-3.340857777,0.0,0.0,0.0,0.553871949,333.7377267
18.3,5.98E-10,1.743496465,565.8538334,24730.4932,2.91E-5,-5.57E-20,32.12269885,-1.77E-25,-6.14E-20,-0.076487777,0.0,0.0,0.0,-33951.23,1017.233684,0.001076519,795.6737686,430.5807903,5.98E-8,0.113683699,-3.381527043,0.0,0.0,0.0,0.556556744,335.4336768
18.4,6.02E-10,1.762728751,568.7143249,24673.76476,2.95E-5,-5.48E-20,32.122873,-1.77E-25,-6.05E-20,-0.076906064,0.0,0.0,0.0,-34122.85949,1017.472035,0.001078627,797.6051401,430.7825954,6.02E-8,0.114413893,-3.422487889,0.0,0.0,0.0,0.559235677,337.1272293
18.5,6.06E-10,1.782067871,571.5707198,24616.75047,3.0E-5,-5.39E-20,32.12304804,-1.77E-25,-5.96E-20,-0.077324355,0.0,0.0,0.0,-34294.24319,1017.71153,0.001080745,799.547718,430.9854167,6.06E-8,0.115145271,-3.463740971,0.0,0.0,0.0,0.561908717,338.8183667
18.6,6.11E-10,1.80151411,574.4229787,24559.45075,3.05E-5,-5.27E-20,32.12322395,-1.77E-25,-5.86E-20,-0.077742652,0.0,0.0,0.0,-34465.37872,1017.952234,0.001082952,801.5598772,431.1893092,6.11E-8,0.115885208,-3.505510222,0.0,0.0,0.0,0.564575786,340.5070653
18.7,6.15E-10,1.821068081,577.2710515,24501.86602,3.1E-5,-5.16E-20,32.12340074,-1.77E-25,-5.75E-20,-0.078160954,0.0,0.0,0.0,-34636.26309,1018.194079,0.001085188,803.5966669,431.394218,6.15E-8,0.116629343,-3.547667626,0.0,0.0,0.0,0.567236866,342.1932955
18.8,6.19E-10,1.840729761,580.1149078,24443.99668,3.15E-5,-5.05E-20,32.12357841,-1.77E-25,-5.64E-20,-0.078579262,0.0,0.0,0.0,-34806.89447,1018.437075,0.001087435,805.6451263,431.6001498,6.19E-8,0.117374761,-3.590126432,0.0,0.0,0.0,0.569891917,343.8770388
18.9,6.24E-10,1.860499114,582.9545175,24385.84318,3.2E-5,-4.93E-20,32.12375695,-1.77E-25,-5.53E-20,-0.078997575,0.0,0.0,0.0,-34977.27105,1018.681195,0.001089694,807.7052406,431.8070842,6.24E-8,0.118121446,-3.632887079,0.0,0.0,0.0,0.57254092,345.5582774
19.0,6.28E-10,1.880376101,585.7898505,24327.40592,3.25E-5,-4.82E-20,32.12393636,-1.77E-25,-5.42E-20,-0.079415893,0.0,0.0,0.0,-35147.39103,1018.926455,0.001091963,809.777059,432.0150348,6.28E-8,0.118869396,-3.675950468,0.0,0.0,0.0,0.575183831,347.2369932
19.1,6.32E-10,1.900360681,588.6208764,24268.68535,3.31E-5,-4.71E-20,32.12411664,-1.76E-25,-5.31E-20,-0.079834217,0.0,0.0,0.0,-35317.25259,1019.172837,0.001094243,811.8605267,432.2239879,6.32E-8,0.119618602,-3.719317257,0.0,0.0,0.0,0.577820625,348.9131681
19.2,6.37E-10,1.92045281,591.4475651,24209.68189,3.36E-5,-4.59E-20,32.1242978,-1.76E-25,-5.19E-20,-0.080252547,0.0,0.0,0.0,-35486.85391,1019.42035,0.001096534,813.9556803,432.4339503,6.37E-8,0.120369039,-3.762987608,0.0,0.0,0.0,0.580451264,350.586784
19.3,6.41E-10,1.940652444,594.2698862,24150.39599,3.41E-5,-4.48E-20,32.12447982,-1.76E-25,-5.08E-20,-0.080670881,0.0,0.0,0.0,-35656.19317,1019.668993,0.001098837,816.0625436,432.6449222,6.41E-8,0.121120714,-3.806962639,0.0,0.0,0.0,0.583075715,352.2578228
19.4,6.45E-10,1.960959533,597.0878094,24090.82806,3.46E-5,-4.36E-20,32.12466272,-1.76E-25,-4.97E-20,-0.081089222,0.0,0.0,0.0,-35825.26856,1019.918747,0.00110115,818.1810619,432.8568896,6.45E-8,0.121873601,-3.851242484,0.0,0.0,0.0,0.585693953,353.9262663
19.5,6.5E-10,1.981374028,599.9013041,24030.97857,3.52E-5,-4.25E-20,32.12484648,-1.76E-25,-4.85E-20,-0.081507568,0.0,0.0,0.0,-35994.07825,1020.16963,0.001103474,820.3113376,433.0698665,6.5E-8,0.122627689,-3.895827747,0.0,0.0,0.0,0.588305934,355.5920964
19.6,6.54E-10,2.001895876,602.7103399,23970.84795,3.57E-5,-4.13E-20,32.1250311,-1.76E-25,-4.74E-20,-0.081925919,0.0,0.0,0.0,-36162.62039,1020.421623,0.001105809,822.4533161,433.283839,6.54E-8,0.123382976,-3.940719279,0.0,0.0,0.0,0.590911635,357.2552947
19.7,6.59E-10,2.02252502,605.5148862,23910.43665,3.63E-5,-4.02E-20,32.12521659,-1.76E-25,-4.63E-20,-0.082344276,0.0,0.0,0.0,-36330.89317,1020.674726,0.001108155,824.6070214,433.4988071,6.59E-8,0.124139437,-3.98591716,0.0,0.0,0.0,0.593511022,358.9158431
19.8,6.63E-10,2.043261405,608.3149125,23849.74513,3.68E-5,-3.9E-20,32.12540294,-1.76E-25,-4.51E-20,-0.082762639,0.0,0.0,0.0,-36498.89475,1020.928946,0.001110512,826.7724379,433.7147777,6.63E-8,0.124897067,-4.031422215,0.0,0.0,0.0,0.596104056,360.5737232
19.9,6.68E-10,2.064104969,611.110388,23788.77382,3.74E-5,-3.79E-20,32.12559015,-1.76E-25,-4.4E-20,-0.083181008,0.0,0.0,0.0,-36666.62328,1021.184274,0.001112879,828.9496295,433.9317439,6.68E-8,0.125655849,-4.077234751,0.0,0.0,0.0,0.598690709,362.2289168
20.0,6.72E-10,2.085055649,613.901282,23727.5232,3.8E-5,-3.67E-20,32.12577823,-1.76E-25,-4.29E-20,-0.083599382,0.0,0.0,0.0,-36834.07692,1021.440706,0.001115258,831.1385612,434.1497024,6.72E-8,0.126415779,-4.123355574,0.0,0.0,0.0,0.601270951,363.8814056
20.1,6.77E-10,2.106113382,616.6875639,23665.99372,3.85E-5,-3.56E-20,32.12596716,-1.75E-25,-4.17E-20,-0.084017762,0.0,0.0,0.0,-37001.25384,1021.698245,0.001117647,833.339211,434.3686565,6.76E-8,0.12717683,-4.169784698,0.0,0.0,0.0,0.603844744,365.5311711
20.2,6.81E-10,2.127278098,619.4692028,23604.18585,3.91E-5,-3.44E-20,32.12615695,-1.75E-25,-4.06E-20,-0.084436148,0.0,0.0,0.0,-37168.15217,1021.956877,0.001120047,835.5516893,434.5885959,6.81E-8,0.127939005,-4.216523174,0.0,0.0,0.0,0.606412063,367.178195
20.3,6.86E-10,2.148549728,622.2461679,23542.10004,3.97E-5,-3.33E-20,32.12634759,-1.75E-25,-3.95E-20,-0.084854539,0.0,0.0,0.0,-37334.77007,1022.216609,0.001122458,837.7758752,434.8095275,6.86E-8,0.12870227,-4.263570714,0.0,0.0,0.0,0.60897287,368.8224588
20.4,6.9E-10,2.169928198,625.0184282,23479.73677,4.03E-5,-3.22E-20,32.12653909,-1.75E-25,-3.84E-20,-0.085272937,0.0,0.0,0.0,-37501.10569,1022.477438,0.00112488,840.0118923,435.0314479,6.9E-8,0.129466628,-4.310928347,0.0,0.0,0.0,0.611527135,370.4639443
20.5,6.95E-10,2.191413434,627.7859529,23417.09651,4.09E-5,-3.1E-20,32.12673144,-1.75E-25,-3.73E-20,-0.08569134,0.0,0.0,0.0,-37667.15718,1022.739354,0.001127312,842.2596992,435.2543502,6.95E-8,0.130232051,-4.358596016,0.0,0.0,0.0,0.614074828,372.1026328
20.6,6.99E-10,2.213005356,630.548711,23354.17974,4.15E-5,-2.99E-20,32.12692464,-1.75E-25,-3.61E-20,-0.086109749,0.0,0.0,0.0,-37832.92266,1023.002361,0.001129755,844.5192742,435.4782378,6.99E-8,0.130998534,-4.406574461,0.0,0.0,0.0,0.616615914,373.7385059
20.7,7.04E-10,2.234703885,633.3066715,23290.98693,4.21E-5,-2.88E-20,32.12711869,-1.75E-25,-3.5E-20,-0.086528164,0.0,0.0,0.0,-37998.40029,1023.266452,0.001132209,846.7906883,435.7031074,7.04E-8,0.131766065,-4.454864138,0.0,0.0,0.0,0.619150363,375.3715452
20.8,7.08E-10,2.256508937,636.0598033,23227.51857,4.27E-5,-2.76E-20,32.12731359,-1.75E-25,-3.39E-20,-0.086946585,0.0,0.0,0.0,-38163.5882,1023.531629,0.001134674,849.0738604,435.9289588,7.08E-8,0.132534614,-4.503464934,0.0,0.0,0.0,0.621678142,377.0017321
20.9,7.13E-10,2.278420425,638.8080754,23163.77513,4.33E-5,-2.65E-20,32.12750934,-1.75E-25,-3.28E-20,-0.087365012,0.0,0.0,0.0,-38328.48452,1023.797885,0.001137149,851.3689147,436.1557887,7.13E-8,0.133304184,-4.552377833,0.0,0.0,0.0,0.62419922,378.6290481
21.0,7.18E-10,2.30043826,641.5514566,23099.75712,4.4E-5,-2.54E-20,32.12770593,-1.75E-25,-3.17E-20,-0.087783445,0.0,0.0,0.0,-38493.0874,1024.065219,0.001139635,853.6757702,436.3835971,7.18E-8,0.134074738,-4.601602399,0.0,0.0,0.0,0.626713565,380.2534746
21.1,7.22E-10,2.322562351,644.2899158,23035.46501,4.46E-5,-2.43E-20,32.12790337,-1.75E-25,-3.06E-20,-0.088201884,0.0,0.0,0.0,-38657.39495,1024.333624,0.001142132,855.9944383,436.6123771,7.22E-8,0.134846287,-4.651139886,0.0,0.0,0.0,0.629221148,381.874993
21.2,7.27E-10,2.344792603,647.0234218,22970.8993,4.52E-5,-2.31E-20,32.12810165,-1.75E-25,-2.95E-20,-0.088620329,0.0,0.0,0.0,-38821.40531,1024.603106,0.001144639,858.3249575,436.8421355,7.27E-8,0.135618792,-4.700989815,0.0,0.0,0.0,0.631721932,383.4935849
21.3,7.32E-10,2.367129447,649.751924,22906.06049,4.59E-5,-2.22E-20,32.12830077,-1.75E-25,-2.87E-20,-0.08903878,0.0,0.0,0.0,-38985.11544,1024.873653,0.00114726,860.744714,437.0728622,7.32E-8,0.136403175,-4.751533514,0.0,0.0,0.0,0.634215874,385.10922
21.4,7.37E-10,2.389573519,652.4753637,22840.94908,4.65E-5,-2.13E-20,32.12850073,-1.75E-25,-2.78E-20,-0.089457238,0.0,0.0,0.0,-39148.52182,1025.145266,0.001149901,863.1832468,437.3045604,7.36E-8,0.13719096,-4.802480718,0.0,0.0,0.0,0.63670291,386.7218636
21.5,7.41E-10,2.412124723,655.1937088,22775.56559,4.72E-5,-2.05E-20,32.12870153,-1.75E-25,-2.7E-20,-0.089875701,0.0,0.0,0.0,-39311.62253,1025.417938,0.001152552,865.6340885,437.5372234,7.41E-8,0.137979797,-4.853750921,0.0,0.0,0.0,0.639183014,388.3314964
21.6,7.46E-10,2.434782963,657.9069273,22709.91051,4.78E-5,-1.96E-20,32.12890316,-1.75E-25,-2.62E-20,-0.090294171,0.0,0.0,0.0,-39474.41564,1025.691676,0.001155215,868.0972257,437.7708579,7.46E-8,0.138769647,-4.9053436,0.0,0.0,0.0,0.641656147,389.9380993
21.7,7.51E-10,2.457548141,660.6149867,22643.98437,4.85E-5,-1.88E-20,32.12910563,-1.75E-25,-2.54E-20,-0.090712647,0.0,0.0,0.0,-39636.8992,1025.966467,0.001157889,870.5727179,438.0054538,7.51E-8,0.139560518,-4.957260006,0.0,0.0,0.0,0.644122283,391.5416532
21.8,7.56E-10,2.480420154,663.3178549,22577.78769,4.92E-5,-1.8E-20,32.12930893,-1.75E-25,-2.46E-20,-0.091131129,0.0,0.0,0.0,-39799.07129,1026.242314,0.001160573,873.0605451,438.2410144,7.56E-8,0.14035237,-5.009499576,0.0,0.0,0.0,0.646581387,393.1421388
21.9,7.61E-10,2.503398898,666.0154996,22511.32098,4.99E-5,-1.72E-20,32.12951307,-1.75E-25,-2.38E-20,-0.091549617,0.0,0.0,0.0,-39960.92998,1026.519208,0.001163269,875.560667,438.4775329,7.6E-8,0.141145186,-5.06206262,0.0,0.0,0.0,0.64903343,394.7395368
22.0,7.65E-10,2.526484263,668.7078885,22444.58477,5.05E-5,-1.63E-20,32.12971803,-1.75E-25,-2.29E-20,-0.091968112,0.0,0.0,0.0,-40122.47331,1026.797152,0.001165976,878.073117,438.7150127,7.65E-8,0.14193896,-5.114949751,0.0,0.0,0.0,0.651478378,396.3338282
22.1,7.7E-10,2.54967614,671.3949892,22377.57958,5.12E-5,-1.55E-20,32.12992382,-1.76E-25,-2.21E-20,-0.092386613,0.0,0.0,0.0,-40283.69935,1027.076142,0.001168693,880.597915,438.9534503,7.7E-8,0.142733665,-5.168160945,0.0,0.0,0.0,0.6539162,397.9249935
22.2,7.75E-10,2.572974413,674.0767695,22310.30595,5.19E-5,-1.47E-20,32.13013044,-1.76E-25,-2.13E-20,-0.09280512,0.0,0.0,0.0,-40444.60617,1027.356172,0.001171422,883.1351343,439.1928424,7.75E-8,0.143529286,-5.221696472,0.0,0.0,0.0,0.656346866,399.5130136
22.3,7.8E-10,2.596378966,676.7531969,22242.7644,5.27E-5,-1.38E-20,32.13033789,-1.76E-25,-2.05E-20,-0.093223634,0.0,0.0,0.0,-40605.19182,1027.637238,0.001174161,885.6846346,439.4331855,7.8E-8,0.144325796,-5.275556265,0.0,0.0,0.0,0.658770346,401.0978692
22.4,7.85E-10,2.619889676,679.4242392,22174.95549,5.34E-5,-1.3E-20,32.13054616,-1.76E-25,-1.97E-20,-0.093642154,0.0,0.0,0.0,-40765.45435,1027.919342,0.001176911,888.2465565,439.674483,7.85E-8,0.145123187,-5.329740876,0.0,0.0,0.0,0.661186605,402.679541
22.5,7.9E-10,2.643506421,682.0898639,22106.87974,5.41E-5,-1.22E-20,32.13075525,-1.76E-25,-1.89E-20,-0.09406068,0.0,0.0,0.0,-40925.39183,1028.202477,0.001179672,890.8208063,439.9167281,7.9E-8,0.145921425,-5.384249881,0.0,0.0,0.0,0.663595615,404.2580098
22.6,7.95E-10,2.667229072,684.7500386,22038.5377,5.48E-5,-1.14E-20,32.13096516,-1.76E-25,-1.81E-20,-0.094479213,0.0,0.0,0.0,-41085.00232,1028.486645,0.001182443,893.4074712,440.1599242,7.95E-8,0.146720492,-5.439083469,0.0,0.0,0.0,0.665997342,405.8332563
22.7,8.0E-10,2.691057501,687.404731,21969.92991,5.55E-5,-1.06E-20,32.13117589,-1.76E-25,-1.73E-20,-0.094897753,0.0,0.0,0.0,-41244.28386,1028.771833,0.001185226,896.0065039,440.4040611,8.0E-8,0.147520378,-5.494242145,0.0,0.0,0.0,0.668391761,407.4052612
22.8,8.05E-10,2.714991573,690.0539086,21901.05694,5.63E-5,-9.78E-21,32.13138744,-1.77E-25,-1.66E-20,-0.095316299,0.0,0.0,0.0,-41403.23452,1029.058048,0.001188019,898.6179455,440.6491454,8.05E-8,0.148321058,-5.549725744,0.0,0.0,0.0,0.670778835,408.9740052
22.9,8.1E-10,2.739031151,692.697539,21831.91932,5.7E-5,-9.0E-21,32.1315998,-1.77E-25,-1.58E-20,-0.095734852,0.0,0.0,0.0,-41561.85234,1029.345282,0.001190823,901.241702,440.8951705,8.1E-8,0.149122504,-5.605534074,0.0,0.0,0.0,0.673158537,410.5394691
23.0,8.15E-10,2.763176095,695.3355898,21762.51761,5.78E-5,-8.18E-21,32.13181298,-1.77E-25,-1.5E-20,-0.096153411,0.0,0.0,0.0,-41720.13539,1029.633534,0.001193638,903.8780148,441.1421363,8.15E-8,0.149924706,-5.661667591,0.0,0.0,0.0,0.675530835,412.1016335
23.1,8.2E-10,2.787426262,697.9680287,21692.85239,5.85E-5,-7.32E-21,32.13202697,-1.77E-25,-1.42E-20,-0.096571977,0.0,0.0,0.0,-41878.08172,1029.922794,0.001196463,906.5265755,441.3900359,8.2E-8,0.150727628,-5.718125725,0.0,0.0,0.0,0.677895702,413.6604792
23.2,8.25E-10,2.811781503,700.5948231,21622.9242,5.93E-5,-6.42E-21,32.13224177,-1.77E-25,-1.33E-20,-0.096990549,0.0,0.0,0.0,-42035.68938,1030.21307,0.001199299,909.1876398,441.6388763,8.25E-8,0.151531252,-5.774908555,0.0,0.0,0.0,0.680253102,415.2159869
23.3,8.3E-10,2.83624167,703.2159406,21552.73361,6.01E-5,-5.53E-21,32.13245737,-1.77E-25,-1.24E-20,-0.097409128,0.0,0.0,0.0,-42192.95644,1030.50435,0.001202146,911.8611067,441.888647,8.3E-8,0.152335575,-5.83201683,0.0,0.0,0.0,0.682603011,416.7681373
23.4,8.35E-10,2.860806609,705.831349,21482.2812,6.09E-5,-4.63E-21,32.13267379,-1.77E-25,-1.16E-20,-0.097827714,0.0,0.0,0.0,-42349.88094,1030.796636,0.001205003,914.5470106,442.1393516,8.35E-8,0.153140543,-5.889449221,0.0,0.0,0.0,0.684945394,418.3169112
23.5,8.4E-10,2.885476162,708.4410157,21411.56754,6.16E-5,-3.76E-21,32.13289101,-1.77E-25,-1.07E-20,-0.098246307,0.0,0.0,0.0,-42506.46094,1031.089919,0.001207871,917.2453646,442.3909831,8.4E-8,0.153946173,-5.947207136,0.0,0.0,0.0,0.687280226,419.8622892
