time,eiPosition_ft_X,eiPosition_ft_Y,eiPosition_ft_Z,gePosition_ft_X,gePosition_ft_Y,gePosition_ft_Z,eiVelocity_ft_s_X,eiVelocity_ft_s_Y,eiVelocity_ft_s_Z,feVelocity_ft_s_X,feVelocity_ft_s_Y,feVelocity_ft_s_Z,altitudeMsl_ft,longitude_deg,latitude_deg,localGravity_ft_s2,eulerAngle_deg_Yaw,eulerAngle_deg_Pitch,eulerAngle_deg_Roll,bodyAngularRateWrtEi_deg_s_Roll,bodyAngularRateWrtEi_deg_s_Pitch,bodyAngularRateWrtEi_deg_s_Yaw,altitudeRateWrtMsl_ft_min,speedOfSound_ft_s,airDensity_slug_ft3,ambientPressure_lbf_ft2,ambientTemperature_dgR,aero_bodyForce_lbf_X,aero_bodyForce_lbf_Y,aero_bodyForce_lbf_Z,aero_bodyMoment_ftlbf_L,aero_bodyMoment_ftlbf_M,aero_bodyMoment_ftlbf_N,mach,dynamicPressure_lbf_ft2,trueAirspeed_nmi_h
0.0,2.0955646325460006E7,0.0,0.0,2.0955646325460006E7,0.0,0.0,0.0,1528.1098290458178,0.0,0.0,0.0,0.0,30000.000000003725,0.0,0.0,32.10653595184196,0.0,1.2722218725854067E-14,0.0,0.0,0.0,9.277188200394804E-19,-0.0,994.8490287717559,8.907042526446323E-4,629.6799295020096,411.8388729485991,0.0,0.0,-0.0,0.0,0.0,0.0,0.0,0.0,0.0
0.10000000000000007,2.095564616493093E7,152.81099986574537,-5.732720219842901E-23,2.0955646165488087E7,1.8129051843576716E-5,-5.732720219842901E-23,-3.2106254574326596,1528.1101668502886,-1.7242256985508384E-21,-1.7242257073476608E-21,3.7284143128280727E-4,3.199482300956063,29999.840028084815,4.95674601970269E-11,1.1723685007733714E-26,32.10653644282636,0.0,1.2722218726192162E-14,-4.1780746279149953E-4,0.0,0.0,9.277188200394804E-19,-191.96893805736377,994.849715833459,8.907094884624365E-4,629.6845006865111,411.8394417963477,9.112222611040759E-20,0.003542155663360293,-5.666372905619516E-4,0.0,0.0,0.0,0.02035878582892034,0.182694213004432,11.999981507777559
0.20000000000000015,2.0955645683339514E7,305.6220328832003,-4.6381472698132E-22,2.0955645685568143E7,7.641720050413636E-5,-4.6381472698132E-22,-6.421192600606659,1528.1104917678408,-7.025763551331712E-21,-7.025763693060099E-21,8.028693319808163E-4,6.398906279474768,29999.360108140856,2.0893572723971617E-10,9.485231360594846E-26,32.10653791579249,0.0,1.2722218727205807E-14,-8.356150353838093E-4,0.0,0.0,9.277188200394804E-19,-383.93437676848606,994.8517770337677,8.907251961946532E-4,629.6982145213127,411.8411483545353,1.8894071406612135E-19,0.0036722734963647668,-0.0011749148244638789,0.0,0.0,0.0,0.021106611141185082,0.19636655444961795,12.440794371321836
0.3000000000000002,2.0955644880694542E7,458.43309800529477,-1.5938830056173092E-21,2.095564488570896E7,1.8082460738227946E-4,-1.5938830056173092E-21,-9.63169545913238,1528.1108102293977,-1.6276258157952572E-20,-1.6276258887991725E-20,0.0012965125996218614,9.598265964361547,29998.56024895981,4.944007636901817E-10,3.259566415321987E-25,32.10654037071355,0.0,1.2722218728893973E-14,-0.00125342273407288,0.0,0.0,9.277188200394804E-19,-575.8959578616928,994.8552123265874,8.907513759789262E-4,629.7210712402398,411.8439925920693,2.994084432524226E-19,0.0038795226490169607,-0.0018618507942328155,0.0,0.0,0.0,0.022297475993362976,0.21915817517263833,13.142766967806681
0.4000000000000003,2.095564375700284E7,611.244194953561,-3.8697420565744856E-21,2.0955643765917376E7,3.3807982944839E-4,-3.8697420565744856E-21,-12.842124716803035,1528.1111293848257,-3.00522600155162E-20,-3.005226237889849E-20,0.0018609189499365433,12.797552038340106,29997.440457373857,9.243594509561203E-10,7.913806219851101E-25,32.106543807568954,0.0,1.2722218731255513E-14,-0.0016712305772556004,0.0,0.0,9.277188200394804E-19,-767.8531223004063,994.8600216686565,8.907880283004156E-4,629.7530714562954,411.8479744849166,4.272928141634142E-19,0.0041523791614071735,-0.0026570909516717197,0.0,0.0,0.0,0.023865094437747716,0.25106989959221054,14.066833897281619
0.5000000000000003,2.0955642312272422E7,764.0553241052838,-7.77953211080792E-21,2.095564232620138E7,5.555669311690381E-4,-7.77953211080792E-21,-16.052468484078442,1528.1114551923251,-4.90879166824389E-20,-4.9087922621003466E-20,0.002502043984936789,15.996752610587878,29996.000741377473,1.5190009400580899E-9,1.590951249617432E-24,32.10654822633461,0.0,1.2722218734289089E-14,-0.0020890385851211383,0.0,0.0,9.277188200394804E-19,-959.8051566352726,994.8662050061549,8.908351538897415E-4,629.7942160725692,411.8530940050153,5.761197191684368E-19,0.004478884528358142,-0.0035825608157703873,0.0,0.0,0.0,0.025740661852975473,0.2921030735683028,15.17244635784617
0.6000000000000004,2.0955640546512473E7,916.8664863752361,-1.3890814233145837E-20,2.095564056657018E7,8.412071897919704E-4,-1.3890814233145837E-20,-19.262713019190304,1528.1117924629566,-7.423081047998988E-20,-7.423082320394465E-20,0.003224695658525166,19.19585393789145,29994.241110179573,2.2999832201754955E-9,2.8407374566555893E-24,32.10655362698285,0.0,1.2722218737993145E-14,-0.0025068467793274716,0.0,0.0,9.277188200394804E-19,-1151.751236273487,994.8737622744816,8.908927537212837E-4,629.8445062807687,411.85935112008974,7.483626532656422E-19,0.004848233210399802,-0.004653641644908888,0.0,0.0,0.0,0.0278619871674091,0.34225953926302677,16.422954442230058
0.7000000000000005,2.095563845973362E7,1069.6776831081481,-2.2860075722388642E-20,2.0955638487034395E7,0.0012033514958479374,-2.2860075722388642E-20,-22.472843300808634,1528.112145014911,-1.0640688695689578E-19,-1.0640691138652933E-19,0.0040326884892412295,22.394840997354777,29992.16157439351,3.2901389296966476E-9,4.674994012346368E-24,32.10656000948188,0.0,1.2722218742365893E-14,-0.0029246551827072334,0.0,0.0,9.277188200394804E-19,-1343.6904598412866,994.8826933974398,8.9096082900696E-4,629.9039435558091,411.86674579297477,9.457073110412337E-19,0.0052514185519414,-0.005880815814834757,0.0,0.0,0.0,0.03017721092184722,0.4015416174225964,17.7877983450149
0.8000000000000006,2.0955636051948145E7,1222.4889159886516,-3.5439226062583273E-20,2.0955636087606315E7,0.0016506902335338136,-3.5439226062583273E-20,-25.68284344094594,1528.1125158587702,-1.4659516757262766E-19,-1.4659521085528828E-19,0.004929028782199984,25.593697899335357,29989.762146312743,4.5132289599592395E-9,7.247489975831738E-24,32.10656737379482,0.0,1.2722218747405275E-14,-0.0033424638190213164,0.0,0.0,9.277188200394804E-19,-1535.6218739601213,994.8929982860543,8.91039381187211E-4,629.9725296479677,411.87527798063525,1.1692906046798245E-18,0.005681269926625316,-0.007271153135707324,0.0,0.0,0.0,0.032645022255273014,0.4699520952594289,19.242636074035996
0.9000000000000007,2.0955633323169835E7,1375.3001869693692,-5.247998391527975E-20,2.095563336829972E7,0.0021921813296574832,-5.247998391527975E-20,-28.892696966871256,1528.1129073703944,-1.9581048454799414E-19,-1.9581055665371032E-19,0.005916087515188289,28.792408169381602,29987.04283971712,5.993745734583915E-9,1.0732405856892353E-23,32.106575719880404,0.0,1.2722218753108959E-14,-0.0037602727127621183,0.0,0.0,9.277188200394804E-19,-1727.5444901628962,994.9046768394055,8.91128411937349E-4,630.0502665884578,411.8849476348552,1.4198814351911177E-18,0.0061322135163006,-0.008829434965527221,0.0,0.0,0.0,0.03523328597013439,0.5474942182642349,20.768534106022724
1.0000000000000007,2.095563027341419E7,1528.111498214915,-7.493684483372628E-20,2.0955630329130117E7,0.002836994162138673,-7.493684483372628E-20,-32.102387008462934,1528.1133214351094,-2.5509200686961907E-19,-2.5509212126888945E-19,0.0069957445030864995,31.990954935602367,29984.003670115024,7.756759851210193E-9,1.532494052758953E-23,32.10658504769218,0.0,1.272221875947434E-14,-0.004178081889000251,0.0,0.0,9.277188200394804E-19,-1919.457296136142,994.917728943591,8.912279231596375E-4,630.1371566825488,411.8957547013765,1.698005908791591E-18,0.00659996065487452,-0.010558932859586477,0.0,0.0,0.0,0.03791725236319015,0.6341716846517624,22.35091216200667
1.0999999999999897,2.095562690269843E7,1680.9228520587594,-1.0386911097822193E-19,2.095562697011473E7,0.003594466375322125,-1.0386911097822193E-19,-35.31189642154334,1528.1137595613216,-3.254956869198773E-19,-3.25495861339881E-19,0.008169502007892128,35.18932105201359,29980.644654728472,9.827802012383175E-9,2.1241726308690854E-23,32.10659535717857,0.0,1.2722218766498519E-14,-0.004595891373266425,0.0,0.0,9.277188200394804E-19,-2111.3592631208153,994.9321544717924,8.913379169837875E-4,630.2332025100401,411.907699119952,2.004030409271279E-18,0.007081217230134846,-0.01246192515026296,0.0,0.0,0.0,0.04067788757210654,0.7299886415527135,23.97855904388956
1.1999999999999786,2.0955623211041506E7,1833.7342509700923,-1.404423034258142E-19,2.0955623291272506E7,0.004474070682368159,-1.404423034258142E-19,-38.52120786916322,1528.1142229675565,-4.0808928238152077E-19,-4.0808953965057875E-19,0.009438571772729915,38.387489179831164,29976.96581250429,1.2232772262597088E-8,2.8721117793708193E-23,32.10660664828284,0.0,1.272221877417831E-14,-0.005013701191460688,0.0,0.0,9.277188200394804E-19,-2303.24935078987,994.9479532842297,8.914583957666019E-4,630.3384069249951,411.9207808243055,2.338215724591153E-18,0.007573444616733186,-0.014540033529540329,0.0,0.0,0.0,0.04350049981983824,0.8349496823514166,25.642822894243903
1.2999999999999676,2.0955619198464043E7,1986.5456975282802,-1.8592916636320675E-19,2.0955619292624082E7,0.005485389262814944,-1.8592916636320675E-19,-41.7303038755564,1528.1147126483154,-5.039490518605756E-19,-5.039494208284633E-19,0.010803940882411225,41.5854418414319,29972.96716408059,1.4997869991668403E-8,3.8023397211114704E-23,32.10661892094322,0.0,1.2722218782510231E-14,-0.005431511369782432,0.0,0.0,9.277188200394804E-19,-2495.126510485914,994.9651252283079,8.915893620930857E-4,630.4527730567606,411.93499974225136,2.7007521917717516E-18,0.008074674188543294,-0.016794441595078723,0.0,0.0,0.0,0.046373673460441425,0.949059844781159,27.336982889010564
1.3999999999999566,2.0955614864988502E7,2139.357194403062,-2.417103991409628E-19,2.095561497419191E7,0.006638093879645313,-2.417103991409628E-19,-44.939166862317165,1528.1152294237388,-6.141575392443334E-19,-6.14158055791588E-19,0.012266421412102723,44.783161456535424,29968.648731909692,1.8149539576085165E-8,4.94309241329048E-23,32.106632175092464,0.0,1.2722218791490511E-14,-0.0058493219346760295,0.0,0.0,9.277188200394804E-19,-2686.9896873921252,994.9836701380926,8.917308187724286E-4,630.576304306514,411.95035579525694,3.091782632352963E-18,0.008583367425199469,-0.019226037472792657,0.0,0.0,0.0,0.049288465002342956,1.0723246095179808,29.055775349820635
1.4999999999999456,2.0955610210639022E7,2292.168744339081,-3.0927520491536986E-19,2.095561033600014E7,0.007941930360491956,-3.0927520491536986E-19,-48.147779172926214,1528.115773977153,-7.398020716364573E-19,-7.398027797622601E-19,0.013826687985699911,47.980630366733536,29964.01054013893,2.1714427952560228E-8,6.324824767446013E-23,32.10664641065829,0.0,1.2722218801115077E-14,-0.00626713291278842,0.0,0.0,9.277188200394804E-19,-2878.837822004012,995.0035878348247,8.918827688419247E-4,630.7090043507443,411.9668488988666,3.511417469159635E-18,0.009098311714269239,-0.02183550781941735,0.0,0.0,0.0,0.05223780425382977,1.20474989911919,30.79504076231712
1.5999999999999346,2.095560523544163E7,2444.980350143691,-3.902217143242036E-19,2.09556053780748E7,0.009406706319960101,-3.902217143242036E-19,-51.35612308955268,1528.116346883601,-8.819737302954472E-19,-8.819746832957215E-19,0.015485306289896071,51.17783085229479,29959.052614796907,2.571935105328209E-8,7.980219313825474E-23,32.10666162756277,0.0,1.2722218811379556E-14,-0.006684944330935534,0.0,0.0,9.277188200394804E-19,-3070.669851137687,995.0248781261248,8.92045215560887E-4,630.8508771360018,411.98447896203936,3.959744815556516E-18,0.009618543013529378,-0.024623400561846115,0.0,0.0,0.0,0.05521604982888428,1.3463420771797365,32.55146177918864
1.6999999999999236,2.095559993942398E7,2597.7920146772663,-4.862573231739977E-19,2.095560010044355E7,0.011042281432110723,-4.862573231739977E-19,-54.56418084466851,1528.1169486316824,-1.0417666392904228E-18,-1.0417679010111478E-18,0.01724275493242888,54.37474514378085,29953.774983547628,3.019126721368517E-8,9.944193107250482E-23,32.106677825723104,0.0,1.2722218822279284E-14,-0.0071027562160757085,0.0,0.0,9.277188200394804E-19,-3262.484708626851,995.0475408070527,8.922181624187101E-4,631.0019268860091,412.0032458880232,4.436837303029944E-18,0.010143288351040636,-0.02759016735397707,0.0,0.0,0.0,0.0582186586614065,1.4971079476621312,34.322368423092115
1.7999999999999126,2.0955594322615582E7,2750.603740845443,-5.991989704923459E-19,2.0955594503135897E7,0.012858559581663487,-5.991989704923459E-19,-57.77193462912885,1528.117579640409,-1.2202774705988222E-18,-1.2202791167797288E-18,0.01909944227995664,57.57135543012835,29948.177675895393,3.515725571691959E-8,1.2253903413418453E-22,32.106695005050966,0.0,1.2722218833809289E-14,-0.007520568595288226,0.0,0.0,9.277188200394804E-19,-3454.281325807701,995.0715756592311,8.924016131281806E-4,631.1621580958907,412.0231495736261,4.942756767831149E-18,0.010671922868619134,-0.030736192720281906,0.0,0.0,0.0,0.06124193910506569,1.65705475431477,36.10559255718083
1.8999999999999015,2.0955588385047764E7,2903.4155315928383,-7.3097337501884975E-19,2.095558858618317E7,0.01486548252342379,-7.3097337501884975E-19,-60.979366597809936,1528.1182402723289,-1.4186050987720446E-18,-1.4186072184711658E-18,0.02105571958520832,60.76764386428804,29942.260723169893,4.064449946203115E-8,1.4948752545254764E-22,32.106713165452526,0.0,1.2722218845964307E-14,-0.007938381495755984,0.0,0.0,9.277188200394804E-19,-3646.0586318572823,995.0969824509156,8.925955716259785E-4,631.3315755326898,412.0441899092695,5.477557514059971E-18,0.011203937518243058,-0.034061814347067405,0.0,0.0,0.0,0.06428286525970311,1.8261901801709026,37.89935844420456
1.9999999999998905,2.0955582126753576E7,3056.227389897937,-8.836172427073953E-19,2.0955582349618435E7,0.017073024713231133,-8.836172427073953E-19,-64.18645887353546,1528.1189308438231,-1.6378503604227575E-18,-1.6378530575241218E-18,0.02311189128832819,63.963592567152055,29936.02415843308,4.668027083525589E-8,1.8070392106432811E-22,32.10673230682886,0.0,1.2722218858738766E-14,-0.008356194944751372,0.0,0.0,9.277188200394804E-19,-3837.815554029123,995.1237609373976,8.928000420757447E-4,631.5101842381304,412.066366779319,6.041288617235559E-18,0.011738914584769071,-0.03756733740707121,0.0,0.0,0.0,0.06733893627960144,2.0045223471035243,39.702199819087305
2.0999999999998797,2.0955575547767907E7,3209.039318768903,-1.0592774541080242E-18,2.095557579347658E7,0.019491189041332735,-1.0592774541080242E-18,-67.39319354978697,1528.1196516332643,-1.8791158881785066E-18,-1.879119282990038E-18,0.025268223167931196,67.15918363026506,29929.468016579747,5.329192004867994E-8,2.1662726823422235E-22,32.10675242907547,0.0,1.2722218872126797E-14,-0.008774008969624601,0.0,0.0,9.277188200394804E-19,-4029.551017815904,995.1519108605787,8.930150288648044E-4,631.6979895258419,412.08968006172694,6.63399557221028E-18,0.012276508988616618,-0.04125304480690109,0.0,0.0,0.0,0.07040806890351153,2.1920598154015507,41.51289654320786
2.1999999999998687,2.09555686481274E7,3361.8513212401135,-1.2602112379676426E-18,2.0955568917794246E7,0.02213000331226489,-1.2602112379676426E-18,-70.59955269253946,1528.120402887537,-2.1435059982302934E-18,-2.1435102291517554E-18,0.027524948865503728,70.35439911766048,29922.5923342444,6.050686551996384E-8,2.5771918095705827E-22,32.1067735320827,0.0,1.2722218886122237E-14,-0.009191823597794089,0.0,0.0,9.277188200394804E-19,-4221.263947059629,995.1814319493748,8.932405366072406E-4,631.894996984137,412.1141296283631,7.255721487115247E-18,0.012816433885669313,-0.04511920461150296,0.0,0.0,0.0,0.07348851468358197,2.3888115833797943,43.33042581684901
2.2999999999998577,2.095556142787049E7,3514.6634003692825,-1.4887863356391053E-18,2.0955561722609878E7,0.024999517295990925,-1.4887863356391053E-18,-73.80551834145876,1528.1211848272644,-2.432126616934064E-18,-2.4321318422344574E-18,0.029882275109426242,73.54922106705835,29915.39714987576,6.835258581396749E-8,3.044638735802338E-22,32.10679561573542,0.0,1.2722218900718597E-14,-0.00960963885673839,0.0,0.0,9.277188200394804E-19,-4412.953264023501,995.2123239194028,8.934765701414693E-4,632.10121247399,412.1397153447503,7.9065079587711E-18,0.013358449485446245,-0.04916607548784261,0.0,0.0,0.0,0.0765787957127481,2.594787086989966,45.15392429505539
2.3999999999998467,2.095555388703743E7,3667.4755592350557,-1.7474811596615948E-18,2.0955554207963735E7,0.028109800257569928,-1.7474811596615948E-18,-77.01107251062928,1528.1219976510702,-2.7460852362023334E-18,-2.746091635842766E-18,0.032340385973763666,76.74363149059346,29907.88250373304,7.68566128927502E-8,3.573681932341569E-22,32.10681867991312,0.0,1.2722218915909109E-14,-0.010027454773989485,0.0,0.0,9.277188200394804E-19,-4604.617889435607,995.2445864730015,8.937231345303852E-4,632.3166421292652,412.166437070077,8.586395721871883E-18,0.013902354298346607,-0.053393910741810935,0.0,0.0,0.0,0.07967765431412492,2.809996199442185,46.98265843303947
2.4999999999998357,2.0955546025670294E7,3820.2878009349856,-2.038884949004627E-18,2.0955546373897888E7,0.031470938860683306,-2.038884949004627E-18,-80.21619718893092,1528.1228415390487,-3.0864908903547343E-18,-3.0864986679413004E-18,0.03489944634712659,79.93761237519269,29900.04843788594,8.604652638775389E-8,4.1696165158038195E-22,32.106842724489844,0.0,1.272221893168669E-14,-0.010445271377126995,0.0,0.0,9.277188200394804E-19,-4796.256742511561,995.2782192992382,8.939802350613788E-4,632.5412923568388,412.19429465719753,9.295425135535718E-18,0.01444797823071376,-0.057802961343805796,0.0,0.0,0.0,0.08278401335162285,3.034449230827622,48.81600109198442
2.5999999999998247,2.0955537843812924E7,3973.1001285838315,-2.3656979228426052E-18,2.095553822045619E7,0.03509303541400399,-2.3656979228426052E-18,-83.42087434015276,1528.1237166556127,-3.454454149129415E-18,-3.454463533912167E-18,0.0375596047839513,83.13114568268882,29891.89499618858,9.594994880936973E-8,4.83796456259236E-22,32.106867749334306,0.0,1.2722218948043964E-14,-0.010863088693773431,0.0,0.0,9.277188200394804E-19,-4987.868740961329,995.3132220740268,8.942478772472165E-4,632.7751698374784,412.2232879527249,1.0033636551624287E-17,0.014995177096600074,-0.06239347821910142,0.0,0.0,0.0,0.08589694468374516,3.268156927741993,50.653412944632585
2.6999999999998137,2.0955529341510955E7,4125.912545312107,-2.730731434272511E-18,2.095552974768428E7,0.03898620634931227,-2.730731434272511E-18,-86.62508590290528,1528.124623151862,-3.851087122983725E-18,-3.8510983719584205E-18,0.04032099586961951,86.32421334973307,29883.422224279493,1.0659454139013445E-7,5.584475423258163E-22,32.106893754309866,0.0,1.2722218964973236E-14,-0.011280906751590025,0.0,0.0,9.277188200394804E-19,-5179.452800983984,995.3495944601347,8.945260668260677E-4,633.0182815259818,412.25341679703035,1.0801070596158727E-17,0.015543828224030139,-0.06716571399781367,0.0,0.0,0.0,0.0890156439087979,3.5111304729017845,52.49442758917228
2.7999999999998026,2.0955520518811863E7,4278.725054264857,-3.136908125053476E-18,2.0955520955629643E7,0.04316058092221908,-3.136908125053476E-18,-89.82881379037927,1528.1255611675535,-4.27750347782192E-18,-4.277516877917766E-18,0.04318374218741089,89.5167972875542,29874.630169641227,1.1800800053656833E-7,6.415126038949678E-22,32.106920739274365,0.0,1.2722218982466517E-14,-0.011698725578273185,0.0,0.0,9.277188200394804E-19,-5371.007837253252,995.3873361069328,8.948148097595643E-4,633.2706346496028,412.2846810240315,1.1597768386192519E-17,0.016093826913179513,-0.07211992436350928,0.0,0.0,0.0,0.09213941000728681,3.7633814847451514,54.33863954962428
2.8999999999997916,2.0955511375764932E7,4431.537658600605,-3.587262082199253E-18,2.095551184434156E7,0.047626300098902785,-3.587262082199253E-18,-93.03203988998519,1528.1265308327447,-4.7348184570195E-18,-4.7348343273566505E-18,0.04614795596118447,92.70887938159797,29865.518881559372,1.3021805478960207E-7,7.336121261651854E-22,32.10694870408023,0.0,1.2722219000515519E-14,-0.012116545201551449,0.0,0.0,9.277188200394804E-19,-5562.5327628958785,995.4264466505801,8.951141122341777E-4,633.5322367093783,412.31708046133815,1.2423771698351108E-17,0.016645083562559677,-0.0772563691012579,0.0,0.0,0.0,0.09526762882380983,4.0249220170354585,56.1856945393355
2.9999999999997806,2.095550191242121E7,4584.350361490453,-4.08493899706918E-18,2.0955502413871095E7,0.05239351559985428,-4.08493899706918E-18,-96.23474606290003,1528.1275322691847,-5.2241489091364585E-18,-5.224167603390922E-18,0.04921374045109564,95.9004414910742,29856.088411092758,1.4325246221428798E-7,8.353894179534743E-22,32.106977648574606,0.0,1.2722219019111622E-14,-0.01253436564918289,0.0,0.0,9.277188200394804E-19,-5754.026489464452,995.466925714158,8.954239806622191E-4,633.8030954811323,412.3506149303579,1.3279123100776206E-17,0.01719752132253274,-0.08257531291811845,0.0,0.0,0.0,0.09839975958028217,4.295764558454732,58.03528151120745
3.0999999999997696,2.095549212883364E7,4737.1631661173105,-4.6331963274628106E-18,2.0955492664271187E7,0.05747238903944618,-4.6331963274628106E-18,-99.43691414354079,1528.1285655914903,-5.746613320099804E-18,-5.746635228922367E-18,0.05238119111690031,99.09146544843034,29846.33881118521,1.5713900805150658E-7,9.475106448444675E-22,32.107007572598974,0.0,1.2722219038245942E-14,-0.01295218694895274,0.0,0.0,9.277188200394804E-19,-5945.48792690582,995.5087729071986,8.957444216781954E-4,634.0832190124261,412.3852842458989,1.4163866057070457E-17,0.01775107416788107,-0.08807702608951218,0.0,0.0,0.0,0.10153532379852404,4.57592203216404,59.88712612802208
3.1999999999997586,2.095548202505692E7,4889.976075675229,-5.23540346311616E-18,2.0955482595596544E7,0.06287309121462448,-5.23540346311616E-18,-102.63852593898051,1528.1296309081442,-6.303331848918505E-18,-6.303357402481469E-18,0.05565039662660822,102.28193305876749,29836.27013654262,1.7190550277739802E-7,1.0706648630351979E-21,32.107038475989505,0.0,1.2722219057909252E-14,-0.013370009128671482,0.0,0.0,9.277188200394804E-19,-6136.91598352605,995.5519878262197,8.960754421428747E-4,634.3726156262488,412.4210882166066,1.5078045008852964E-17,0.018305685305761012,-0.09376178497258823,0.0,0.0,0.0,0.1046738961499583,4.865407795386131,61.74098536870614
3.2999999999997476,2.0955471601147596E7,5042.789093368855,-5.895041894915439E-18,2.095547220790372E7,0.06860580148314677,-5.895041894915439E-18,-105.83956322831847,1528.1307283223541,-6.895426366210652E-18,-6.895456036783253E-18,0.0590214397075294,105.47182609921086,29825.882443718612,1.8757978040762522E-7,1.2055640539401067E-21,32.107070358576905,0.0,1.2722219078092039E-14,-0.013787832216173124,0.0,0.0,9.277188200394804E-19,-6328.309565952652,995.5965700543666,8.964170491404977E-4,634.6712939187252,412.4580266446595,1.6021705441541566E-17,0.01886130585335769,-0.09962987241528642,0.0,0.0,0.0,0.10781509685646078,5.164235638943263,63.596643048828476
3.3999999999997366,2.0955460857164033E7,5195.602222412912,-6.615705388079922E-18,2.0955461501251087E7,0.07468070714406805,-6.615705388079922E-18,-109.04000776201333,1528.131857932784,-7.52402049497816E-18,-7.524054799637715E-18,0.062494397877229914,108.66112631824275,29815.175791084766,2.041896968077814E-7,1.3529431596077644E-21,32.10710322018638,0.0,1.272221909878447E-14,-0.014205656239313618,0.0,0.0,9.277188200394804E-19,-6519.667579094565,995.6425191615474,8.967692499797838E-4,634.979262760142,412.49609932587447,1.6994893937157053E-17,0.01941789373404291,-0.1056815780846965,0.0,0.0,0.0,0.11095858534683349,5.472419786798799,65.45390608121757
3.4999999999997256,2.0955449793166414E7,5348.415466031785,-7.401100159515998E-18,2.0955450475698832E7,0.08110800302714471,-7.401100159515998E-18,-112.23984126118718,1528.133019834186,-8.190239653189318E-18,-8.190279156597023E-18,0.06606934407599822,111.84981543500686,29804.150238830596,2.21763128575012E-7,1.5135601189906156E-21,32.10713706063768,0.0,1.2722219119976419E-14,-0.014623481225969555,0.0,0.0,9.277188200394804E-19,-6710.988926100412,995.6898347044419,8.971320521939621E-4,635.2965312951281,412.5353060497069,1.7997658216854535E-17,0.019975412751336442,-0.11191719873153659,0.0,0.0,0.0,0.11410405493553813,5.789974895579968,67.31260133911502
3.5999999999997145,2.0955438409216788E7,5501.228827459165,-8.255045059504957E-18,2.095543913130901E7,0.08789789104461931,-8.255045059504957E-18,-115.43904541690524,1528.1342141179514,-8.895211097819876E-18,-8.895256415068911E-18,0.06974634721241738,115.03787513858794,29792.805849008262,2.4032797181677813E-7,1.6881959051009936E-21,32.10717187974504,0.0,1.2722219141657442E-14,-0.015041307204036963,0.0,0.0,9.277188200394804E-19,-6902.272508315276,995.7385162263192,8.975054635393248E-4,635.6231089415477,412.5756465990918,1.9030047175291498E-17,0.020533831808378186,-0.11833703840386854,0.0,0.0,0.0,0.11725122833813899,6.116916054075612,69.17257301249063
3.6999999999997035,2.0955426705378953E7,5654.042309937741,-9.18147175785601E-18,2.0955427468145426E7,0.09506057980290672,-9.18147175785601E-18,-118.63760188943715,1528.1354408725829,-9.64006397007595E-18,-9.640115769644021E-18,0.07352547264159813,118.22528708727299,29781.142685424536,2.5991214109339935E-7,1.877654563080296E-21,32.107207677317355,0.0,1.2722219163816782E-14,-0.015459134201430408,0.0,0.0,9.277188200394804E-19,-7093.517225236379,995.7885632575103,8.978894919988161E-4,635.9590053937994,412.6171207508275,2.0092110908609703E-17,0.021093124247241874,-0.12494140862110147,0.0,0.0,0.0,0.12039985387499531,6.45325878275142,71.0336803700717
3.7999999999996925,2.0955414681718607E7,5806.855916718915,-1.0184424934631324E-17,2.0955415486273788E7,0.10260628422686224,-1.0184424934631324E-17,-121.83549230750147,1528.136700184113,-1.0425929341577569E-17,-1.0425988348362829E-17,0.07740678257357071,121.41203290779599,29769.16081378609,2.805435683949935E-7,2.082763249203162E-21,32.10724445315789,0.0,1.2722219186443387E-14,-0.01587696224608188,0.0,0.0,9.277188200394804E-19,-7284.7219744677595,995.8399753147943,8.982841457772797E-4,636.3042306188279,412.6597282750593,2.1183900737035092E-17,0.021653267287053864,-0.13173062851452766,0.0,0.0,0.0,0.12354970224412855,6.7990190331942255,72.89579585678236
3.8999999999996815,2.0955402338303283E7,5959.669651062592,-1.126806247552971E-17,2.0955403185761638E7,0.11054522531165745,-1.126806247552971E-17,-125.03269826749815,1528.1379921364687,-1.1253940261321953E-17,-1.1254007259748862E-17,0.08139033643980337,124.59809419457034,29756.86030163616,3.022502024673178E-7,2.304372270834362E-21,32.107282207064365,0.0,1.2722219209525888E-14,-0.016294791365940125,0.0,0.0,9.277188200394804E-19,-7475.88565167422,995.8927519016798,8.986894333035698E-4,636.6587948581401,412.7034689355043,2.2305469223403498E-17,0.022214241544467373,-0.1387050249425236,0.0,0.0,0.0,0.12670056376663497,7.154213187583696,74.75880346977172
3.9999999999996705,2.0955389675202392E7,6112.483516236973,-1.243665567199957E-17,2.095539056667839E7,0.11888762982692702,-1.243665567199957E-17,-128.2292013327305,1528.1393168117822,-1.2125231803283479E-17,-1.2125307640515855E-17,0.08547619119920237,127.78345250891071,29744.24121838808,3.2506000800710836E-7,2.5433551273528464E-21,32.107320938828906,0.0,1.2722219233052604E-14,-0.01671262158896984,0.0,0.0,9.277188200394804E-19,-7667.007150534643,995.9468925082717,8.991053632294791E-4,637.0227086270436,412.7483424893321,2.3456870188196453E-17,0.022776030622673426,-0.1458649325840488,0.0,0.0,0.0,0.1298522460264903,7.51885805812576,76.62259736687683
4.099999999999704,2.095537669248709E7,6265.297515518401,-1.3694589426138692E-17,2.0955377629095215E7,0.12764373014212804,-1.3694589426138692E-17,-131.42498303261868,1528.1406742906802,-1.3040941114533639E-17,-1.3041026703742903E-17,0.08966440163634504,130.96808937824667,29731.303635213524,3.4900096518883485E-7,2.800608552054727E-21,32.10736064823838,0.0,1.2722219257011545E-14,-0.017130452943151186,0.0,0.0,9.277188200394804E-19,-7858.0853626948,996.0023966117603,8.995319444334489E-4,637.3959827180729,412.7943486875622,2.4638158721900325E-17,0.023338620757969327,-0.1532106940155006,0.0,0.0,0.0,0.1330045718406889,7.892970886507749,78.4870806698397
4.199999999999737,2.095536339023046E7,6418.11165219121,-1.5046362460427946E-17,2.0955364373085193E7,0.13682376394836515,-1.5046362460427946E-17,-134.62002486190593,1528.1420646525305,-1.4002207463782693E-17,-1.4002303787537327E-17,0.09395502059396407,134.15198629532887,29718.04762519151,3.741010689083703E-7,3.07705255504481E-21,32.10740133507394,0.0,1.272221928139041E-14,-0.017548285456479074,0.0,0.0,9.277188200394804E-19,-8049.119177719732,996.0592636757932,8.999691860156973E-4,637.7786281969115,412.8414872745339,2.5849391194847645E-17,0.02390200051450283,-0.16074265977191152,0.0,0.0,0.0,0.1361573775075307,8.276569343267,80.35216443138587
4.299999999999771,2.095534976850743E7,6570.925929547618,-1.6496587532336578E-17,2.095535079872327E7,0.14643797410987558,-1.6496587532336578E-17,-137.81430827986023,1528.1434879756523,-1.5010172290260312E-17,-1.5010280403980472E-17,0.09834809918515983,137.33512471743072,29704.473263267428,4.00388328381173E-7,3.3736304671244043E-21,32.10744299911112,0.0,1.2722219306176588E-14,-0.017966119156962716,0.0,0.0,9.277188200394804E-19,-8240.107483045844,996.1174931506617,9.004170972995903E-4,638.1706564037815,412.889757988052,2.7090625265304567E-17,0.024466160520001223,-0.16846118839724064,0.0,0.0,0.0,0.13931051128962124,8.66967152718961,82.21776674070877
4.399999999999804,2.0955335827394743E7,6723.740350887631,-1.8049991653830088E-17,2.095533690608619E7,0.15649660851412373,-1.8049991653830088E-17,-141.0078147094697,1528.1449443375238,-1.6065979252874836E-17,-1.606610028835856E-17,0.10284368700466591,140.5174860655438,29690.58062618971,4.27890766736667E-7,3.691308984681717E-21,32.10748564012005,0.0,1.2722219331357154E-14,-0.01838395407262524,0.0,0.0,9.277188200394804E-19,-8431.049163932628,996.1770844735839,9.008756878337706E-4,638.5720789554998,412.93916055961176,2.8361919886008415E-17,0.025031093236122907,-0.17636664648502692,0.0,0.0,0.0,0.14246383209593966,9.07229596470149,84.083811946299
4.4999999999998375,2.095532156697101E7,6876.554919518975,-1.971141631580548E-17,2.0955322695252582E7,0.16700991991393455,-1.971141631580548E-17,-144.20052553663612,1528.146433814943,-1.7170774279593658E-17,-1.7170909448683106E-17,0.10744183228278033,143.69905172357136,29676.369792580605,4.566364205908494E-7,4.031078215589932E-21,32.10752925786529,0.0,1.2722219356918864E-14,-0.018801790231503263,0.0,0.0,9.277188200394804E-19,-8621.943103414282,996.2380370684122,9.013449673898499E-4,638.9829077436575,412.98969471414716,2.9663335309254566E-17,0.02559679275819838,-0.18445940871002164,0.0,0.0,0.0,0.1456172083334023,9.484461609200833,85.95022997863221
4.599999999999871,2.0955306987316772E7,7029.36963875702,-2.148581771747345E-17,2.0955308166302986E7,0.17798816576719734,-2.148581771747345E-17,-147.39242210936507,1528.1479564841923,-1.8325705616994097E-17,-1.8325856215244962E-17,0.11214258204335258,146.87980303751837,29661.840842984617,4.866533396122539E-7,4.393951726116955E-21,32.10757385210556,0.0,1.2722219382848174E-14,-0.019219627661646456,0.0,0.0,9.277188200394804E-19,-8812.788182251103,996.3003503454373,9.018249459608405E-4,639.4031549334496,413.0413601698585,3.0994933090875004E-17,0.026163254640113903,-0.19273985785292874,0.0,0.0,0.0,0.14877051690307125,9.906187840373455,87.81695575811858
4.699999999999904,2.0955292088514343E7,7182.184511924741,-2.337826700070278E-17,2.0955293319319732E7,0.18944160818156197,-2.337826700070278E-17,-150.58348573695326,1528.1495124211704,-1.953192387995168E-17,-1.9532091290454047E-17,0.1169459822462734,150.05972131467894,29646.99385973066,5.17969586374984E-7,4.780966588849958E-21,32.107619422594276,0.0,1.2722219409131211E-14,-0.01963746639111738,0.0,0.0,9.277188200394804E-19,-9003.583278880737,996.364023701992,9.023156337657426E-4,639.8328329678982,413.09415663870254,3.235677609348081E-17,0.02673047574092178,-0.20120838482056796,0.0,0.0,0.0,0.15192364232017594,10.33749446355501,89.68392867610105
4.799999999999938,2.0955276870648E7,7334.999542352698,-2.539395048933899E-17,2.09552781543871E7,0.2013805137580178,-2.539395048933899E-17,-153.77369768917538,1528.1511017015196,-2.079058210143037E-17,-2.0790767798712398E-17,0.12185207789923232,153.23878782282324,29631.828927099705,5.50613235935264E-7,5.1931834316371744E-21,32.107665969079015,0.0,1.2722219435753801E-14,-0.020055306447991115,0.0,0.0,9.277188200394804E-19,-9194.327269369394,996.4290565217435,9.028170412440323E-4,640.271954563239,413.1480838257961,3.374892848856736E-17,0.027298454089706888,-0.209865388658966,0.0,0.0,0.0,0.15507647594084828,10.778401708966708,91.55109213863885
4.899999999999971,2.0955261333803818E7,7487.814733379006,-2.75381699335058E-17,2.095526267159118E7,0.21381515355362302,-2.75381699335058E-17,-156.96303919546793,1528.152724400733,-2.2102835782346207E-17,-2.210304133631666E-17,0.12686091317444148,156.4169837893811,29616.34613117948,5.846123757337755E-7,5.631686487548708E-21,32.10771349130187,0.0,1.2722219462701438E-14,-0.020473147860355083,0.0,0.0,9.277188200394804E-19,-9385.019027362867,996.4954481753297,9.033291790605007E-4,640.7205327133742,413.2031414299326,3.5171455758285085E-17,0.02786718876669683,-0.21871127656436784,0.0,0.0,0.0,0.15822891528048583,11.228930231043606,93.41839316441697
5.000000000000004,2.0955245478069812E7,7640.630088349321,-2.9816342758895665E-17,2.0955246871019997E7,0.2267558029465504,-2.9816342758895665E-17,-160.1514914441141,1528.1543805942563,-2.3469842941479417E-17,-2.347007002151227E-17,0.1319725314989472,159.59429040062705,29600.545559994876,6.199951052308982E-7,6.0975836458576384E-21,32.1077619889992,0.0,1.2722219489959313E-14,-0.02089099065630875,0.0,0.0,9.277188200394804E-19,-9575.657424037623,996.5631980198123,9.038520581009699E-4,641.1785806863423,413.25932914311835,3.662442469629584E-17,0.028436679797930756,-0.22774646388856176,0.0,0.0,0.0,0.16138086341170416,11.689101107639646,95.2857820294615
5.100000000000038,2.0955229303535823E7,7793.445610616851,-3.223400232105322E-17,2.0955230752763398E7,0.24021274162205053,-3.223400232105322E-17,-163.33903558142745,1528.1560703575783,-2.4892764165417306E-17,-2.4893014544467474E-17,0.13718697565195562,162.77068880086384,29584.427303396165,6.567895358725672E-7,6.592006504042183E-21,32.107811461901846,0.0,1.27222195175123E-14,-0.021308834863963552,0.0,0.0,9.277188200394804E-19,-9766.24132805183,996.6323053991696,9.043856894760215E-4,641.6461120278099,413.31664665096963,3.81079034084139E-17,0.029006928062117545,-0.23697137414286581,0.0,0.0,0.0,0.16453222843098303,12.158935839306912,97.15321195243995
5.200000000000071,2.0955212810293626E7,7946.261303542353,-3.47967981646533E-17,2.0955214316913173E7,0.2541962534610285,-3.47967981646533E-17,-166.5256527109354,1528.1577937663105,-2.637276265850367E-17,-2.6373038217364613E-17,0.14250428783347166,165.9461600916061,29567.991453170776,6.950237907898474E-7,7.116110420809291E-21,32.10786190973484,0.0,1.2722219545344944E-14,-0.021726680511442647,0.0,0.0,9.277188200394804E-19,-9956.769605496365,996.7027696438303,9.049300845173352E-4,642.1231405580921,413.3750936323154,3.962196131251374E-17,0.029577935207703555,-0.24638643899755394,0.0,0.0,0.0,0.16768292298534127,12.638456348462785,99.02063881525427
5.300000000000105,2.0955195998436835E7,8099.077170494153,-3.751049628777427E-17,2.095519756356294E7,0.2687166265241694,-3.751049628777427E-17,-169.71132389256246,1528.1595508962614,-2.791100429278614E-17,-2.791130702440384E-17,0.14792450974495364,169.12068533076328,29551.238102942705,7.34726004759762E-7,7.671074570139782E-21,32.10791333221768,0.0,1.272221957344148E-14,-0.02214452762688079,0.0,0.0,9.277188200394804E-19,-10147.241119845798,996.774590071118,9.054852547810417E-4,642.6096803753273,413.4346697595546,4.116666913832842E-17,0.03014970357920631,-0.2559920982806023,0.0,0.0,0.0,0.1708328638510629,13.127684978625988,100.88802091440125
5.400000000000138,2.0955178868061014E7,8251.893214848174,-4.0380979411164606E-17,2.0955180492808275E7,0.2837841529721219,-4.0380979411164606E-17,-172.89603014181415,1528.161341823502,-2.950865765794126E-17,-2.9508989671795734E-17,0.15344768264401132,172.29424553182398,29534.167348276824,7.7592432399128E-7,8.258101996354668E-21,32.1079657290641,0.0,1.2722219601785823E-14,-0.02256237623842419,0.0,0.0,9.277188200394804E-19,-10337.654731909439,996.8477659848186,9.060512120443055E-4,643.1057458527191,413.49537469828516,4.274209892661732E-17,0.030722236151290154,-0.26578879997251426,0.0,0.0,0.0,0.173981971558199,13.626644493540653,102.75531873922894
5.500000000000171,2.0955161419263624E7,8404.709439987972,-4.341424725250106E-17,2.095516310474665E7,0.2994091290454337,-4.341424725250106E-17,-176.079752428962,1528.1631666244248,-3.116689411116558E-17,-3.1167257637804895E-17,0.1590738474056625,175.4668216630404,29516.779286649078,8.186469060746824E-7,8.878419670202206E-21,32.10801909998207,0.0,1.2722219630361571E-14,-0.022980226374230438,0.0,0.0,9.277188200394804E-19,-10528.009299782425,996.9222966753213,9.06627968306339E-4,643.6113516396688,413.5572081074098,4.4348324028208077E-17,0.03129553646991233,-0.27577700020036217,0.0,0.0,0.0,0.1771301700549549,14.135358076336624,104.62249477375784
5.600000000000205,2.0955143652143974E7,8557.525849304748,-4.661641680563323E-17,2.095514539947739E7,0.31560185503996774,-4.661641680563323E-17,-179.26247167822808,1528.165025375802,-3.288688782702728E-17,-3.28872852225923E-17,0.16480304458218922,178.63839464661322,29499.074017386883,8.629219199185672E-7,9.533278545964777E-21,32.10807344467399,0.0,1.2722219659151995E-14,-0.023398078062468446,0.0,0.0,9.277188200394804E-19,-10718.303678796794,996.9981814198893,9.072155357904075E-4,644.126512663781,413.62016963934786,4.5985419102822725E-17,0.03186960859960223,-0.28595716323048825,0.0,0.0,0.0,0.18027738640716523,14.653849328686762,106.4895133191993
5.700000000000238,2.0955125566803336E7,8710.342446197397,-4.99937226248113E-17,2.0955127377101775E7,0.3323726352260161,-4.99937226248113E-17,-182.44416876697133,1528.1669181548323,-3.466981584726287E-17,-3.4670249598190366E-17,0.17063531443885704,181.80894535787772,29481.051641777158,9.087775455329063E-7,1.02239536195848E-20,32.10812876283638,0.0,1.2722219688140039E-14,-0.023815931331318232,0.0,0.0,9.277188200394804E-19,-10908.536721472663,997.0754194822105,9.078139269402804E-4,644.6512441280034,413.68425893965093,4.765346011738663E-17,0.032444457075951595,-0.2963297614579886,0.0,0.0,0.0,0.1834235505288131,15.182142269856405,108.35634033469749
5.800000000000272,2.0955107163344916E7,8863.15923407256,-5.35525171138899E-17,2.0955109037723016E7,0.34973177784999887,-5.35525171138899E-17,-185.6248245248744,1528.1688450391832,-3.6516858130507616E-17,-3.651733085827042E-17,0.17657069699755693,184.97845462449092,29462.712263017893,9.56241974037906E-7,1.0951743987808274E-20,32.10818505416006,0.0,1.2722219717308338E-14,-0.024233786208970907,0.0,0.0,9.277188200394804E-19,-11098.707277469455,997.1540101126208,9.084231544218616E-4,645.1855615123136,413.749475647175,4.9352524344354293E-17,0.03302008686299912,-0.3068952753963024,0.0,0.0,0.0,0.1865685949397041,15.720261335807367,110.22294329414595
5.900000000000305,2.0955088441873785E7,9015.976216344687,-5.729927082050178E-17,2.095509038144621E7,0.36768959515567,-5.729927082050178E-17,-188.80441973313216,1528.170806107041,-3.842919760195931E-17,-3.842971206790661E-17,0.18260923208814334,188.14690322561955,29444.055986210704,1.0053434077262058E-6,1.1717972908344713E-20,32.10824231833008,0.0,1.2722219746639201E-14,-0.02465164272362877,0.0,0.0,9.277188200394804E-19,-11288.814193537173,997.2339525481503,9.090432311234667E-4,645.7294805742216,413.8158193941066,5.108269035977018E-17,0.03359650331473992,-0.3176541936651533,0.0,0.0,0.0,0.1897124545472849,16.26823137826014,112.08929105721874
6.000000000000338,2.095506940249696E7,9168.793396436047,-6.124057273519398E-17,2.095507140837837E7,0.38625640328992983,-6.124057273519398E-17,-191.9829351236407,1528.1728014371324,-4.040802020296357E-17,-4.04085793132262E-17,0.1887509593633559,191.3142718911294,29425.082918372005,1.0561100598095571E-6,1.2523987861041903E-20,32.10830055502577,0.0,1.2722219776114612E-14,-0.025069500903505015,0.0,0.0,9.277188200394804E-19,-11478.856313467764,997.3152460124918,9.096741701554849E-4,646.2830173487388,413.88328980592297,5.284403804110757E-17,0.03417371214037822,-0.3286070129771104,0.0,0.0,0.0,0.19285506644984607,16.826077663722877,113.95535375299788
6.100000000000372,2.095505004532342E7,9321.610777776825,-6.538313059551813E-17,2.095505211862849E7,0.4054425223133702,-6.538313059551813E-17,-195.16035137818875,1528.1748311087736,-4.2454514940509736E-17,-4.24551217510551E-17,0.19499591834372074,194.48054130077674,29405.793168492615,1.1085701544518627E-6,1.3371160610073821E-20,32.108359763920554,0.0,1.2722219805716226E-14,-0.025487360776823825,0.0,0.0,9.277188200394804E-19,-11668.832478046605,997.3978897157602,9.103159848484167E-4,646.8461881469264,413.95188650118007,5.463664856482935E-17,0.03475171937275512,-0.33975423812242034,0.0,0.0,0.0,0.1959963697587333,17.393825872463964,115.82110267478022
6.200000000000405,2.0955030370463986E7,9474.428363805178,-6.973377119506613E-17,2.095503251230741E7,0.4252582762607471,-6.973377119506613E-17,-198.33664912764968,1528.1768952018954,-4.456987393663933E-17,-4.457053165833756E-17,0.20134414844991103,197.64569208339992,29386.186847411096,1.1627519269387317E-6,1.4260887267139882E-20,32.10841994468227,0.0,1.2722219835425368E-14,-0.025905222371820483,0.0,0.0,9.277188200394804E-19,-11858.741525003996,997.4818828550515,9.109686887571194E-4,647.419009559893,414.0216090919625,5.646060440414596E-17,0.035330531339954035,-0.35109638195506504,0.0,0.0,0.0,0.19913630543727823,17.971502097575822,117.68651018483128
6.300000000000439,2.095501037803151E7,9627.24615796727,-7.42994406974416E-17,2.0955012589527994E7,0.44571399299700154,-7.42994406974416E-17,-201.51180895117534,1528.1789937970693,-4.675529247775523E-17,-4.675600448155927E-17,0.20779568901210674,200.80970481611368,29366.264067996293,1.218683623288004E-6,1.5194588355673615E-20,32.10848109697267,0.0,1.2722219865223055E-14,-0.026323085716741003,0.0,0.0,9.277188200394804E-19,-12048.582288966822,997.567224613677,9.116322956547583E-4,648.0014984537654,414.09245718323456,5.831598932601027E-17,0.035910154639162015,-0.3626339653740747,0.0,0.0,0.0,0.20227481615502765,18.559132843820855,119.55154962800407
6.400000000000472,2.0954990068140775E7,9780.064163717378,-7.908720495515705E-17,2.0954992350405034E7,0.4668200043081292,-7.908720495515705E-17,-204.6858113753922,1528.181126975539,-4.9011969063822985E-17,-4.901273888608692E-17,0.21435057930660653,203.9725600235049,29346.024945035577,1.27639350050241E-6,1.617370887605861E-20,32.10854322044776,0.0,1.272221989508996E-14,-0.026740950839842386,0.0,0.0,9.277188200394804E-19,-12238.353601410294,997.6539141616583,9.123068195365472E-4,648.5936719732529,414.1644303732372,6.020288838853976E-17,0.036490596113177995,-0.3743675173074979,0.0,0.0,0.0,0.20541184615515265,19.156745026634972,121.41619525327171
6.500000000000505,2.0954969440908473E7,9932.882384517896,-8.410424983344568E-17,2.095497179505523E7,0.48858664585035694,-8.410424983344568E-17,-207.85863687359836,1528.1832948192348,-5.134110545746354E-17,-5.134193680526428E-17,0.2210088585705755,207.1342381768297,29325.46959523484,1.335909826434806E-6,1.7199718371849627E-20,32.10860631475776,0.0,1.272221992500643E-14,-0.027158817769392492,0.0,0.0,9.277188200394804E-19,-12428.054290609783,997.7419506557445,9.12992274619778E-4,649.1955475419593,414.237528253488,6.212138793809088E-17,0.03707186282890097,-0.3862975746942084,0.0,0.0,0.0,0.20854734113395795,19.764365971039794,123.28042214233867
6.600000000000539,2.0954948496453267E7,10085.700823839485,-8.935788153897708E-17,2.0954950923597265E7,0.5110242571884518,-8.935788153897708E-17,-211.03026586496327,1528.1854974108044,-5.374390673293995E-17,-5.3744803489546094E-17,0.2277705660242636,210.2947196932133,29304.59813727066,1.3972608798971068E-6,1.827411099699645E-20,32.10867037954697,0.0,1.2722219954952489E-14,-0.027576686533670115,0.0,0.0,9.277188200394804E-19,-12617.683181592798,997.8313332392053,9.136886753421033E-4,649.8071428611673,414.31175040859546,6.407157560607876E-17,0.03765396205759514,-0.398424682464129,0.0,0.0,0.0,0.21168124813119865,20.382023410490678,125.14420614459509
6.700000000000572,2.0954927234895837E7,10238.519485161098,-9.48555269534653E-17,2.0954929736151833E7,0.5341431817393847,-9.48555269534653E-17,-214.2006787137286,1528.1877348336268,-5.622158132500825E-17,-5.622254755540639E-17,0.23463574088090935,213.45398493485055,29283.41069183871,1.460474950510437E-6,1.9398405584068376E-20,32.10873541445366,0.0,1.2722219984907827E-14,-0.02799455716096489,0.0,0.0,9.277188200394804E-19,-12807.239096091032,997.9220610416407,9.143960363599401E-4,650.4284759087303,414.3870964160865,6.605354030565493E-17,0.038236901256846256,-0.41074939351757195,0.0,0.0,0.0,0.21481351543005373,21.009745485694705,127.00752381776269
6.800000000000606,2.0954905656358737E7,10391.338371970056,-1.0060473397215606E-16,2.0954908232841495E7,0.5579537669391303,-1.0060473397215606E-16,-217.369855728412,1528.1900071718321,-5.877534107765787E-17,-5.877638103421117E-17,0.24160442237320984,216.61201420820987,29261.90738150105,1.5255803391653982E-6,2.057414571347643E-20,32.108801419110456,0.0,1.2722220014851802E-14,-0.028412429679577404,0.0,0.0,9.277188200394804E-19,-12996.720852492592,998.0141331796536,9.151143725535929E-4,651.0595649438703,414.4635658469495,6.806737222873976E-17,0.03882068805426654,-0.42327226870678575,0.0,0.0,0.0,0.2179440924655943,21.64756074355455,128.8703523736574
6.900000000000639,2.095488376096655E7,10544.15748776214,-1.0661317184718128E-16,2.095488641379085E7,0.5824663638721743,-1.0661317184718128E-16,-220.5377771610118,1528.1923145103178,-6.140640129271539E-17,-6.140751942082622E-17,0.248676649756563,219.76878776323795,29240.088330857456,1.5926053570132208E-6,2.1802899783690988E-20,32.10886839314387,0.0,1.2722220044763445E-14,-0.028830304117819113,0.0,0.0,9.277188200394804E-19,-13186.127265794277,998.1075487561324,9.158436990215482E-4,651.7004285024713,414.54115826502476,7.011316284217044E-17,0.03940533023214621,-0.4359938768120012,0.0,0.0,0.0,0.22107292974136256,22.29549813584302,130.73266962855877
7.000000000000672,2.095486154884582E7,10696.976836041658,-1.1288863153576774E-16,2.095486427912646E7,0.6076913276253517,-1.1288863153576774E-16,-223.70442320621558,1528.194656934762,-6.411598077831619E-17,-6.411718172227092E-17,0.25585246232478287,222.92428579256813,29217.95366646722,1.6615783264374295E-6,2.3086261082452125E-20,32.10893633617452,0.0,1.2722220074621446E-14,-0.0292481805040124,0.0,0.0,9.277188200394804E-19,-13375.457147554087,998.2023068606051,9.165840310831064E-4,652.3510853996978,414.6198732272825,7.219100488431428E-17,0.03999083571364144,-0.4489147945203716,0.0,0.0,0.0,0.22419997875277142,22.953587018035886,132.59445395773366
7.100000000000706,2.09548390201251E7,10849.796420321509,-1.1943902605328536E-16,2.095484182897689E7,0.6336390171422419,-1.1943902605328536E-16,-226.86977400060965,1528.1970345316397,-6.690530189723283E-17,-6.690659050607071E-17,0.26313189941986825,226.07848843072998,29195.50351689756,1.7325275806598937E-6,2.4425847858969657E-20,32.109005247816995,0.0,1.2722220104404166E-14,-0.02966605886649048,0.0,0.0,9.277188200394804E-19,-13564.709305843799,998.2984065690496,9.173353842767825E-4,653.0115547289005,414.6997102836501,7.43009923612564E-17,0.04057721254989361,-0.46203560640226626,0.0,0.0,0.0,0.22732519191698344,23.621857148018783,134.4556842537108
7.200000000000739,2.0954816174934868E7,11002.616244123295,-1.2627239083112173E-16,2.095481906347263E7,0.6603197953152833,-1.2627239083112173E-16,-230.03380962189055,1528.199447388231,-6.977559061506876E-17,-6.977697194858763E-17,0.2705150004440121,229.2313757533609,29172.738012637943,1.805481463996871E-6,2.5823303397110178E-20,32.109075127680136,0.0,1.2722220134089639E-14,-0.030083939233597673,0.0,0.0,9.277188200394804E-19,-13753.882545201654,998.3958469442795,9.180977743631839E-4,653.6818558644626,414.78066897731725,7.644322054322455E-17,0.04116446890833091,-0.4753569048890385,0.0,0.0,0.0,0.2304485225084151,24.30033868487773,136.31633988794724
7.3000000000007725,2.0954793013407666E7,11155.4363109774,-1.33396884079369E-16,2.0954795982746232E7,0.6877440289064092,-1.33396884079369E-16,-233.1965100880811,1528.2018955926355,-7.27280765482966E-17,-7.272955588307901E-17,0.2780018048624834,232.38292777642184,29149.65728624165,1.8804683316461625E-6,2.7280296089568236E-20,32.10914597536651,0.0,1.2722220163655546E-14,-0.030501821633689186,0.0,0.0,9.277188200394804E-19,-13942.975666585311,998.4946270353565,9.18871217320292E-4,654.362008457971,414.8627488442316,7.861778596029214E-17,0.04175261306155221,-0.4888792902463049,0.0,0.0,0.0,0.23356992459967596,24.989062187467695,138.1764006755686
7.400000000000806,2.0954769535678014E7,11308.256624423037,-1.4082078715430564E-16,2.0954772586932234E7,0.7159220885778916,-1.4082078715430564E-16,-236.35785535674643,1528.2043792337831,-7.576399301214748E-17,-7.576557584774807E-17,0.2855923522153412,235.53312445541337,29126.261472243816,1.9575165497756163E-6,2.879851951301813E-20,32.10921779047279,0.0,1.2722220193079244E-14,-0.03091970609513117,0.0,0.0,9.277188200394804E-19,-14131.987467324801,998.5947458779608,9.196557293462148E-4,655.0520324409603,414.9459494133904,8.082478639855926E-17,0.0423416533773323,-0.5026033705501979,0.0,0.0,0.0,0.23668935300701482,25.68805861313967,140.03584684289407
7.500000000000839,2.0954745741882443E7,11461.077188008363,-1.4855250493066084E-16,2.0954748876167193E7,0.7448643489125146,-1.4855250493066084E-16,-239.51782532421387,1528.2068984014368,-7.888457706834038E-17,-7.888626913351777E-17,0.2932866821182037,238.68194568459592,29102.55070720613,2.036654495582442E-6,3.037969250424371E-20,32.1092905725895,0.0,1.2722220222337748E-14,-0.03133759264630082,0.0,0.0,9.277188200394804E-19,-14320.916741075755,998.6962024942185,9.204513268576984E-4,655.7519480239315,415.0302702066813,8.30643208958793E-17,0.042931598309200555,-0.5165297616607911,0.0,0.0,0.0,0.23980676324018327,26.397359316329396,141.8946589974923
7.600000000000873,2.0954721632159453E7,11613.89800529056,-1.5660056617864299E-16,2.0954724850589607E7,0.7745811884442064,-1.5660056617864299E-16,-242.67639982479554,1528.2094531862078,-8.209106957265889E-17,-8.20928768317237E-17,0.3010848342761717,241.82937129621183,29078.525129619986,2.117910557381132E-6,3.202555923724252E-20,32.10936432130143,0.0,1.2722220251407733E-14,-0.03175548131558649,0.0,0.0,9.277188200394804E-19,-14509.76227777271,998.7989958931362,9.212580264933907E-4,656.4617756995555,415.1157107392264,8.533648973789427E-17,0.043522456387880784,-0.5306590871974464,0.0,0.0,0.0,0.24292211145605622,27.116996047249327,143.75281810053727
7.700000000000906,2.0954697206649654E7,11766.719079835897,-1.6497362394571758E-16,2.0954700510340113E7,0.8050829895644647,-1.6497362394571758E-16,-245.83355863001313,1528.21204367956,-8.538471522235316E-17,-8.538664388157706E-17,0.308986848474753,244.97538105971046,29054.184880126268,2.201313134351735E-6,3.37378893013012E-20,32.109439036186856,0.0,1.2722220280265535E-14,-0.032173372131387316,0.0,0.0,9.277188200394804E-19,-14698.522863582628,998.9031250696798,9.220758451064679E-4,657.1815362365219,415.2022705186005,8.764139445299602E-17,0.044114236212892864,-0.5449919785074794,0.0,0.0,0.0,0.246035354416132,27.847000950244368,145.61030544125973
7.8000000000009395,2.09546724654956E7,11919.540415219837,-1.7368045594311815E-16,2.0954675855561275E7,0.8363801386521699,-1.7368045594311815E-16,-248.98928144782548,1528.2146699738175,-8.876676260337934E-17,-8.876881911749551E-17,0.31699276459804127,248.11995468097547,29029.530101291835,2.2868906368989666E-6,3.551847778003877E-20,32.10951471681823,0.0,1.2722220308887149E-14,-0.032591265122113716,0.0,0.0,9.277188200394804E-19,-14887.197280858529,999.0085890057519,9.229047997721491E-4,657.9112506864902,415.28994904562586,8.997913780852173E-17,0.044706946445344425,-0.5595290746425022,0.0,0.0,0.0,0.24914644944681288,28.587406562543876,147.46710261330622
7.900000000000973,2.0954647408841904E7,12072.36201502713,-1.827299649370702E-16,2.0954650886397716E7,0.8684830260358112,-1.827299649370702E-16,-252.14354792185935,1528.2173321621688,-9.223846423746073E-17,-9.224065531630782E-17,0.3251026226216228,251.263071801556,29004.560937732458,2.3746714865530545E-6,3.736914533141378E-20,32.10959136276195,0.0,1.2722220337248229E-14,-0.03300916031618724,0.0,0.0,9.277188200394804E-19,-15075.78430809336,999.1153866696851,9.237449077835666E-4,658.6509403808018,415.37874581393453,9.234982380578565E-17,0.045300595800739786,-0.5742710223275288,0.0,0.0,0.0,0.252255354402999,29.33824581264799,149.32319149284194
8.000000000001005,2.095462203683525E7,12225.18388285188,-1.9213117914471436E-16,2.0954625602996144E7,0.9014020459645495,-1.9213117914471436E-16,-255.29633763064325,1528.2200303386721,-9.580107662897242E-17,-9.580340924412901E-17,0.33331646261363673,254.40471199790002,28979.277536161244,2.4646841158947526E-6,3.9291738268692545E-20,32.10966897357798,0.0,1.2722220365324088E-14,-0.03342705774204044,0.0,0.0,9.277188200394804E-19,-15264.282719874001,999.223517016056,9.245961866501432E-4,659.4006269293963,415.4686603097959,9.475355767519693E-17,0.04589519304234217,-0.5892184759306145,0.0,0.0,0.0,0.25536202763431043,30.09955201874485,151.17855421824547
8.10000000000095,2.0954596349624287E7,12378.006022297628,-2.0189325263470803E-16,2.0954600005505227E7,0.9351475966874538,-2.0189325263470803E-16,-258.4476300868431,1528.2227645982623,-9.945586031164942E-17,-9.945834170325009E-17,0.3416343247460349,257.54485478059,28953.680045247078,2.5569569687761414E-6,4.128812864237398E-20,32.10974754882047,0.0,1.2722220393089687E-14,-0.03384495742811717,0.0,0.0,9.277188200394804E-19,-15452.691286835401,999.332978986312,9.254586541023488E-4,660.1603322253541,415.55969201262025,9.719044587191078E-17,0.04649074697524795,-0.6043720974358141,0.0,0.0,0.0,0.25846642795356994,30.871358887300257,153.03317317125865
8.200000000000895,2.0954570347359806E7,12530.828436977483,-2.1202546573248954E-16,2.0954574094075765E7,0.9697300804028659,-2.1202546573248954E-16,-261.5974047365024,1528.2255350367516,-1.0320407989509572E-16,-1.0320671757868775E-16,0.350056249281254,260.68347959358357,28927.768615785986,2.651518500186285E-6,4.3360214323068156E-20,32.10982708803716,0.0,1.2722220420519646E-14,-0.03426285940287244,0.0,0.0,9.277188200394804E-19,-15641.008775615013,999.4437715080585,9.263323280859359E-4,660.9300784401746,415.65184039434865,9.966059607031052E-17,0.047087266440385404,-0.6197325564088685,0.0,0.0,0.0,0.2615685146078907,31.653700511279173,154.8870309594723
8.30000000000084,2.0954544030194636E7,12683.651130514168,-2.2253722543018135E-16,2.095454786886061E7,1.0051599032966818,-2.2253722543018135E-16,-264.7456409582845,1528.2283417508336,-1.0704700411111049E-16,-1.070498058846034E-16,0.3585822765795465,263.82056581345506,28901.54340063408,2.7483971763600396E-6,4.550991908532335E-20,32.10990759076958,0.0,1.2722220447588242E-14,-0.03468076369477248,0.0,0.0,9.277188200394804E-19,-15829.233948807303,999.5558934953681,9.272172267641857E-4,661.7098880261133,415.7451049196914,1.0216411715917086E-16,0.04768476030920924,-0.6353005299671275,0.0,0.0,0.0,0.26466824725157734,32.44661136858597,156.74011040003302
8.400000000000784,2.0954517398283627E7,12836.474106540089,-2.334380658011187E-16,2.0954521330014616E7,1.041447475532773,-2.334380658011187E-16,-267.8923180627186,1528.2311848380864,-1.109859058598139E-16,-1.1098887981053925E-16,0.36721244710059603,266.956092748642,28875.0045546405,2.8476214747559822E-6,4.7739192692399156E-20,32.10998905655327,0.0,1.2722220474269401E-14,-0.03509867033229473,0.0,0.0,9.277188200394804E-19,-16017.36556491852,999.6693438490882,9.281133685201674E-4,662.4997837185372,415.8394850463663,1.0470111923674489E-16,0.0482832374787396,-0.6510767027489994,0.0,0.0,0.0,0.2677655859209259,33.25012632048297,158.59239450447308
8.500000000000728,2.0954490451783717E7,12989.2973686975,-2.447376484189799E-16,2.0954494477694754E7,1.0786032113224824,-2.447376484189799E-16,-271.0374152914485,1528.2340643969776,-1.1502206225558778E-16,-1.1502521676745187E-16,0.37594680140146414,270.0900396386936,28848.15223477781,2.949219884250537E-6,5.005001098198068E-20,32.11007148491735,0.0,1.27222205005367E-14,-0.035516579343928066,0.0,0.0,9.277188200394804E-19,-16205.402378321616,999.7841214563061,9.290207719523316E-4,663.299788532409,415.93498022463444,1.0727171360500398E-16,0.04888270686656261,-0.6670617668781316,0.0,0.0,0.0,0.2708604910109951,34.06428060974206,160.44386646457093
8.600000000000673,2.0954463190853924E7,13142.120920638523,-2.5644576278149997E-16,2.0954467312060047E7,1.1166375288521584,-2.5644576278149997E-16,-274.18091181648623,1528.236980526861,-1.1915675467278897E-16,-1.1916009843342717E-16,0.38478538012973107,273.22238565352444,28820.986600074917,3.0532209049439457E-6,5.2444375952829896E-20,32.11015487538479,0.0,1.2722220526363357E-14,-0.03593449075817263,0.0,0.0,9.277188200394804E-19,-16393.343139211465,999.9002251906571,9.299394558767575E-4,664.1099257646396,416.03158989753877,1.0987601276448062E-16,0.04948317740645312,-0.6832564219313411,0.0,0.0,0.0,0.2739529232537652,34.88910985898991,162.29450963916122
8.700000000000617,2.09544356156554E7,13294.944766025255,-2.685723267387459E-16,2.095443983327167E7,1.1555608502967205,-2.685723267387459E-16,-277.3227867394659,1528.2399333279836,-1.2339126879126705E-16,-1.233948107994689E-16,0.3937282240243338,276.3531098926684,28793.507811699063,3.1596530482014523E-6,5.492431585237001E-20,32.110239227472086,0.0,1.2722220551722258E-14,-0.03635240460353975,0.0,0.0,9.277188200394804E-19,-16581.1865935601,1000.0176539119971,9.308694393243709E-4,664.9302189920082,416.12931350061206,1.1251413040842166E-16,0.05008465804396494,-0.6996613749022574,0.0,0.0,0.0,0.27704284369794535,35.72465006883595,164.14430754181575
8.800000000000562,2.0954407726351336E7,13447.768908529873,-2.811273869259329E-16,2.095441204149283E7,1.1953836019025292,-2.811273869259329E-16,-280.4630190909047,1528.2429229014824,-1.2772689464166489E-16,-1.277306442146918E-16,0.4027753739156962,279.4821913845392,28765.716032862663,3.2685448368840052E-6,5.749188526519847E-20,32.110324540689604,0.0,1.2722220576585926E-14,-0.0367703209085523,0.0,0.0,9.277188200394804E-19,-16768.931483072352,1000.1364064668234,9.318107415440742E-4,665.7606920743027,416.228150462208,1.1518618141751348E-16,0.050687157732563576,-0.7162773401685206,0.0,0.0,0.0,0.2801302136899434,36.57093761618352,165.99324382933074
8.900000000000507,2.095437952310703E7,13600.593351834714,-2.941211192007595E-16,2.0954383936888844E7,1.2361162139452198,-2.941211192007595E-16,-283.60158782946473,1528.2459493493852,-1.3216492665050198E-16,-1.32168893431624E-16,0.41192687071945866,282.6096090856928,28737.6114288792,3.379924805237047E-6,6.0149165202524E-20,32.11041081454136,0.0,1.2722220600926523E-14,-0.0371882397017445,0.0,0.0,9.277188200394804E-19,-16956.57654514157,1000.2564816880582,9.327633820008392E-4,666.6013691530197,416.32810020330226,1.1789228185390286E-16,0.0512906854297194,-0.7331050394546013,0.0,0.0,0.0,0.283214994856266,37.42800925231911,167.8413022909554
9.000000000000451,2.0954351006089922E7,13753.418099632338,-3.0756382908523967E-16,2.0954355519627165E7,1.2777691206950523,-3.0756382908523967E-16,-286.7384718412204,1528.249012774613,-1.367066636850361E-16,-1.3671085765110066E-16,0.4211827554317702,285.7353418800945,28709.194167200476,3.4938214987998504E-6,6.289826319252348E-20,32.11049804852494,0.0,1.2722220624715876E-14,-0.037606161011661934,0.0,0.0,9.277188200394804E-19,-17144.120512805668,1000.3778783949133,9.337273803744189E-4,667.4522746506143,416.42916213735947,1.2063254895514844E-16,0.05189525009321878,-0.7501452017941878,0.0,0.0,0.0,0.286297149087061,38.29590210098086,169.688466838306
