time,gePosition_ft_X,gePosition_ft_Y,gePosition_ft_Z,feVelocity_ft_s_X,feVelocity_ft_s_Y,feVelocity_ft_s_Z,altitudeMsl_ft,longitude_deg,latitude_deg,localGravity_ft_s2,eulerAngle_deg_Yaw,eulerAngle_deg_Pitch,eulerAngle_deg_Roll,bodyAngularRateWrtEi_deg_s_Roll,bodyAngularRateWrtEi_deg_s_Pitch,bodyAngularRateWrtEi_deg_s_Yaw,altitudeRateWrtMsl_ft_min,speedOfSound_ft_s,airDensity_slug_ft3,ambientPressure_lbf_ft2,ambientTemperature_dgR,aero_bodyForce_lbf_X,aero_bodyForce_lbf_Y,aero_bodyForce_lbf_Z,aero_bodyMoment_ftlbf_L,aero_bodyMoment_ftlbf_M,aero_bodyMoment_ftlbf_N,mach,dynamicPressure_lbf_ft2,trueAirspeed_nmi_h
0.0,2.09556463253E7,0.0,0.0,0.0,4.04980419262E-5,0.0,30000.0,0.0,0.0,32.1065363982,0.0,-0.0,0.0,0.0,0.0,0.0,0.0,994.853991834,8.91300230208E-4,630.333405472,411.83924,5.65462278176E-18,0.00350012709102,-0.0,0.0,0.0,0.0,0.0201034525309,0.178260046042,11.8496760056
0.1,2.09556461659E7,2.23610623985E-5,0.0,0.0,4.15128543409E-4,3.19948390492,29999.8405586,6.11383915686E-11,0.0,32.1065368581,0.0,0.0,-4.178074827673383E-4,0.0,0.0,0.0,-191.9690342952,994.854680626,8.91305280392E-4,630.337770144,411.839806893,5.72644936777E-18,0.00354452441488,-5.67016553833E-4,0.0,0.0,0.0,0.020358682708,0.182816389098,12.0001258811
0.2,2.09556456859E7,8.48800542369E-5,0.0,0.0,8.45030087248E-4,6.39890963132,29999.3606384,2.32074398732E-10,0.0,32.1065382983,0.0,0.0,-8.356150753340165E-4,0.0,0.0,0.0,-383.9345778792,994.856753897,8.91320481493E-4,630.350907848,411.841513245,5.93690894005E-18,0.00367472732913,-0.00117570062245,0.0,0.0,0.0,0.0211065049883,0.196497778705,12.4409446445
0.3,2.09556448861E7,1.93493776166E-4,0.0,0.0,0.00133833142877,9.59827124255,29998.5607787,5.29040112896E-10,0.0,32.1065407205,0.0,0.0,-0.0012534227939267728,0.0,0.0,0.0,-575.896274553,994.860209316,8.91345816429E-4,630.372803821,411.84435714,6.27207814614E-18,0.00388211157259,-0.00186309441156,0.0,0.0,0.0,0.0222973650962,0.219304451383,13.1429267197
0.4,2.09556437663E7,3.54911213351E-4,0.0,0.0,0.00190221825642,12.7975595029,29997.4409865,9.70378903825E-10,0.0,32.1065441246,0.0,0.0,-0.0016712306568934339,0.0,0.0,0.0,-767.853570174,994.865046854,8.91381284982E-4,630.403457874,411.848338552,6.71333521905E-18,0.00415514502757,-0.0026588624759,0.0,0.0,0.0,0.0238649772582,0.251237180719,14.0670061722
0.5,2.09556423266E7,5.76500758289E-4,0.0,0.0,0.00254268490789,15.9967625791,29996.0012696,1.57623707359E-9,0.0,32.1065485107,0.0,0.0,-0.0020890386843791966,0.0,0.0,0.0,-959.805754746,994.871266476,8.91426886902E-4,630.442869791,411.853457454,7.24135509848E-18,0.00448186064444,-0.00358494360492,0.0,0.0,0.0,0.0257405370427,0.292297241248,15.1726336564
0.6,2.09556405669E7,8.66171692829E-4,0.0,0.0,0.00326457405595,19.1958667647,29994.2416373,2.36823981468E-9,0.0,32.1065538786,0.0,0.0,-0.0025068468980132172,0.0,0.0,0.0,-1151.752005882,994.878868144,8.91482621897E-4,630.49103932,411.859713813,7.83867606193E-18,0.00485144505298,-0.00465672754243,0.0,0.0,0.0,0.0278618535532,0.342486382959,16.4231587837
0.7,2.09556384874E7,0.00123226607499,0.0,0.0,0.0040717290085,22.3948570588,29992.1621,3.36919561655E-9,0.0,32.1065602284,0.0,0.0,-0.002924655320599216,0.0,0.0,0.0,-1343.691423528,994.887851811,8.91548489632E-4,630.547966171,411.867107591,8.49074415131E-18,0.00525488493673,-0.00588470144704,0.0,0.0,0.0,0.0301770674734,0.401806813218,17.7880213548
0.8,2.0955636088E7,0.00168346802279,0.0,0.0,0.00496717888541,25.5937175829,29989.7626701,4.60284823835E-9,0.0,32.10656756,0.0,0.0,-0.0033424639758805642,0.0,0.0,0.0,-1535.6230549739998,994.898217425,8.9162448972E-4,630.613650011,411.875638745,9.18597338774E-18,0.00568500421644,-0.00727593719447,0.0,0.0,0.0,0.0326448680463,0.470261184309,19.2428790689
0.9,2.09556333687E7,0.00222873117849,0.0,0.0,0.00595331227623,28.792431867,29987.0433613,6.09367838948E-9,0.0,32.1065758733,0.0,0.0,-0.0037602728883397484,0.0,0.0,0.0,-1727.54591202,994.909964925,8.91710621725E-4,630.68809046,411.885307225,9.91535914636E-18,0.00613622467548,-0.00883521623674,0.0,0.0,0.0,0.0352331201411,0.547852584889,20.7687981653
1.0,2.09556303295E7,0.00287722217758,0.0,0.0,0.00703202241539,31.990983039,29984.0041891,7.86674916977E-9,0.0,32.1065851684,0.0,0.0,-0.0041780820830379425,0.0,0.0,0.0,-1919.45898234,994.923094246,8.91806885156E-4,630.771287097,411.896112978,1.06719743862E-17,0.00660425409821,-0.0105658087667,0.0,0.0,0.0,0.0379170740892,0.634584534077,22.3511981839
1.1,2.09556269705E7,0.0036382770863,0.0,0.0,0.00820482171957,35.1893539501,29980.6451706,9.94758696734E-9,0.0,32.1065954452,0.0,0.0,-0.004595891585500417,0.0,0.0,0.0,-2111.361237006,994.937605313,8.9191327947E-4,630.863239451,411.908055941,1.1450499894E-17,0.0070857954785,-0.0124699906369,0.0,0.0,0.0,0.0406776960359,0.730460977252,23.9788677876
1.2,2.09556232916E7,0.00452136791261,0.0,0.0,0.0094729295879,38.387527257,29976.9663248,1.23620898989E-8,0.0,32.1066067036,0.0,0.0,-0.005013701421636321,0.0,0.0,0.0,-2303.25163542,994.953498044,8.92029804069E-4,630.963947005,411.921136048,1.22468378171E-17,0.00757830779294,-0.01454938016,0.0,0.0,0.0,0.0435002941906,0.83548628298,25.6431550121
1.3,2.0955619293E7,0.00553607678366,0.0,0.0,0.0108373388441,41.5854854767,29972.9676722,1.51364572113E-8,0.0,32.1066189436,0.0,0.0,-0.005431511617629828,0.0,0.0,0.0,-2495.129128602,994.97077235,8.92156458298E-4,631.073409195,411.935353225,1.30578118052E-17,0.00807982038883,-0.0168051567928,0.0,0.0,0.0,0.046373452877,0.949665240657,27.3373389498
1.4,2.09556149745E7,0.0066920759124,0.0,0.0,0.0122988658497,44.7832110229,29968.6492353,1.82971345115E-8,0.0,32.106632165,0.0,0.0,-0.0058493221999343994,0.0,0.0,0.0,-2686.992661374,994.989428135,8.9229324145E-4,631.191625406,411.950707393,1.38809408554E-17,0.00858879299654,-0.0192382038453,0.0,0.0,0.0,0.0492882285599,1.07300305862,29.0561558567
1.5,2.09556103363E7,0.00799911193293,0.0,0.0,0.0138581883762,47.9806862312,29964.0110382,2.18707709417E-8,0.0,32.1066463679,0.0,0.0,-0.006267133195175383,0.0,0.0,0.0,-2878.841173872,995.009465294,8.92440152758E-4,631.318594979,411.967198466,1.47142708611E-17,0.00910401146135,-0.0218492025358,0.0,0.0,0.0,0.0522375509936,1.20550536257,30.7954461662
1.6,2.09556053784E7,0.00946699354571,0.0,0.0,0.0155158743855,51.1778933762,29959.0531068,2.5884185403E-8,0.0,32.1066615521,0.0,0.0,-0.00668494463021877,0.0,0.0,0.0,-3070.6736025719997,995.030883715,8.92597191402E-4,631.454317204,411.984826351,1.55562495835E-17,0.00962451035326,-0.024638694762,0.0,0.0,0.0,0.0552157787298,1.34717819415,32.551892489
1.7,2.09556001008E7,0.011105581686,0.0,0.0,0.0172724040497,54.3748146829,29953.7754689,3.03643396793E-8,0.0,32.1066777176,0.0,0.0,-0.007102756532050873,0.0,0.0,0.0,-3262.488880974,995.053683279,8.92764356505E-4,631.598791322,412.003590951,1.64056336919E-17,0.0101495154277,-0.0276071255739,0.0,0.0,0.0,0.0582183686336,1.49802800968,34.3228248136
1.8,2.09555945035E7,0.0129247816304,0.0,0.0,0.0191281867483,57.5714323351,29948.1781539,3.53383168598E-8,0.0,32.1066948642,0.0,0.0,-0.007520568927658004,0.0,0.0,0.0,-3454.285940106,995.077863858,8.92941647133E-4,631.752016527,412.023492159,1.72614193159E-17,0.0106784006397,-0.0307548723249,0.0,0.0,0.0,0.0612416289846,1.65806167897,36.1060749753
1.9,2.09555885865E7,0.0149345366057,0.0,0.0,0.0210835742869,60.7677284816,29942.261193,4.08333038682E-8,0.0,32.1067129919,0.0,0.0,-0.007938381844255656,0.0,0.0,0.0,-3646.063708896,995.103425318,8.93129062295E-4,631.913991963,412.044529866,1.81227898199E-17,0.0112106558177,-0.0340822649632,0.0,0.0,0.0,0.0642825338039,1.82728648408,37.8998672139
2.0,2.09555823499E7,0.0171448225707,0.0,0.0,0.0231388712796,63.9636852395,29936.0246193,4.68765772002E-8,0.0,32.1067321006,0.0,0.0,-0.008356195309173921,0.0,0.0,0.0,-3837.82111437,995.130367514,8.93326600947E-4,632.084716726,412.066703954,1.8989076229E-17,0.0117458621691,-0.037589600352,0.0,0.0,0.0,0.0673385821638,2.0057101182,39.7027352456
2.1,2.09555757938E7,0.0195656439227,0.0,0.0,0.0252943433595,67.1592846975,29929.4684677,5.34954911885E-8,0.0,32.1067521902,0.0,0.0,-0.008774009349685587,0.0,0.0,0.0,-4029.55708185,995.158690298,8.93534261983E-4,632.264189861,412.090014299,1.98597270006E-17,0.0122836735697,-0.0412771525087,0.0,0.0,0.0,0.0704076907176,2.19334068445,41.5134589162
2.2,2.09555689181E7,0.0222070299394,0.0,0.0,0.0275502237407,70.3545089175,29922.5927747,6.07174682787E-8,0.0,32.1067732606,0.0,0.0,-0.009191823993292625,0.0,0.0,0.0,-4221.27053505,995.188393511,8.93752044244E-4,632.452410367,412.11446077,2.07342847424E-17,0.012823802153,-0.045145180019,0.0,0.0,0.0,0.0734881109295,2.39018669469,43.3310154131
2.3,2.09555617229E7,0.0250790318092,0.0,0.0,0.029906718491,73.5493399363,29915.3975788,6.85699909142E-8,0.0,32.1067953116,0.0,0.0,-0.00960963926743972,0.0,0.0,0.0,-4412.960396178,995.219476986,8.93979946514E-4,632.649377191,412.140043232,2.16123681336E-17,0.0133660071203,-0.0491939314674,0.0,0.0,0.0,0.0765783648022,2.59625706831,45.1545413812
2.4,2.09555542082E7,0.0281917201375,0.0,0.0,0.0323640108081,76.7437597659,29907.8829202,7.70805947218E-8,0.0,32.1068183431,0.0,0.0,-0.010027455199686137,0.0,0.0,0.0,-4604.625585954,995.25194055,8.94217967517E-4,632.855089232,412.16676154,2.24936577729E-17,0.0139100859812,-0.0534236494599,0.0,0.0,0.0,0.0796771945664,2.81156113094,46.9833032672
2.5,2.09555463742E7,0.0315551828394,0.0,0.0,0.0349222645114,79.9377503942,29900.0488409,8.62768627543E-8,0.0,32.1068423551,0.0,0.0,-0.010445271817591147,0.0,0.0,0.0,-4796.265023651999,995.285784022,8.94466105923E-4,633.069545341,412.194615547,2.3377885015E-17,0.0144558676432,-0.0578345736332,0.0,0.0,0.0,0.0827835229917,3.03610861319,48.8166739261
2.6,2.09555382207E7,0.0351795233495,0.0,0.0,0.0375816269122,83.1312937854,29891.8953848,9.61864206005E-8,0.0,32.1068673473,0.0,0.0,-0.010863089148771316,0.0,0.0,0.0,-4987.877627124,995.321007212,8.94724360345E-4,633.292744318,412.223605095,2.42648230959E-17,0.015003206919,-0.0624269429284,0.0,0.0,0.0,0.0858964218407,3.26990964927,50.6541140259
2.7,2.09555297479E7,0.0390748590925,0.0,0.0,0.0403422311881,86.3243718796,29883.4225974,1.06836932209E-7,0.0,32.1068933196,0.0,0.0,-0.011280907220900506,0.0,0.0,0.0,-5179.462312776,995.357609923,8.94992729336E-4,633.524684913,412.253730022,2.51542800292E-17,0.0155519801288,-0.0672009973217,0.0,0.0,0.0,0.0890150866143,3.51297477565,52.4951571615
2.8,2.09555209558E7,0.043251320172,0.0,0.0,0.0432041983588,89.5169665926,29874.6305262,1.18256096303E-7,0.0,32.106920272,0.0,0.0,-0.011698726061709875,0.0,0.0,0.0,-5371.017995556,995.39559195,8.95271211395E-4,633.765365828,412.284990161,2.60460928791E-17,0.0161020815559,-0.0721569791545,0.0,0.0,0.0,0.0921388161939,3.76531492962,54.3393978555
2.9,2.09555118445E7,0.0477190482381,0.0,0.0,0.0461676389434,92.7090598161,29865.5192205,1.30471643294E-7,0.0,32.1069482042,0.0,0.0,-0.012116545698873282,0.0,0.0,0.0,-5562.543588965999,995.434953081,8.95559804962E-4,634.014785715,412.317385336,2.69401231132E-17,0.0166534205696,-0.0772951341602,0.0,0.0,0.0,0.0952669963238,4.0269414478,56.1864818207
3.0,2.0955502414E7,0.0524881955093,0.0,0.0,0.0492326543495,95.9006334168,29856.0887313,1.4351133261E-7,0.0,32.1069771161,0.0,0.0,-0.012534366160179182,0.0,0.0,0.0,-5754.038005008,995.475693094,8.95858508419E-4,634.272943176,412.350915365,2.78362528083E-17,0.0172059192764,-0.0826157122639,0.0,0.0,0.0,0.0983990861241,4.2978660646,58.0360980112
3.1,2.09554926644E7,0.0575689239209,0.0,0.0,0.0523993380555,99.0916692364,29846.3391115,1.57402950367E-7,0.0,32.1070070075,0.0,0.0,-0.012952187473416027,0.0,0.0,0.0,-5945.500154183999,995.517811762,8.96167320092E-4,634.539836765,412.38558006,2.8734381534E-17,0.0177595105911,-0.0881189682062,0.0,0.0,0.0,0.101534607014,4.57810091068,59.8879720922
3.2,2.09554825957E7,0.0629714043829,0.0,0.0,0.0556677766115,102.282149091,29836.2704157,1.72174307352E-7,0.0,32.1070378783,0.0,0.0,-0.013370009666429566,0.0,0.0,0.0,-6136.928945459999,995.561308848,8.96486238249E-4,634.815464984,412.421379227,2.96344237772E-17,0.0183141366418,-0.0938051620339,0.0,0.0,0.0,0.10467313356,4.8676585113,61.7418610462
3.3,2.0955472208E7,0.0687058161305,0.0,0.0,0.0590380504939,105.472054769,29825.8827005,1.87853237245E-7,0.0,32.1070697283,0.0,0.0,-0.013787832767008254,0.0,0.0,0.0,-6328.32328614,995.606184109,8.968152611E-4,635.099826286,412.458312666,3.05363068049E-17,0.0188697474471,-0.0996745594846,0.0,0.0,0.0,0.10781428588,5.16655178463,63.5975486938
3.4,2.09554615013E7,0.0747823461539,0.0,0.0,0.0625102348413,108.661368034,29815.1760242,2.04467595067E-7,0.0,32.1071025574,0.0,0.0,-0.014205656802997837,0.0,0.0,0.0,-6519.682082040001,995.652437291,8.97154386797E-4,635.392919074,412.496380168,3.14399688777E-17,0.01942629981,-0.105727432291,0.0,0.0,0.0,0.110957723295,5.47479404005,65.4548419542
3.5,2.09554504758E7,0.0812111886961,0.0,0.0,0.0660844000849,111.850070621,29804.1504469,2.22045255811E-7,0.0,32.1071363653,0.0,0.0,-0.014623481802244067,0.0,0.0,0.0,-6711.00423726,995.700068136,8.97503613436E-4,635.694741702,412.535581519,3.23453577533E-17,0.0199837563903,-0.111964058419,0.0,0.0,0.0,0.114103139013,5.79239897631,67.3135677082
3.6,2.09554391313E7,0.0880025448097,0.0,0.0,0.0697606124968,115.038144238,29792.8060307,2.40614113234E-7,0.0,32.1071711519,0.0,0.0,-0.01504130779276458,0.0,0.0,0.0,-6902.28865428,995.749076375,8.97862939052E-4,636.005292474,412.5759165,3.32524294229E-17,0.0205420849237,-0.118384722257,0.0,0.0,0.0,0.11725025564,6.11938067976,69.1735701548
3.7,2.09554274681E7,0.0951666219645,0.0,0.0,0.0735389346619,118.225570561,29781.1428393,2.60202078787E-7,0.0,32.1072069169,0.0,0.0,-0.015459134802347823,0.0,0.0,0.0,-7093.53423366,995.799461733,8.98232361625E-4,636.324569641,412.617384884,3.41611470436E-17,0.0211012575588,-0.124989714759,0.0,0.0,0.0,0.120398821388,6.45575362239,71.0347085729
3.8,2.09554154862E7,0.102713633699,0.0,0.0,0.0774194258925,121.412331241,29769.1609384,2.80837080672E-7,0.0,32.1072436602,0.0,0.0,-0.015876962858954145,0.0,0.0,0.0,-7284.7398744600005,995.851223926,8.98611879075E-4,636.652571407,412.659986437,3.50714800287E-17,0.0216612502949,-0.131779333563,0.0,0.0,0.0,0.123548606844,6.80153265994,72.8968554193
3.9,2.09554031857E7,0.110653799313,0.0,0.0,0.081402142589,124.598407896,29756.8603955,3.02547062995E-7,0.0,32.1072813816,0.0,0.0,-0.016294791990601173,0.0,0.0,0.0,-7475.90447376,995.904362663,8.99001489266E-4,636.989295926,412.703720919,3.59834032726E-17,0.0222220425009,-0.138753883073,0.0,0.0,0.0,0.126699402217,7.15673302987,74.7598947044
4.0,2.09553905666E7,0.118997343587,0.0,0.0,0.0854871385511,127.783782114,29744.2412798,3.25359985017E-7,0.0,32.1073200809,0.0,0.0,-0.016712622225134664,0.0,0.0,0.0,-7667.026926840001,995.958877644,8.9940119E-4,637.334741298,412.748588083,3.68968964854E-17,0.0227836165037,-0.145913674525,0.0,0.0,0.0,0.129851014979,7.52137034931,76.6237206006
4.1,2.0955377629E7,0.127754496541,0.0,0.0,0.0896744652612,130.968435451,29731.3036627,3.49303820491E-7,0.0,32.1073597578,0.0,0.0,-0.017130453590572248,0.0,0.0,0.0,-7858.10612706,996.014768562,8.99810979025E-4,637.688905576,412.794587678,3.78119436214E-17,0.0233459572334,-0.153259026034,0.0,0.0,0.0,0.133003267834,7.89546061295,78.4882362458
4.2,2.09553643729E7,0.136935493213,0.0,0.0,0.0939641721238,134.152349432,29718.047617,3.74406557053E-7,0.0,32.1074004122,0.0,0.0,-0.017548286114988865,0.0,0.0,0.0,-8049.14096592,996.072035101,9.00230854026E-4,638.051786762,412.841719442,3.87285323848E-17,0.0239090519173,-0.160790262623,0.0,0.0,0.0,0.136155996966,8.27902019093,80.3533527106
4.3,2.09553507985E7,0.14655057346,0.0,0.0,0.0983563066839,137.335505548,29704.4732176,4.00696195698E-7,0.0,32.1074420438,0.0,0.0,-0.017966119826230257,0.0,0.0,0.0,-8240.130332879999,996.130676938,9.00660812635E-4,638.423382805,412.88998311,3.96466538024E-17,0.0244728898146,-0.168507716245,0.0,0.0,0.0,0.139309050522,8.67206582652,82.2189881036
4.4,2.09553369059E7,0.156609981783,0.0,0.0,0.102850914811,140.517885258,29690.5805413,4.28200750294E-7,0.0,32.1074846524,0.0,0.0,-0.01838395475242865,0.0,0.0,0.0,-8431.07311548,996.190693742,9.01100852419E-4,638.803691607,412.93937841,4.0566301852E-17,0.025037461986,-0.176411725788,0.0,0.0,0.0,0.142462287297,9.07461463397,84.0850667944
4.5,2.0955322695E7,0.167123967164,0.0,0.0,0.107448040879,143.699469984,29676.3696667,4.56948247153E-7,0.0,32.1075282377,0.0,0.0,-0.018801790921544395,0.0,0.0,0.0,-8621.968199039999,996.252085173,9.01550970891E-4,639.192711015,412.989905061,4.14874731376E-17,0.0256027610925,-0.184502637075,0.0,0.0,0.0,0.14561557558,9.48668409611,85.9515187363
4.6,2.0955308166E7,0.178102782931,0.0,0.0,0.112147727906,146.880241116,29661.840674,4.86966724643E-7,0.0,32.1075727995,0.0,0.0,-0.01921962836165241,0.0,0.0,0.0,-8812.81446696,996.314850883,9.02011165504E-4,639.590438829,413.041562778,4.24101666069E-17,0.0261687812194,-0.192780802857,0.0,0.0,0.0,0.148768792155,9.90829206199,87.8182788743
4.7,2.0955293319E7,0.189556686619,0.0,0.0,0.116950017691,150.060180007,29646.9936457,5.1828423284E-7,0.0,32.1076183376,0.0,0.0,-0.019637467100770342,0.0,0.0,0.0,-9003.610800420001,996.378990518,9.0248143365E-4,639.996872796,413.094351269,4.33343833022E-17,0.0267355177223,-0.201246582798,0.0,0.0,0.0,0.151921821421,10.3394567444,89.6852866265
4.8,2.0955278154E7,0.201495939861,0.0,0.0,0.121854950934,153.239267974,29631.8286659,5.50928833216E-7,0.0,32.1076648517,0.0,0.0,-0.02005530716703041,0.0,0.0,0.0,-9194.35607844,996.444503713,9.02961772665E-4,640.412010611,413.148270233,4.42601261417E-17,0.0273029670908,-0.209900343449,0.0,0.0,0.0,0.155074554615,10.7801967177,91.5524854274
4.9,2.09552626711E7,0.21393080828,0.0,0.0,0.12686256734,156.417486295,29616.3458206,5.8492859835E-7,0.0,32.1077123416,0.0,0.0,-0.020473148588392966,0.0,0.0,0.0,-9385.0491777,996.511390098,9.03452179823E-4,640.83584992,413.203319365,4.51873997273E-17,0.0278711268291,-0.21874245823,0.0,0.0,0.0,0.158226889134,11.2305309145,93.419822326
5.0,2.09552468705E7,0.226871561393,0.0,0.0,0.131972905713,159.594816215,29600.5451978,6.20311611677E-7,0.0,32.1077608069,0.0,0.0,-0.020890991393047523,0.0,0.0,0.0,-9575.688972900001,996.579649291,9.0395265234E-4,641.268388317,413.259498354,4.61162101738E-17,0.0284399953499,-0.227773307397,0.0,0.0,0.0,0.161378727931,11.6904786242,95.2872476312
5.1,2.09552307522E7,0.240328472524,0.0,0.0,0.137186004044,162.771238936,29584.4268872,6.57105967255E-7,0.0,32.1078102475,0.0,0.0,-0.021308835609011725,0.0,0.0,0.0,-9766.27433616,996.649280906,9.04463187372E-4,641.709623344,413.316806878,4.70465649578E-17,0.0290095718803,-0.236993278005,0.0,0.0,0.0,0.164529978983,12.1600594892,97.1547145962
5.2,2.09552143163E7,0.254311818732,0.0,0.0,0.142501899581,165.946735623,29567.9909804,6.95339769554E-7,0.0,32.107860663,0.0,0.0,-0.02172668126447509,0.0,0.0,0.0,-9956.80413738,996.720284546,9.04983782016E-4,642.159552492,413.375244613,4.79784727837E-17,0.0295798563783,-0.246402763874,0.0,0.0,0.0,0.167680554818,12.6392935031,99.0221791401
5.3,2.09551975629E7,0.26883188073,0.0,0.0,0.147920628903,169.121287401,29551.237571,7.35041133264E-7,0.0,32.1079120532,0.0,0.0,-0.02214452838745525,0.0,0.0,0.0,-10147.27724406,996.792659808,9.0551443331E-4,642.618173199,413.434811226,4.89119434641E-17,0.0301508494585,-0.256002165551,0.0,0.0,0.0,0.170830372092,13.1282010073,100.889599599
5.4,2.09551804921E7,0.283898942828,0.0,0.0,0.153442227972,172.294875354,29534.1667545,7.76238183128E-7,0.0,32.1079644177,0.0,0.0,-0.022562377006141738,0.0,0.0,0.0,-10337.69252124,996.866406278,9.06055138229E-4,643.085482854,413.495506378,4.98469878128E-17,0.030722552325,-0.26579189026,0.0,0.0,0.0,0.173979351215,13.6268026886,102.756936503
5.5,2.09551631039E7,0.29952329349,0.0,0.0,0.159066763942,175.467480247,29516.7786282,8.1895905547E-7,0.0,32.1080177564,0.0,0.0,-0.022980227148609485,0.0,0.0,0.0,-10528.04881482,996.940877879,9.06638774609E-4,643.599306492,413.557339579,5.07854592968E-17,0.0312961016229,-0.275782352736,0.0,0.0,0.0,0.177127530448,14.1356321858,104.624152214
5.6,2.09551453986E7,0.315715234478,0.0,0.0,0.164794410392,178.639081834,29499.0732914,8.63231923209E-7,0.0,32.1080720688,0.0,0.0,-0.0233980788431053,0.0,0.0,0.0,-10718.34491004,997.016305094,9.07253579757E-4,644.146112678,413.620306953,5.17267982322E-17,0.0318711462264,-0.285971350194,0.0,0.0,0.0,0.180274799813,14.654576093,106.491210338
5.7,2.09551273762E7,0.332485079405,0.0,0.0,0.170625226861,181.809660792,29481.0508453,9.09084991899E-7,0.0,32.1081273548,0.0,0.0,-0.02381593211781872,0.0,0.0,0.0,-10908.579647519999,997.093083239,9.07879396295E-4,644.702712367,413.684402095,5.26699119145E-17,0.0324470069933,-0.296353459583,0.0,0.0,0.0,0.183421019925,15.1833561703,108.358076713
5.8,2.09551090367E7,0.349843146465,0.0,0.0,0.176559257288,184.979197881,29462.7113934,9.56546479854E-7,0.0,32.1081836139,0.0,0.0,-0.024233787000939262,0.0,0.0,0.0,-11098.75187286,997.171211873,9.08516220638E-4,645.269102371,413.749624639,5.36148171165E-17,0.0330236885825,-0.306929177891,0.0,0.0,0.0,0.186566123199,15.7219976909,110.224718775
5.9,2.09550903804E7,0.367799758197,0.0,0.0,0.182596545376,188.147673813,29444.0550406,1.00564461752E-6,0.0,32.1082408459,0.0,0.0,-0.024651643520713744,0.0,0.0,0.0,-11288.86042878,997.25069055,9.09164049135E-4,645.845279443,413.815974212,5.45615312153E-17,0.0336011959899,-0.317699009524,0.0,0.0,0.0,0.189710044433,16.270526309,112.091105342
6.0,2.09550714072E7,0.386365241466,0.0,0.0,0.188737134614,191.315069246,29425.081894,1.05640764741E-6,0.0,32.1082990504,0.0,0.0,-0.025069501705388988,0.0,0.0,0.0,-11478.90415476,997.331518812,9.09822878068E-4,646.431240274,413.883450432,5.55100721347E-17,0.0341795345126,-0.328663466245,0.0,0.0,0.0,0.192852720608,16.8289680557,113.957206501
6.1,2.09550521174E7,0.405549927436,0.0,0.0,0.194981068314,194.481364789,29405.7920628,1.10886382404E-6,0.0,32.1083582271,0.0,0.0,-0.025487361583154518,0.0,0.0,0.0,-11668.88188734,997.413696195,9.10492703651E-4,647.0269815,413.952052911,5.64604582951E-17,0.0347587097166,-0.339823067105,0.0,0.0,0.0,0.195994090711,17.3973493358,115.822993502
6.2,2.0955032511E7,0.425364151561,0.0,0.0,0.201328389622,197.646540998,29386.1856578,1.16304141394E-6,0.0,32.1084183757,0.0,0.0,-0.02590522318237174,0.0,0.0,0.0,-11858.79245988,997.497222227,9.11173522031E-4,647.632499692,414.021781255,5.74127085664E-17,0.0353387274078,-0.35117833838,0.0,0.0,0.0,0.199134095575,17.9756969244,117.688438665
6.3,2.09550125881E7,0.445818253563,0.0,0.0,0.207779141548,200.810578375,29366.2627919,1.21896869552E-6,0.0,32.1084794959,0.0,0.0,-0.026323086531287482,0.0,0.0,0.0,-12048.6347025,997.582096426,9.11865329287E-4,648.247791364,414.092635063,5.83668422261E-17,0.035919593605,-0.3627298135,0.0,0.0,0.0,0.202272677733,18.5640379623,119.553515289
6.4,2.09549923489E7,0.466922577419,0.0,0.0,0.214333366976,203.97345737,29346.0235801,1.27667395912E-6,0.0,32.1085415873,0.0,0.0,-0.02674095165820585,0.0,0.0,0.0,-12238.407442200001,997.668318304,9.12568121431E-4,648.872852968,414.164613925,5.93228789208E-17,0.0365013145156,-0.374478032978,0.0,0.0,0.0,0.205409781285,19.1623999535,121.418197579
6.5,2.09549717934E7,0.488687471352,0.0,0.0,0.220991108683,207.135158377,29325.4681391,1.33618550697E-6,0.0,32.1086046495,0.0,0.0,-0.02715881859137367,0.0,0.0,0.0,-12428.10950262,997.755887362,9.13281894407E-4,649.507680896,414.237717427,6.02808386309E-17,0.0370838965133,-0.386423544343,0.0,0.0,0.0,0.208545351777,19.7708107601,123.282460572
6.6,2.09549509219E7,0.511123287817,0.0,0.0,0.227752409353,210.295661737,29304.5965877,1.39753165311E-6,0.0,32.1086686823,0.0,0.0,-0.027576687359152346,0.0,0.0,0.0,-12617.73970422,997.844803095,9.1400664409E-4,650.152271481,414.311945146,6.12407416391E-17,0.037667346118,-0.398566902059,0.0,0.0,0.0,0.211679336092,20.3892985995,125.146280069
6.7,2.09549297344E7,0.534240383494,0.0,0.0,0.234617311583,213.454947732,29283.4090467,1.46074072343E-6,0.0,32.1087336851,0.0,0.0,-0.027994557989845997,0.0,0.0,0.0,-12807.296863919999,997.935064988,9.14742366286E-4,650.806620992,414.387296653,6.22026085004E-17,0.0382516699766,-0.410908667459,0.0,0.0,0.0,0.214811682351,21.0178920398,127.009632582
6.8,2.09549082309E7,0.558049119277,0.0,0.0,0.241585857899,216.61299659,29261.9056387,1.52584105562E-6,0.0,32.1087996578,0.0,0.0,-0.028412430511816036,0.0,0.0,0.0,-12996.7797954,998.026672518,9.15489056736E-4,651.470725641,414.46377151,6.31664600159E-17,0.0388368748462,-0.42344940866,0.0,0.0,0.0,0.217942339818,21.656619996,128.872495276
6.9,2.09548864118E7,0.582559860268,0.0,0.0,0.248658090757,219.769788482,29240.0864886,1.59286099916E-6,0.0,32.1088665998,0.0,0.0,-0.028830304953366574,0.0,0.0,0.0,-13186.18730892,998.119625154,9.16246711107E-4,652.144581575,414.541369276,6.41323172074E-17,0.039422967578,-0.436189700494,0.0,0.0,0.0,0.221071258823,22.3055117261,130.734845919
7.0,2.0954864277E7,0.60778297577,0.0,0.0,0.255834052552,222.925303519,29217.9517229,1.66182891529E-6,0.0,32.1089345109,0.0,0.0,-0.029248181342916322,0.0,0.0,0.0,-13375.51821114,998.213922357,9.17015325002E-4,652.828184881,414.620089498,6.5100201295E-17,0.0400099551027,-0.44913012442,0.0,0.0,0.0,0.224198390678,22.9645968266,132.59666284
7.1,2.09548418268E7,0.633728839281,0.0,0.0,0.263113785622,226.079521756,29195.5014704,1.73277317704E-6,0.0,32.1090033905,0.0,0.0,-0.029666059708826693,0.0,0.0,0.0,-13564.77130536,998.309563577,9.1779489395E-4,653.521531586,414.69993172,6.60701336764E-17,0.0405978444172,-0.462271268452,0.0,0.0,0.0,0.227323687612,23.6339052287,134.457924882
7.2,2.09548190612E7,0.660407828484,0.0,0.0,0.270497332253,229.232423187,29172.7358617,1.80572216916E-6,0.0,32.1090732385,0.0,0.0,-0.03008394007945909,0.0,0.0,0.0,-13753.94539122,998.406548259,9.18585413416E-4,654.224617654,414.780895476,6.70421359069E-17,0.0411866425716,-0.475613727071,0.0,0.0,0.0,0.230447102707,24.3134671939,136.318611369
7.3,2.09547959803E7,0.687830325247,0.0,0.0,0.277984734675,232.383987746,29149.6550296,1.88070428816E-6,0.0,32.1091440542,0.0,0.0,-0.03050182248317492,0.0,0.0,0.0,-13943.03926476,998.504875838,9.19386878791E-4,654.937438987,414.862980295,6.80162296823E-17,0.0417763566583,-0.489158101146,0.0,0.0,0.0,0.233568589833,25.0033133096,138.178702067
7.4,2.09547725844E7,0.716006715613,0.0,0.0,0.28557603507,235.534195309,29126.2591087,1.95774794226E-6,0.0,32.1092158374,0.0,0.0,-0.0309197069484502,0.0,0.0,0.0,-14132.05171854,998.604545738,9.20199285399E-4,655.659991425,414.946185698,6.89924368218E-17,0.0423669938006,-0.502904997845,0.0,0.0,0.0,0.236688103602,25.7034744848,140.038177155
7.5,2.09547488735E7,0.744947389795,0.0,0.0,0.293271275567,238.683025689,29102.5482357,2.03688155139E-6,0.0,32.1092885876,0.0,0.0,-0.03133759350370363,0.0,0.0,0.0,-14320.981541340001,998.705557379,9.21022628492E-4,656.392270746,415.030511198,6.99707792527E-17,0.0429585611427,-0.516855030556,0.0,0.0,0.0,0.239805599311,26.413981946,141.897017193
7.6,2.09547248479E7,0.774662742173,0.0,0.0,0.301070498243,241.830458637,29078.5225493,2.1181335472E-6,0.0,32.1093623045,0.0,0.0,-0.03175548217735391,0.0,0.0,0.0,-14509.82751822,998.807910168,9.21856903252E-4,657.134272665,415.115956303,7.09512789964E-17,0.0435510658408,-0.531008818791,0.0,0.0,0.0,0.242921032899,27.134867232,143.755203092
7.7,2.09547005075E7,0.805163171284,0.0,0.0,0.308973745117,244.976473843,29054.1821904,2.20153237301E-6,0.0,32.1094369875,0.0,0.0,-0.03217337299776246,0.0,0.0,0.0,-14698.588430580001,998.911603507,9.22702104793E-4,657.885992836,415.202520511,7.1933958155E-17,0.0441445150539,-0.545366988106,0.0,0.0,0.0,0.246034360904,27.86616219,145.612716096
7.8,2.09546758526E7,0.836459079817,0.0,0.0,0.31698105815,248.121050933,29029.5273017,2.28710648382E-6,0.0,32.1095126363,0.0,0.0,-0.03259126599351987,0.0,0.0,0.0,-14887.26305598,999.016636786,9.23558228156E-4,658.647426848,415.290203315,7.2918838899E-17,0.0447389159359,-0.559930170006,0.0,0.0,0.0,0.249145540424,28.6078989708,147.469537751
7.9,2.09546508833E7,0.868560874607,0.0,0.0,0.325092479245,251.264169471,29004.5580281,2.37488434631E-6,0.0,32.1095892504,0.0,0.0,-0.03300916119298756,0.0,0.0,0.0,-15075.85016826,999.12300939,9.24425268311E-4,659.418570229,415.3790042,7.39059434556E-17,0.0453342756277,-0.574699001859,0.0,0.0,0.0,0.25225452908,29.3601100239,149.325649885
8.0,2.09546255998E7,0.90147896663,0.0,0.0,0.333308050231,254.405808956,28979.2745163,2.46489443878E-6,0.0,32.1096668294,0.0,0.0,-0.033427058624756104,0.0,0.0,0.0,-15264.34853736,999.230720692,9.25303220159E-4,660.199418443,415.468922643,7.48952940981E-17,0.0459306012502,-0.589674126797,0.0,0.0,0.0,0.255361284982,30.1228280932,151.181034592
8.1,2.09546000022E7,0.935223770991,0.0,0.0,0.341627812868,257.545948821,28953.6769155,2.55716525118E-6,0.0,32.1097453728,0.0,0.0,-0.03384495831718693,0.0,0.0,0.0,-15452.756929260002,999.339770057,9.26192078527E-4,660.989966888,415.559958114,7.58869131358E-17,0.0465278998976,-0.604856193629,0.0,0.0,0.0,0.258465766698,30.8960862118,153.035674208
8.2,2.09545740907E7,0.969805706918,0.0,0.0,0.350051808838,260.684568437,28927.7653764,2.65172528507E-6,0.0,32.1098248803,0.0,0.0,-0.03426286029881333,0.0,0.0,0.0,-15641.07410622,999.450156843,9.27091838173E-4,661.790210904,415.652110078,7.68808229046E-17,0.0471261786308,-0.620245856743,0.0,0.0,0.0,0.261567933226,31.6799176974,154.889551296
8.3,2.09545478654E7,1.00523519775,0.0,0.0,0.358580079733,263.821647106,28901.5400523,2.74860305359E-6,0.0,32.1099053512,0.0,0.0,-0.034680764598225895,0.0,0.0,0.0,-15829.29882636,999.561880398,9.28002493782E-4,662.600145762,415.745377988,7.78770457578E-17,0.0477254444714,-0.635843776012,0.0,0.0,0.0,0.264667743966,32.4743561473,156.74264863
8.4,2.09545213264E7,1.04152267095,0.0,0.0,0.367212667056,266.957164066,28875.0010982,2.84782708146E-6,0.0,32.1099867852,0.0,0.0,-0.035098671243900634,0.0,0.0,0.0,-16017.42984396,999.67494006,9.28924039966E-4,663.419766671,415.839761294,7.88756040582E-17,0.0483257043965,-0.651650616695,0.0,0.0,0.0,0.267765158695,33.2794354335,158.594949178
8.5,2.0954494474E7,1.07867855804,0.0,0.0,0.375949612207,270.091098487,28848.1486714,2.94942590495E-6,0.0,32.1100691819,0.0,0.0,-0.03551658026437085,0.0,0.0,0.0,-16205.46590922,999.78933516,9.29856471268E-4,664.249068776,415.935259437,7.98765201703E-17,0.0489269653326,-0.66766704934,0.0,0.0,0.0,0.270860137546,34.0951896976,160.446436092
8.6,2.09544673082E7,1.11671329465,0.0,0.0,0.384790956475,273.223429472,28820.9829311,3.05342807185E-6,0.0,32.1101525406,0.0,0.0,-0.03593449168816982,0.0,0.0,0.0,-16393.40576832,999.905065019,9.30799782154E-4,665.088047158,416.03187185,8.08798164522E-17,0.0495292341513,-0.683893749685,0.0,0.0,0.0,0.273952640981,34.9216533456,162.297092691
8.7,2.09544398293E7,1.15563732048,0.0,0.0,0.393736741033,276.354136056,28793.5040388,3.15986214142E-6,0.0,32.1102368609,0.0,0.0,-0.03635240554383087,0.0,0.0,0.0,-16581.24816336,1000.02212895,9.31753967022E-4,665.936696832,416.129597958,8.18855152495E-17,0.0501325176639,-0.700331398555,0.0,0.0,0.0,0.27704262978,35.7588610432,164.146902449
8.8,2.09544120375E7,1.19546107929,0.0,0.0,0.402787006924,279.483197207,28765.7121579,3.26875668441E-6,0.0,32.1103221424,0.0,0.0,-0.036770321860001856,0.0,0.0,0.0,-16768.99183242,1000.14052626,9.32719020194E-4,666.795012748,416.228437181,8.28936388881E-17,0.050736822617,-0.716980681764,0.0,0.0,0.0,0.280130065011,36.6068477099,165.995848988
8.9,2.09543839328E7,1.23619501887,0.0,0.0,0.411941795053,282.610591821,28737.607454,3.38014028298E-6,0.0,32.1104083846,0.0,0.0,-0.037188240665216116,0.0,0.0,0.0,-16956.635509260002,1000.26025623,9.33694935919E-4,667.662989793,416.32838893,8.39042096683E-17,0.0513421556882,-0.733842290008,0.0,0.0,0.0,0.283214908023,37.4656485144,167.84391606
9.0,2.09543555154E7,1.27784959105,0.0,0.0,0.421201146176,285.736298727,28709.1900948,3.49404153069E-6,0.0,32.1104955869,0.0,0.0,-0.03760616198812151,0.0,0.0,0.0,-17144.177923620002,1000.38131816,9.34681708375E-4,668.540622788,416.429452608,8.49172498584E-17,0.0519485234821,-0.750916918763,0.0,0.0,0.0,0.286297120423,38.3352988688,169.691087546
9.1,2.09543267856E7,1.32043525167,0.0,0.0,0.430565100891,288.860296685,28680.4602503,3.61048903243E-6,0.0,32.1105837488,0.0,0.0,-0.038024085857251345,0.0,0.0,0.0,-17331.617801099997,1000.50371132,9.35679331663E-4,669.427906486,416.531627611,8.59327816898E-17,0.0525559325261,-0.768205268179,0.0,0.0,0.0,0.289376664062,39.2158344237,171.537347439
9.2,2.09542977434E7,1.36396246058,0.0,0.0,0.440033699623,291.982564382,28651.4180922,3.72951140442E-6,0.0,32.1106728698,0.0,0.0,-0.03844201230125351,0.0,0.0,0.0,-17518.95386292,1000.62743499,9.36687799813E-4,670.324835577,416.634913328,8.6950827351E-17,0.0531643892664,-0.785708042973,0.0,0.0,0.0,0.292453501025,40.1072910621,173.382679838
9.3,2.09542683891E7,1.40844168159,0.0,0.0,0.449606982615,295.103080437,28622.0637948,3.85113727413E-6,0.0,32.1107629495,0.0,0.0,-0.038859941348718605,0.0,0.0,0.0,-17706.18482622,1000.75248841,9.37707106779E-4,671.231404685,416.739309139,8.79714089827E-17,0.0537739000652,-0.803425952322,0.0,0.0,0.0,0.295527593611,41.0097048944,175.227068941
9.4,2.09542387228E7,1.45388338247,0.0,0.0,0.459284989917,298.221823395,28592.3975343,3.97539528024E-6,0.0,32.1108539872,0.0,0.0,-0.03927787302840909,0.0,0.0,0.0,-17893.3094037,1000.87887083,9.38737246442E-4,672.147608366,416.844814418,8.8994548673E-17,0.0543844711962,-0.821359709753,0.0,0.0,0.0,0.298598904325,41.9231122529,177.070499038
9.5,2.09542087448E7,1.50029803494,0.0,0.0,0.469067761368,301.338771732,28562.419489,4.10231407259E-6,0.0,32.1109459824,0.0,0.0,-0.03969580736880101,0.0,0.0,0.0,-18080.32630392,1001.0065815,9.39778212607E-4,673.073441112,416.95142853,9.00202684528E-17,0.054996108842,-0.839510033035,0.0,0.0,0.0,0.301667395866,42.8475496856,178.9129545
9.6,2.09541784552E7,1.54769611463,0.0,0.0,0.478955336593,304.453903851,28532.1298395,4.23192231214E-6,0.0,32.1110389346,0.0,0.0,-0.04011374439865681,0.0,0.0,0.0,-18267.23423106,1001.13561965,9.40829999005E-4,674.008897347,417.059150833,9.10485902912E-17,0.0556088190909,-0.857877644066,0.0,0.0,0.0,0.304733031116,43.7830539514,180.754419775
9.7,2.09541478541E7,1.59608810106,0.0,0.0,0.48894775498,307.567198082,28501.5287685,4.36424867089E-6,0.0,32.1111328433,0.0,0.0,-0.04053168414668168,0.0,0.0,0.0,-18454.03188492,1001.2659845,9.41892599292E-4,674.953971428,417.167980678,9.20795360915E-17,0.0562226079331,-0.876463268759,0.0,0.0,0.0,0.307795773127,44.7296620133,182.594879382
9.8,2.09541169418E7,1.64548447762,0.0,0.0,0.499045055673,310.678632682,28470.6164609,4.49932183179E-6,0.0,32.1112277078,0.0,0.0,-0.04094962664146622,0.0,0.0,0.0,-18640.71796092,1001.39767526,9.42966007049E-4,675.908657645,417.277917407,9.31131276868E-17,0.0568374812588,-0.895267636933,0.0,0.0,0.0,0.310855585117,45.6874110337,184.434317903
9.9,2.09540857184E7,1.69589573156,0.0,0.0,0.509247277555,313.788185836,28439.3931037,4.63717048876E-6,0.0,32.1113235277,0.0,0.0,-0.04136757191171562,0.0,0.0,0.0,-18827.291150160003,1001.53069114,9.44050215779E-4,676.872950222,417.388960354,9.41493868364E-17,0.0574534448543,-0.914291482194,0.0,0.0,0.0,0.313912430454,46.6563383678,186.272719979
10.0,2.09540541842E7,1.74733235391,0.0,0.0,0.519554459236,316.895835655,28407.8588861,4.77782334652E-6,0.0,32.1114203023,0.0,0.0,-0.04178551998619236,0.0,0.0,0.0,-19013.7501393,1001.66503132,9.45145218911E-4,677.846843314,417.501108847,9.51883352217E-17,0.0580705044002,-0.933535541821,0.0,0.0,0.0,0.316966272655,47.636481558,188.110070306
10.1,2.09540223393E7,1.79980483951,0.0,0.0,0.529966639038,320.001560176,28376.0139997,4.92130912058E-6,0.0,32.1115180311,0.0,0.0,-0.042203470893601616,0.0,0.0,0.0,-19200.09361056,1001.800695,9.462510098E-4,678.83033101,417.614362205,9.6229994443E-17,0.058688665468,-0.95300055665,0.0,0.0,0.0,0.320017075372,48.6278783277,189.946353625
10.2,2.09539901839E7,1.85332368697,0.0,0.0,0.540483854979,323.105337361,28343.8586379,5.06765653714E-6,0.0,32.1116167135,0.0,0.0,-0.04262142466264858,0.0,0.0,0.0,-19386.32024166,1001.93768135,9.47367581719E-4,679.823407328,417.728719739,9.72743860157E-17,0.0593079335179,-0.972687270954,0.0,0.0,0.0,0.323064802388,49.6305665756,191.781554724
10.3,2.09539577183E7,1.90789939859,0.0,0.0,0.551106144761,326.207145098,28311.3929968,5.21689433301E-6,0.0,32.1117163489,0.0,0.0,-0.043039381322095734,0.0,0.0,0.0,-19572.42870588,1002.07598953,9.48494927871E-4,680.826066221,417.844180753,9.8321531367E-17,0.0599283138962,-0.992596432326,0.0,0.0,0.0,0.326109417609,50.6445843696,193.615658427
10.4,2.09539249426E7,1.96354248039,0.0,0.0,0.561833545754,329.3069612,28278.6172742,5.36905125552E-6,0.0,32.1118169367,0.0,0.0,-0.04345734090064827,0.0,0.0,0.0,-19758.417672,1002.21561869,9.49633041376E-4,681.838301573,417.960744543,9.93714518327E-17,0.0605498118332,-1.01272879156,0.0,0.0,0.0,0.329150885058,51.6699699403,195.448649596
10.5,2.0953891857E7,2.02026344204,0.0,0.0,0.572666094982,332.404763405,28245.5316706,5.52415606245E-6,0.0,32.1119184764,0.0,0.0,-0.04387530342706865,0.0,0.0,0.0,-19944.285804299998,1002.356568,9.50781915281E-4,682.860107197,418.078410395,1.00424168654E-16,0.0611724324401,-1.03308510251,0.0,0.0,0.0,0.332189168869,52.7067616752,197.280513123
10.6,2.09538584617E7,2.07807279683,0.0,0.0,0.5836038291,335.500529374,28212.1363883,5.68223752189E-6,0.0,32.1120209672,0.0,0.0,-0.044293268930176675,0.0,0.0,0.0,-20130.03176244,1002.49883658,9.51941542553E-4,683.89147684,418.197177591,1.01479702975E-16,0.0617961807076,-1.05366612202,0.0,0.0,0.0,0.335224233279,53.7549981123,199.111233925
10.7,2.09538247569E7,2.13698106163,0.0,0.0,0.594646784392,338.594236694,28178.4316322,5.84332441219E-6,0.0,32.1121244087,0.0,0.0,-0.04471123743867751,0.0,0.0,0.0,-20315.65420164,1002.64242356,9.53111916084E-4,684.932404179,418.317045401,1.02538075838E-16,0.0624210615032,-1.07447260972,0.0,0.0,0.0,0.338256042625,54.8147179338,200.940796947
10.8,2.09537907429E7,2.19699875687,0.0,0.0,0.60579499674,341.685862875,28144.4176092,6.00744552184E-6,0.0,32.1122288001,0.0,0.0,-0.04512920898144824,0.0,0.0,0.0,-20501.1517725,1002.78732807,9.54293028686E-4,685.982882821,418.43801309,1.03599308184E-16,0.0630470795691,-1.09550532799,0.0,0.0,0.0,0.34128456134,55.8859599598,202.769187151
10.9,2.09537564198E7,2.25813640646,0.0,0.0,0.61704850162,344.775385351,28110.0945286,6.17462964935E-6,0.0,32.1123341409,0.0,0.0,-0.04554718358719404,0.0,0.0,0.0,-20686.52312106,1002.9335492,9.55484873092E-4,687.042906303,418.560079914,1.04663420846E-16,0.0636742395203,-1.11676504176,0.0,0.0,0.0,0.344309753945,56.9687631418,204.596389517
11.0,2.09537217879E7,2.3204045378,0.0,0.0,0.628407334079,347.862781477,28075.4626019,6.34490560315E-6,0.0,32.1124404304,0.0,0.0,-0.045965161284792,0.0,0.0,0.0,-20871.76688862,1003.08108606,9.56687441959E-4,688.112468095,418.68324512,1.05730434547E-16,0.0643025458424,-1.13825251842,0.0,0.0,0.0,0.347331585046,58.0631665563,206.422389042
11.1,2.09536868474E7,2.38381368168,0.0,0.0,0.639871528718,350.948028535,28040.5220428,6.51830220146E-6,0.0,32.1125476679,0.0,0.0,-0.046383142103004586,0.0,0.0,0.0,-21056.8817121,1003.22993773,9.57900727864E-4,689.191561593,418.807507948,1.06800369903E-16,0.0649320028896,-1.15996852771,0.0,0.0,0.0,0.350350019329,59.1692093984,208.247170731
11.2,2.09536515984E7,2.44837437228,0.0,0.0,0.65144111968,354.031103727,28005.2730674,6.69484827219E-6,0.0,32.1126558529,0.0,0.0,-0.046801126070708875,0.0,0.0,0.0,-21241.86622362,1003.38010331,9.59124723304E-4,690.280180126,418.932867629,1.07873247411E-16,0.065562614883,-1.18191384152,0.0,0.0,0.0,0.353365021558,60.286930975,210.070719599
11.3,2.09536160412E7,2.51409714709,0.0,0.0,0.66311614063,357.111984179,27969.715894,6.8745726528E-6,0.0,32.1127649846,0.0,0.0,-0.047219113216724645,0.0,0.0,0.0,-21426.71905074,1003.53158185,9.60359420699E-4,691.378316951,419.059323388,1.08949087454E-16,0.0661943859084,-1.20408923386,0.0,0.0,0.0,0.356376556571,61.4163706984,211.893020668
11.4,2.09535801761E7,2.58099254689,0.0,0.0,0.674896624734,360.190646938,27933.8507433,7.05750419017E-6,0.0,32.1128750624,0.0,0.0,-0.04763710356987168,0.0,0.0,0.0,-21611.43881628,1003.68437241,9.61604812387E-4,692.485965254,419.18687444,1.10027910296E-16,0.0668273199147,-1.22649548064,0.0,0.0,0.0,0.359384589274,62.5575680794,213.714058964
11.5,2.09535440031E7,2.64907111568,0.0,0.0,0.686782604653,363.267068975,27897.6778381,7.24367174048E-6,0.0,32.1129860857,0.0,0.0,-0.04805509715902704,0.0,0.0,0.0,-21796.024138499997,1003.83847406,9.62860890627E-4,693.603118151,419.315519991,1.11109736079E-16,0.067461420712,-1.24913335958,0.0,0.0,0.0,0.36238908464,63.7105627208,215.533819514
11.6,2.09535075227E7,2.71834340062,0.0,0.0,0.698774112512,366.341227181,27861.1974037,7.43310416904E-6,0.0,32.1130980537,0.0,0.0,-0.0484730940131251,0.0,0.0,0.0,-21980.47363086,1003.99388582,9.64127647599E-4,694.729768685,419.445259242,1.1219458482E-16,0.0680966919698,-1.27200365009,0.0,0.0,0.0,0.365390007704,64.8753943103,217.352287345
11.7,2.0953470735E7,2.78881995201,0.0,0.0,0.710871179889,369.413098372,27824.4096677,7.62583035016E-6,0.0,32.1132109658,0.0,0.0,-0.04889109416092834,0.0,0.0,0.0,-22164.78590232,1004.15060673,9.65405075402E-4,695.86590983,419.576091382,1.13282476413E-16,0.0687331372155,-1.29510713309,0.0,0.0,0.0,0.368387323564,66.0521026143,219.16944748
11.8,2.09534336402E7,2.86051132318,0.0,0.0,0.7230738378,372.482659283,27787.3148598,7.82187916703E-6,0.0,32.1133248213,0.0,0.0,-0.04930909763137113,0.0,0.0,0.0,-22348.95955698,1004.3086358,9.66693166053E-4,697.011534486,419.708015594,1.14373430622E-16,0.0693707598324,-1.31844459092,0.0,0.0,0.0,0.371380997372,67.2407274702,220.985284939
11.9,2.09533962385E7,2.93342807049,0.0,0.0,0.735382116674,375.549886572,27749.9132123,8.0212795115E-6,0.0,32.1134396194,0.0,0.0,-0.04972710445333055,0.0,0.0,0.0,-22532.99319432,1004.46797206,9.6799191149E-4,698.166635482,419.841031052,1.1546746708E-16,0.0700095630583,-1.34201680719,0.0,0.0,0.0,0.374370994339,68.44130878,222.799784736
12.0,2.09533585303E7,3.00758075324,0.0,0.0,0.747796046341,378.614756817,27712.2049598,8.224060284E-6,0.0,32.1135553596,0.0,0.0,-0.05014511465574095,0.0,0.0,0.0,-22716.88540902,1004.6286145,9.69301303569E-4,699.331205576,419.975136923,1.16564605288E-16,0.0706495499839,-1.36582456662,0.0,0.0,0.0,0.377357279727,69.6538865033,224.612931876
12.1,2.09533205156E7,3.08297993358,0.0,0.0,0.760315656009,381.677246519,27674.190339,8.43025039329E-6,0.0,32.1136720409,0.0,0.0,-0.05056312826747942,0.0,0.0,0.0,-22900.63479114,1004.79056211,9.70621334065E-4,700.505237451,420.110332363,1.17664864612E-16,0.0712907235508,-1.38986865493,0.0,0.0,0.0,0.380339818846,70.8785006501,226.424711354
12.2,2.09532821949E7,3.15963617653,0.0,0.0,0.772940974248,384.737332101,27635.8695893,8.63987875637E-6,0.0,32.1137896629,0.0,0.0,-0.050981145317480325,0.0,0.0,0.0,-23084.23992606,1004.95381387,9.71951994669E-4,701.688723719,420.246616523,1.18768264283E-16,0.0719330865506,-1.41414985869,0.0,0.0,0.0,0.383318577059,72.1151912736,228.235108156
12.3,2.09532435683E7,3.23756004982,0.0,0.0,0.785672028972,387.794989904,27597.2429522,8.85297429825E-6,0.0,32.1139082247,0.0,0.0,-0.05139916583462074,0.0,0.0,0.0,-23267.69939424,1005.11836876,9.73293276994E-4,702.881656918,420.383988542,1.19874823392E-16,0.072576641623,-1.4386689652,0.0,0.0,0.0,0.386293519772,73.3639984635,230.044107252
12.4,2.0953204636E7,3.31676212388,0.0,0.0,0.798508847418,390.850196193,27558.3106717,9.06956595179E-6,0.0,32.1140277255,0.0,0.0,-0.05181718984789231,0.0,0.0,0.0,-23451.01177158,1005.28422573,9.74645172568E-4,704.084029515,420.522447554,1.20984560888E-16,0.0732213912543,-1.4634267623,0.0,0.0,0.0,0.389264612437,74.6249623384,231.8516936
12.5,2.09531653983E7,3.39725297177,0.0,0.0,0.811451456129,393.902927154,27519.0729942,9.28968265753E-6,0.0,32.1141481647,0.0,0.0,-0.05223521738622943,0.0,0.0,0.0,-23634.17562924,1005.45138373,9.76007672836E-4,705.295833901,420.661992682,1.22097495578E-16,0.0738673377761,-1.48842403828,0.0,0.0,0.0,0.392231820549,75.8981230388,233.657852143
12.6,2.09531258555E7,3.47904316908,0.0,0.0,0.824499880932,396.953158893,27479.5301683,9.51335336346E-6,0.0,32.1142695415,0.0,0.0,-0.05265324847856645,0.0,0.0,0.0,-23817.18953358,1005.61984171,9.77380769162E-4,706.517062395,420.802623041,1.23213646126E-16,0.0745144833637,-1.51366158171,0.0,0.0,0.0,0.395195109644,77.1835207197,235.462567806
12.7,2.09530860078E7,3.56214329388,0.0,0.0,0.837654146923,400.000867438,27439.6824451,9.74060702487E-6,0.0,32.1143918552,0.0,0.0,-0.053071283153895046,0.0,0.0,0.0,-24000.05204628,1005.78959859,9.78764452825E-4,707.747707241,420.944337738,1.24333031047E-16,0.0751628300348,-1.5391401813,0.0,0.0,0.0,0.398154445297,78.4811955434,237.265825495
12.8,2.09530458554E7,3.64656392662,0.0,0.0,0.850914278445,403.046028736,27399.5300783,9.97147260412E-6,0.0,32.1145151049,0.0,0.0,-0.053489321441092294,0.0,0.0,0.0,-24182.76172416,1005.9606533,9.80158715023E-4,708.98776061,421.087135873,1.25455668709E-16,0.0758123796481,-1.56486062575,0.0,0.0,0.0,0.401109793124,79.7911876721,239.067610101
12.9,2.09530053986E7,3.7323156501,0.0,0.0,0.864280299069,406.088618657,27359.0733237,1.02059790704E-5,0.0,32.11463929,0.0,0.0,-0.05390736336914984,0.0,0.0,0.0,-24365.31711942,1006.13300474,9.81563546868E-4,710.237214596,421.231016534,1.2658157733E-16,0.0764631339021,-1.59082370365,0.0,0.0,0.0,0.404061118775,81.1135372603,240.86790649
13.0,2.09529646377E7,3.81940904935,0.0,0.0,0.877752231573,409.128612993,27318.3124397,1.04441553997E-5,0.0,32.1147644095,0.0,0.0,-0.05432540896711666,0.0,0.0,0.0,-24547.716779579998,1006.30665181,9.8297893939E-4,711.496061223,421.375978802,1.27710774973E-16,0.0771150943334,-1.61703020324,0.0,0.0,0.0,0.407008387939,82.4482844477,242.66669951
13.1,2.0952923573E7,3.90785471155,0.0,0.0,0.891330097928,412.165987455,27277.247687,1.06860305743E-5,0.0,32.1148904629,0.0,0.0,-0.05474345826392712,0.0,0.0,0.0,-24729.9592473,1006.48159341,9.84404883533E-4,712.764292435,421.522021752,1.28843279551E-16,0.0777682623158,-1.64348091235,0.0,0.0,0.0,0.409951566338,83.7954693513,244.463973987
13.2,2.09528822046E7,3.99766322599,0.0,0.0,0.905013919271,415.200717675,27235.8793289,1.09316335827E-5,0.0,32.1150174492,0.0,0.0,-0.05516151128857288,0.0,0.0,0.0,-24912.0430605,1006.65782841,9.85841370158E-4,714.041900105,421.669144445,1.29979108819E-16,0.0784226390588,-1.67017661823,0.0,0.0,0.0,0.412890619729,85.1551320582,246.259714722
13.3,2.09528405329E7,4.08884518392,0.0,0.0,0.918803715888,418.232779208,27194.207631,1.11809934196E-5,0.0,32.1151453676,0.0,0.0,-0.055579568070045604,0.0,0.0,0.0,-25093.966752480002,1006.83535568,9.8728839004E-4,715.328876028,421.817345938,1.31118280374E-16,0.0790782256063,-1.69711810737,0.0,0.0,0.0,0.415825513903,86.5273126177,248.053906495
13.4,2.09527985582E7,4.18141117852,0.0,0.0,0.932699507196,421.26214753,27152.2328614,1.14341390852E-5,0.0,32.1152742175,0.0,0.0,-0.05599762863733696,0.0,0.0,0.0,-25275.7288518,1007.01417408,9.88745933871E-4,716.625211925,421.966625278,1.32260811655E-16,0.0797350228355,-1.72430616538,0.0,0.0,0.0,0.418756214681,87.912051034,249.846534058
13.5,2.09527562806E7,4.27537180479,0.0,0.0,0.946701311719,424.288798036,27109.9552906,1.16910995853E-5,0.0,32.1154039978,0.0,0.0,-0.05641569301943861,0.0,0.0,0.0,-25457.32788216,1007.19428246,9.90213992254E-4,717.930899439,422.116981501,1.33406719939E-16,0.0803930314558,-1.75174157682,0.0,0.0,0.0,0.421682687918,89.3093872582,251.63758214
13.6,2.09527137005E7,4.37073765945,0.0,0.0,0.960809147072,427.312706047,27067.3751917,1.19519039311E-5,0.0,32.1155347079,0.0,0.0,-0.05683376124545683,0.0,0.0,0.0,-25638.76236282,1007.37567964,9.91692555711E-4,719.24593014,422.268413637,1.34556022342E-16,0.0810522520071,-1.77942512508,0.0,0.0,0.0,0.424604899498,90.7193611807,253.427035444
13.7,2.09526708182E7,4.46751934086,0.0,0.0,0.975023029938,430.3338468,27024.4928401,1.22165811388E-5,0.0,32.1156663469,0.0,0.0,-0.05725183334426866,0.0,0.0,0.0,-25820.030808,1007.55836447,9.93181614675E-4,720.570295518,422.420920707,1.35708735812E-16,0.0817126848594,-1.80735759218,0.0,0.0,0.0,0.427522815338,92.1420126236,255.214878644
13.8,2.09526276338E7,4.56572744893,0.0,0.0,0.989342976047,433.35219546,26981.3085139,1.24851602292E-5,0.0,32.1157989139,0.0,0.0,-0.05766990934509496,0.0,0.0,0.0,-26001.1317276,1007.74233575,9.94681159493E-4,721.90398699,422.574501721,1.36864877136E-16,0.082374330211,-1.83553975867,0.0,0.0,0.0,0.430436401381,93.5773813326,257.00109639
13.9,2.09525841478E7,4.665372585,0.0,0.0,1.00376900016,436.367727108,26937.8224934,1.27576702277E-5,0.0,32.1159324082,0.0,0.0,-0.05808798927652633,0.0,0.0,0.0,-26182.06362648,1007.92759229,9.96191180428E-4,723.246995894,422.729155682,1.3802446293E-16,0.0830371880876,-1.86397240343,0.0,0.0,0.0,0.433345623602,95.0255069694,258.785673302
14.0,2.09525403604E7,4.76646535178,0.0,0.0,1.01830111604,439.380416751,26894.0350617,1.30341401642E-5,0.0,32.1160668288,0.0,0.0,-0.058506073168241975,0.0,0.0,0.0,-26362.82500506,1008.11413288,9.97711667653E-4,724.599313492,422.884881585,1.3918750964E-16,0.0837012583414,-1.89265630355,0.0,0.0,0.0,0.436250448005,96.4864291037,260.56859397
14.1,2.09524962718E7,4.8690163532,0.0,0.0,1.03293933644,442.390239317,26849.9465041,1.33145990721E-5,0.0,32.1162021749,0.0,0.0,-0.0589241610488898,0.0,0.0,0.0,-26543.41435902,1008.30195631,9.99242611257E-4,725.960930967,423.041678413,1.40354033543E-16,0.0843665406496,-1.92159223414,0.0,0.0,0.0,0.439150840622,97.9601872055,262.349842958
14.2,2.09524518824E7,4.97303619435,0.0,0.0,1.04768367307,445.397169657,26805.5571086,1.35990759889E-5,0.0,32.1163384457,0.0,0.0,-0.059342252947117674,0.0,0.0,0.0,-26723.83017942,1008.49106135,0.00100078400124,727.331839426,423.199545143,1.41524050744E-16,0.0850330345137,-1.95078096821,0.0,0.0,0.0,0.442046767512,99.4468206367,264.1294048
14.3,2.09524071925E7,5.07853548135,0.0,0.0,1.06253413661,448.401182544,26760.8671658,1.38875999553E-5,0.0,32.1164756402,0.0,0.0,-0.05976034889271942,0.0,0.0,0.0,-26904.07095264,1008.68144677,0.00100233582752,728.712029898,423.358480742,1.42697577171E-16,0.0857007392583,-1.98022327649,0.0,0.0,0.0,0.444938194766,100.946368644,265.907263997
14.4,2.09523622023E7,5.18552482126,0.0,0.0,1.07749073663,451.402252674,26715.8769686,1.41802000152E-5,0.0,32.1166137576,0.0,0.0,-0.060178448914342916,0.0,0.0,0.0,-27084.13516044,1008.87311131,0.00100389807991,730.101493334,423.518484167,1.43874628579E-16,0.0863696540302,-2.00991992728,0.0,0.0,0.0,0.447825088498,102.458870348,267.683405024
14.5,2.09523169121E7,5.29401482196,0.0,0.0,1.09255348163,454.400354667,26670.5868126,1.44769052153E-5,0.0,32.116752797,0.0,0.0,-0.06059655304120901,0.0,0.0,0.0,-27264.02128002,1009.06605372,0.00100547074816,731.500220606,423.679554368,1.45055220544E-16,0.0870397777972,-2.03987168629,0.0,0.0,0.0,0.450707414854,103.984364742,269.457812321
14.6,2.09522713223E7,5.40401609203,0.0,0.0,1.10772237898,457.395463065,26624.9969959,1.47777446049E-5,0.0,32.1168927575,0.0,0.0,-0.06101466130253856,0.0,0.0,0.0,-27443.7277839,1009.26027273,0.00100705382192,732.908202508,423.841690284,1.46239368464E-16,0.0877111093472,-2.07007931648,0.0,0.0,0.0,0.453585140005,105.522890674,271.230470301
14.7,2.09522254331E7,5.51553924066,0.0,0.0,1.12299743491,460.387552336,26579.107819,1.50827472355E-5,0.0,32.1170336382,0.0,0.0,-0.061432773726406494,0.0,0.0,0.0,-27623.25314016,1009.45576705,0.00100864729074,734.325429756,424.004890846,1.47427087556E-16,0.0883836472873,-2.10054357789,0.0,0.0,0.0,0.456458230152,107.074486847,273.001363343
14.8,2.09521792449E7,5.62859487752,0.0,0.0,1.13837865449,463.376596871,26532.9195852,1.53919421603E-5,0.0,32.1171754381,0.0,0.0,-0.06185089034317957,0.0,0.0,0.0,-27802.59581226,1009.6525354,0.00101025114409,735.751892986,424.169154976,1.48618392857E-16,0.0890573900428,-2.13126522752,0.0,0.0,0.0,0.459326651522,108.639191808,274.770475795
14.9,2.09521327579E7,5.74319361264,0.0,0.0,1.15386604162,466.362570983,26486.4326003,1.57053584345E-5,0.0,32.1173181564,0.0,0.0,-0.062269011180932726,0.0,0.0,0.0,-27981.75425898,1009.85057646,0.00101186537137,737.187582754,424.334481587,1.49813299218E-16,0.0897323358564,-2.16224501912,0.0,0.0,0.0,0.46219037037,110.217043937,276.537791973
15.0,2.09520859725E7,5.8593460563,0.0,0.0,1.16945959897,469.345448914,26439.6471726,1.60230251142E-5,0.0,32.1174617922,0.0,0.0,-0.06268713626945976,0.0,0.0,0.0,-28160.726934839997,1010.04988894,0.00101348996186,738.632489539,424.500869582,1.51011821306E-16,0.0904084827872,-2.19348370306,0.0,0.0,0.0,0.465049352981,111.808081443,278.30329616
15.1,2.09520388889E7,5.97706281891,0.0,0.0,1.18515932803,472.325204827,26392.5636129,1.63449712567E-5,0.0,32.1176063444,0.0,0.0,-0.06310526563740856,0.0,0.0,0.0,-28339.51228962,1010.2504715,0.00101512490477,740.086603739,424.668317855,1.52213973603E-16,0.0910858287096,-2.22498202613,0.0,0.0,0.0,0.467903565665,113.412342355,280.066972609
15.2,2.09519915075E7,6.09635451087,0.0,0.0,1.20096522899,475.301812814,26345.1822348,1.66712259196E-5,0.0,32.1177518122,0.0,0.0,-0.06352339931342703,0.0,0.0,0.0,-28518.10876884,1010.45232281,0.00101677018921,741.549915671,424.836825291,1.53419770402E-16,0.0917643713128,-2.25674073144,0.0,0.0,0.0,0.470752974764,115.02986451,281.828805538
15.3,2.09519438287E7,6.21723174245,0.0,0.0,1.21687730082,478.27524689,26297.5033544,1.70018181611E-5,0.0,32.1178981946,0.0,0.0,-0.06394153732730896,0.0,0.0,0.0,-28696.5148134,1010.65544152,0.0010184258042,743.022415574,425.006390766,1.54629225806E-16,0.0924441080998,-2.28876055819,0.0,0.0,0.0,0.473597546645,116.66068555,283.588779133
15.4,2.09518958526E7,6.33970512367,0.0,0.0,1.23289554117,481.245480998,26249.5272904,1.73367770391E-5,0.0,32.1180454906,0.0,0.0,-0.06435967970770226,0.0,0.0,0.0,-28874.72885988,1010.85982627,0.00102009173869,744.504093605,425.177013147,1.55842353728E-16,0.0931250363867,-2.32104224157,0.0,0.0,0.0,0.476437247707,118.30484291,285.346877548
15.5,2.09518475797E7,6.46378528194,0.0,0.0,1.24902053223,484.21247391,26201.2543645,1.76761316598E-5,0.0,32.1181936993,0.0,0.0,-0.06477782648382775,0.0,0.0,0.0,-29052.748434600002,1011.06273726,0.0010219165332,746.169135263,425.348760578,1.57081997341E-16,0.0938207857785,-2.35392854645,0.0,0.0,0.0,0.479273327531,119.979807288,287.103075953
15.6,2.09517990102E7,6.58948293711,0.0,0.0,1.26525309195,487.1761779,26152.6849035,1.80199113826E-5,0.0,32.1183428197,0.0,0.0,-0.06519597768547926,0.0,0.0,0.0,-29230.570674000002,1011.26672453,0.00102376176886,747.855230345,425.52156734,1.5832717666E-16,0.0945187964326,-2.38710985343,0.0,0.0,0.0,0.482104537145,121.669796961,288.857345673
15.7,2.09517501445E7,6.7168088403,0.0,0.0,1.28159324262,490.136565422,26103.8192376,1.83681456532E-5,0.0,32.1184928508,0.0,0.0,-0.06561413334130466,0.0,0.0,0.0,-29408.19392532,1011.47195584,0.00102561825785,749.551608215,425.695427978,1.59576504854E-16,0.095218227569,-2.4205661331,0.0,0.0,0.0,0.48493076217,123.373790974,290.609670011
15.8,2.0951700983E7,6.84577374399,0.0,0.0,1.29804099798,493.093609026,26054.6577,1.87208639217E-5,0.0,32.1186437915,0.0,0.0,-0.06603229348109778,0.0,0.0,0.0,-29585.61654156,1011.67842977,0.0010274859875,751.258257313,425.870341307,1.60829996667E-16,0.0959190758805,-2.45429822949,0.0,0.0,0.0,0.487751968141,125.091832305,292.360032336
15.9,2.09516515259E7,6.97638840188,0.0,0.0,1.31459637032,496.047281181,26005.2006264,1.90780956421E-5,0.0,32.118795641,0.0,0.0,-0.06645045813465239,0.0,0.0,0.0,-29762.836870860003,1011.88614493,0.00102936494507,752.975165982,426.046306133,1.6208766662E-16,0.0966213378414,-2.48830698134,0.0,0.0,0.0,0.490568120614,126.823963665,294.108415977
16.0,2.09516017737E7,7.10866356875,0.0,0.0,1.33125937049,498.997554268,25955.4483553,1.94398702719E-5,0.0,32.1189483981,0.0,0.0,-0.06686862733061641,0.0,0.0,0.0,-29939.853256079998,1012.0950999,0.00103125511768,754.702322469,426.223321251,1.63349529006E-16,0.0973250097065,-2.52259322192,0.0,0.0,0.0,0.493379185163,128.570227482,295.854804223
16.1,2.09515517265E7,7.2426100003,0.0,0.0,1.34803000783,501.94440059,25905.4012279,1.98062172718E-5,0.0,32.1191020618,0.0,0.0,-0.06728680109935659,0.0,0.0,0.0,-30116.664035399997,1012.30529323,0.00103315649238,756.439714928,426.401385447,1.64615597894E-16,0.0980300875105,-2.55715777881,0.0,0.0,0.0,0.496185127383,130.330665896,297.59918032
16.2,2.09515013849E7,7.37823845298,0.0,0.0,1.36490829018,504.887792363,25855.0595884,2.01771661052E-5,0.0,32.1192566311,0.0,0.0,-0.06770497947009378,0.0,0.0,0.0,-30293.267541780002,1012.51672349,0.0010350690561,758.187331414,426.580497497,1.65885887123E-16,0.0987365670668,-2.59200147375,0.0,0.0,0.0,0.498985912887,132.105320751,299.341527477
16.3,2.09514507491E7,7.51555968387,0.0,0.0,1.38189422383,507.827701723,25804.4237836,2.0552746238E-5,0.0,32.1194121049,0.0,0.0,-0.06812316247147587,0.0,0.0,0.0,-30469.66210338,1012.72938921,0.00103699279564,759.945159887,426.760656166,1.67160410305E-16,0.099444443967,-2.62712512238,0.0,0.0,0.0,0.50178150731,133.894233578,301.08182886
16.4,2.09513998195E7,7.65458445053,0.0,0.0,1.39898781351,510.764100724,25753.4941632,2.09329871379E-5,0.0,32.1195684823,0.0,0.0,-0.06854135013444258,0.0,0.0,0.0,-30645.84604344,1012.94328894,0.00103892769774,761.713188207,426.941860211,1.68439180816E-16,0.10015371358,-2.66252953413,0.0,0.0,0.0,0.504571876309,135.697445594,302.820067596
16.5,2.09513485964E7,7.7953235108,0.0,0.0,1.41618906235,513.696961341,25702.2710795,2.1317918274E-5,0.0,32.119725762,0.0,0.0,-0.06895954248706886,0.0,0.0,0.0,-30821.81768046,1013.15842118,0.001040873749,763.491404141,427.124108377,1.69722211804E-16,0.100864371052,-2.69821551196,0.0,0.0,0.0,0.507356985563,137.514997683,304.55622677
16.6,2.09512970802E7,7.93778762266,0.0,0.0,1.43349797189,516.626255467,25650.7548879,2.17075691166E-5,0.0,32.1198839432,0.0,0.0,-0.06937773955972143,0.0,0.0,0.0,-30997.575328019997,1013.37478445,0.00104283093593,765.279795356,427.307399401,1.7100951618E-16,0.101576411304,-2.73418385221,0.0,0.0,0.0,0.510136800774,139.346930396,306.29028943
16.7,2.09512452713E7,8.0819875441,0.0,0.0,1.45091454201,519.551954915,25598.9459463,2.21019691364E-5,0.0,32.1200430246,0.0,0.0,-0.06979594138104823,0.0,0.0,0.0,-31173.1172949,1013.59237724,0.00104479924492,767.078349422,427.49173201,1.72301106619E-16,0.102289829033,-2.77043534436,0.0,0.0,0.0,0.512911287667,141.193283933,308.022238583
16.8,2.09511931699E7,8.22793403289,0.0,0.0,1.46843877092,522.474031421,25546.8446157,2.25011478045E-5,0.0,32.1202030052,0.0,0.0,-0.070214147981416,0.0,0.0,0.0,-31348.441885259996,1013.81119804,0.00104677866227,768.887053812,427.677104918,1.73596995559E-16,0.10300461871,-2.80697077089,0.0,0.0,0.0,0.515680411994,143.054098135,309.752057194
16.9,2.09511407766E7,8.37563784647,0.0,0.0,1.48607065516,525.392456643,25494.4512598,2.29051345915E-5,0.0,32.1203638839,0.0,0.0,-0.07063235939004557,0.0,0.0,0.0,-31523.547398579998,1014.03124531,0.00104876917415,770.705895898,427.863516832,1.748971952E-16,0.103720774581,-2.84379090704,0.0,0.0,0.0,0.518444139529,144.929412478,311.479728192
17.0,2.09510880916E7,8.52510974174,0.0,0.0,1.50381018953,528.30720216,25441.766245,2.33139589673E-5,0.0,32.1205256595,0.0,0.0,-0.07105057563558484,0.0,0.0,0.0,-31698.432129599998,1014.25251753,0.00105077076663,772.534862956,428.050966447,1.762017175E-16,0.104438290663,-2.88089652063,0.0,0.0,0.0,0.521202436075,146.819266058,313.205234464
17.1,2.09510351152E7,8.67636047491,0.0,0.0,1.52165736711,531.218239476,25388.7899409,2.37276504007E-5,0.0,32.1206883311,0.0,0.0,-0.07146879674897355,0.0,0.0,0.0,-31873.09436856,1014.47501314,0.00105278342569,774.373942163,428.23945245,1.77510574178E-16,0.105157160747,-2.91828837189,0.0,0.0,0.0,0.523955267462,148.723697584,314.928558862
17.2,2.0950981848E7,8.82940080133,0.0,0.0,1.53961217921,534.125540019,25335.5227197,2.41462383584E-5,0.0,32.1208518974,0.0,0.0,-0.07188702275828662,0.0,0.0,0.0,-32047.53240114,1014.69873057,0.00105480713719,776.223120596,428.428973516,1.78823776705E-16,0.105877378398,-2.9559672132,0.0,0.0,0.0,0.526702599548,150.642745367,316.649684194
