time,eiPosition_ft_X,eiPosition_ft_Y,eiPosition_ft_Z,eiVelocity_ft_s_X,eiVelocity_ft_s_Y,eiVelocity_ft_s_Z,feVelocity_ft_s_X,feVelocity_ft_s_Y,feVelocity_ft_s_Z,altitudeMsl_ft,longitude_deg,latitude_deg,localGravity_ft_s2,eulerAngle_deg_Yaw,eulerAngle_deg_Pitch,eulerAngle_deg_Roll,bodyAngularRateWrtEi_deg_s_Roll,bodyAngularRateWrtEi_deg_s_Pitch,bodyAngularRateWrtEi_deg_s_Yaw,speedOfSound_ft_s,airDensity_slug_ft3,ambientPressure_lbf_ft2,ambientTemperature_dgR,aero_bodyForce_lbf_X,aero_bodyForce_lbf_Y,aero_bodyForce_lbf_Z,aero_bodyMoment_ftlbf_L,aero_bodyMoment_ftlbf_M,aero_bodyMoment_ftlbf_N,mach,dynamicPressure_lbf_ft2
0.0,2.09556463255E7,0.0,0.0,0.0,1528.10982905,0.0,0.0,0.0,-0.0,30000.0,0.0,0.0,32.1065359519,0.0,0.0,0.0,0.0,0.0,0.0,994.849493459,8.90685451211E-4,629.673709538,411.838873082,-0.0,0.00349771358773,-0.0,0.0,0.0,0.0,0.020103543432,0.178137090242
0.1,2.09556461649E7,152.81100004,0.0,-3.21062545756,1528.11016859,0.0,0.0,3.74582916758E-4,3.19948230106,29999.8400254,5.00438243904E-11,0.0,32.10653644285363,0.0,0.0,-4.17807463268E-4,0.0,0.0,0.0,994.850180532,8.90690687104E-4,629.678280823,411.839441939,-0.0,0.00354208102224,-5.66625399611E-4,0.0,0.0,0.0,0.0203587745907,0.18269032562
0.2,2.09556456833E7,305.622033231,0.0,-6.42119260255,1528.1104935,0.0,0.0,8.04603226693E-4,6.39890628137,29999.3601055,2.09887209717E-10,0.0,32.10653791581453,0.0,0.0,-8.35615036335E-4,0.0,0.0,0.0,994.852241733,8.90706394802E-4,629.691994732,411.841148498,-0.0,0.00367219613906,-0.00117489017682,0.0,0.0,0.0,0.0211065996228,0.196362378676
0.3,2.09556448807E7,458.433098526,0.0,-9.63169546425,1528.11081196,0.0,0.0,0.0012982385517,9.5982659694,29998.5602463,4.95825235687E-10,0.0,32.10654037078269,0.0,0.0,-0.0012534227355,0.0,0.0,0.0,994.855677028,8.90732574529E-4,629.714851576,411.843992735,-0.0,0.00387944096291,-0.0018618117533,0.0,0.0,0.0,0.0222974640162,0.21915351861
0.4,2.0955643757E7,611.244195647,0.0,-12.8421247266,1528.1111311,0.0,0.0,0.00186263645272,12.7975520481,29997.4404547,9.26254672354E-10,0.0,32.106543807558126,0.0,0.0,-0.00167123057915,0.0,0.0,0.0,994.860486372,8.9076922677E-4,629.746851966,411.847974628,-0.0,0.00415229177386,-0.00265703526295,0.0,0.0,0.0,0.0238650818414,0.251064569869
0.5,2.09556423123E7,764.05532497,0.0,-16.0524685004,1528.1114569,0.0,0.0,0.00250375241151,15.9967526268,29996.0007387,1.52136453695E-9,0.0,32.106548226340834,0.0,0.0,-0.00208903858748,0.0,0.0,0.0,994.866669712,8.90816352257E-4,629.787996806,411.853094148,-0.0,0.00447879031631,-0.00358248576734,0.0,0.0,0.0,0.0257406484986,0.292096878348
0.6,2.09556405465E7,916.86648741,0.0,-19.2627130442,1528.11179416,0.0,0.0,0.00322639428084,19.1958539627,29994.2411075,2.30281261768E-9,0.0,32.10655362703081,0.0,0.0,-0.00250684678216,0.0,0.0,0.0,994.874226984,8.90873951964E-4,629.838287289,411.859351263,-0.0,0.00484813127685,-0.00465354420393,0.0,0.0,0.0,0.0278619729385,0.342252286245
0.7,2.09556384597E7,1069.67768431,0.0,-22.4728433368,1528.1121467,0.0,0.0,0.00403437649429,22.3948410332,29992.1615718,3.2934313293E-9,0.0,32.106560009528074,0.0,0.0,-0.002924655186,0.0,0.0,0.0,994.883158111,8.90942027101E-4,629.897724888,411.866745936,-0.0,0.00525130818875,-0.00588069273013,0.0,0.0,0.0,0.0301771957228,0.40153311435
0.8,2.09556360519E7,1222.48891736,0.0,-25.6828434907,1528.11251754,0.0,0.0,0.00493070530064,25.5936979489,29989.7621437,4.51698134582E-9,0.0,32.106567373832625,0.0,0.0,-0.00334246382277,0.0,0.0,0.0,994.893463005,8.91020579111E-4,629.966311355,411.875278124,-0.0,0.00568115057643,-0.00727100100948,0.0,0.0,0.0,0.0326450060084,0.469942149926
0.9,2.09556333232E7,1375.30018851,0.0,-28.8926970334,1528.11290903,0.0,0.0,0.00591775162593,28.7924082357,29987.0428371,5.99795482075E-9,0.0,32.106575719944466,0.0,0.0,-0.00376027271697,0.0,0.0,0.0,994.905141564,8.91109609668E-4,630.04404872,411.884947778,-0.0,0.00613208473922,-0.00882925030169,0.0,0.0,0.0,0.0352332686132,0.54748263852
1.0,2.09556302734E7,1528.11149992,0.0,-32.1023870953,1528.11332309,0.0,0.0,0.00699739524466,31.9909550221,29984.0036675,7.7614220953E-9,0.0,32.1065850477636,0.0,0.0,-0.00417808189366,0.0,0.0,0.0,994.918193674,8.91209120675E-4,630.130939289,411.895754844,-0.0,0.00659982210164,-0.0105587120958,0.0,0.0,0.0,0.0379172338463,0.634158278409
1.1,2.09556269027E7,1680.92285393,0.0,-35.3118965324,1528.1137612,0.0,0.0,0.00817113838732,35.1893211626,29980.6446521,9.83291362396E-9,0.0,32.10659535719005,0.0,0.0,-0.00459589137838,0.0,0.0,0.0,994.932619209,8.91319114261E-4,630.226985641,411.907699263,-0.0,0.00708106862131,-0.0124616646791,0.0,0.0,0.0,0.0406778678555,0.729973216793
1.2,2.0955623211E7,1833.734253,0.0,-38.5212080082,1528.11422459,0.0,0.0,0.00944019277464,38.3874893186,29976.9658098,1.22383291834E-8,0.0,32.10660664832381,0.0,0.0,-0.00501370119702,0.0,0.0,0.0,994.948418029,8.91439592783E-4,630.332190631,411.920780967,-0.0,0.00757328572683,-0.0145397297129,0.0,0.0,0.0,0.0435004788718,0.834932047133
1.3,2.09556191985E7,1986.54569972,0.0,-41.7303040473,1528.11471425,0.0,0.0,0.0108055454684,41.5854420129,29972.9671614,1.50038678695E-8,0.0,32.10661892096491,0.0,0.0,-0.00543151137578,0.0,0.0,0.0,994.965589981,8.91570558827E-4,630.446557389,411.934999885,-0.0,0.00807450483409,-0.0167940907734,0.0,0.0,0.0,0.0463736512558,0.949039807246
1.4,2.0955614865E7,2139.35719676,0.0,-44.9391670717,1528.11523101,0.0,0.0,0.0122680085306,44.7831616656,29968.6487292,1.81559737826E-8,0.0,32.10663217511333,0.0,0.0,-0.00584932194111,0.0,0.0,0.0,994.984134899,8.91712015202E-4,630.570089315,411.950355938,-0.0,0.00858318745567,-0.0192256359719,0.0,0.0,0.0,0.0492884415212,1.0723019779
1.5,2.09556102106E7,2292.16874685,0.0,-48.1477794252,1528.11577555,0.0,0.0,0.0138282565684,47.9806306186,29964.0105374,2.17212935572E-8,0.0,32.10664641066909,0.0,0.0,-0.00626713291965,0.0,0.0,0.0,995.004052605,8.91863964945E-4,630.702790086,411.966849042,-0.0,0.00909812100525,-0.0218350519549,0.0,0.0,0.0,0.0522377794808,1.20472448175
1.6,2.09556052354E7,2444.98035281,0.0,-51.3561233903,1528.11634843,0.0,0.0,0.0154868552616,51.1778311526,29959.052612,2.57266428577E-8,0.0,32.10666162763222,0.0,0.0,-0.00668494433823,0.0,0.0,0.0,995.025342907,8.92026411316E-4,630.84466365,411.984479105,-0.0,0.0096183414615,-0.0246228866426,0.0,0.0,0.0,0.0552160237522,1.34631368249
1.7,2.09555999394E7,2597.7920175,0.0,-54.5641811999,1528.11695016,0.0,0.0,0.0172442832036,54.3747454986,29953.7749807,3.01989797058E-8,0.0,32.10667782570271,0.0,0.0,-0.00710275622379,0.0,0.0,0.0,995.048005598,8.92199357804E-4,630.995714229,412.003246032,-0.0,0.0101430758693,-0.0275895916842,0.0,0.0,0.0,0.0582186312721,1.4970763842
1.8,2.09555943226E7,2750.60374382,0.0,-57.7719350452,1528.11758115,0.0,0.0,0.0191009487538,57.5713558458,29948.177673,3.51653830786E-8,0.0,32.10669500508059,0.0,0.0,-0.00752056860342,0.0,0.0,0.0,995.072040462,8.92382808121E-4,631.155946318,412.023149717,-0.0,0.0106716993842,-0.0307355516015,0.0,0.0,0.0,0.0612419103969,1.65701983075
1.9,2.0955588385E7,2903.41553471,0.0,-60.9793670815,1528.11824176,0.0,0.0,0.0210572031594,60.7676443475,29942.2607203,4.06530355837E-8,0.0,32.10671316546586,0.0,0.0,-0.00793838150429,0.0,0.0,0.0,995.097447266,8.92576766205E-4,631.325364686,412.044190053,-0.0,0.0112037029695,-0.0340611040793,0.0,0.0,0.0,0.0642828352285,1.8261517053
2.0,2.09555821267E7,3056.22739317,0.0,-64.1864594319,1528.1189323,0.0,0.0,0.0231133508549,63.963593125,29936.0241555,4.66892092991E-8,0.0,32.10673230685853,0.0,0.0,-0.00835619495369,0.0,0.0,0.0,995.124225765,8.92781236219E-4,631.503974374,412.066366923,-0.0,0.0117386689194,-0.0375665542901,0.0,0.0,0.0,0.0673389049231,2.00448012986
2.1,2.09555755478E7,3209.03932218,0.0,-67.3931941903,1528.11965307,0.0,0.0,0.0252696576187,67.1591842703,29929.4680136,5.33012541586E-8,0.0,32.10675242905864,0.0,0.0,-0.00877400897896,0.0,0.0,0.0,995.152375701,8.92996222553E-4,631.691780696,412.089680206,-0.0,0.0122762521621,-0.0412521851407,0.0,0.0,0.0,0.0704080362211,2.19201366485
2.2,2.09555686481E7,3361.8513248,0.0,-70.599553423,1528.1204043,0.0,0.0,0.0275263570825,70.3543998477,29922.5923311,6.05165882579E-8,0.0,32.10677353206618,0.0,0.0,-0.00919182360752,0.0,0.0,0.0,995.181896804,8.93221729818E-4,631.888789241,412.114129773,-0.0,0.0128161658602,-0.0451182646972,0.0,0.0,0.0,0.0734884806759,2.38876130875
2.3,2.09555614279E7,3514.66340406,0.0,-73.8055191702,1528.12118621,0.0,0.0,0.0298836559741,73.5492218953,29915.3971467,6.8362689851E-8,0.0,32.10679561578118,0.0,0.0,-0.00960963886684,0.0,0.0,0.0,995.212788789,8.93457762854E-4,632.095005868,412.139715489,-0.0,0.0133581702287,-0.0491650516281,0.0,0.0,0.0,0.0765787603819,2.59473249765
2.4,2.0955553887E7,3667.47556307,0.0,-77.0110734461,1528.121999,0.0,0.0,0.0323417383643,76.7436324256,29907.8825005,7.68670905902E-8,0.0,32.10681867990366,0.0,0.0,-0.0100274547845,0.0,0.0,0.0,995.245051358,8.93704326723E-4,632.310436713,412.166437215,-0.0,0.0139020637829,-0.0533927992413,0.0,0.0,0.0,0.0796776176632,2.80993710494
2.5,2.09555460257E7,3820.2878049,0.0,-80.2161982402,1528.12284286,0.0,0.0,0.0349007691397,79.9376134259,29900.0484345,8.60573698205E-8,0.0,32.10684272453362,0.0,0.0,-0.010445271388,0.0,0.0,0.0,995.2786842,8.93961426715E-4,632.535088183,412.194294802,-0.0,0.0144476764333,-0.0578017585096,0.0,0.0,0.0,0.0827839753849,3.03438544088
2.6,2.09555378438E7,3973.10013268,0.0,-83.4208755165,1528.12371795,0.0,0.0,0.0375608968531,83.1311468585,29891.8949927,9.59611497278E-8,0.0,32.106867749371105,0.0,0.0,-0.010863088705,0.0,0.0,0.0,995.313686992,8.94229068341E-4,632.768966959,412.223288098,-0.0,0.0149948639974,-0.062392180361,0.0,0.0,0.0,0.0858969054063,3.26808825224
2.7,2.09555293415E7,4125.91254954,0.0,-86.625087214,1528.12462441,0.0,0.0,0.0403222560892,86.3242146603,29883.4222207,1.06606091239E-7,0.0,32.10689375431612,0.0,0.0,-0.0112809067631,0.0,0.0,0.0,995.350059395,8.94507257339E-4,633.012079995,412.253416943,-0.0,0.0155435038066,-0.0671643174286,0.0,0.0,0.0,0.0890156033266,3.51105672193
2.8,2.09555205188E7,4278.72505861,0.0,-89.8288152463,1528.12556239,0.0,0.0,0.0431849694281,89.5167987429,29874.6301659,1.18019890458E-7,0.0,32.10692073926868,0.0,0.0,-0.0116987255902,0.0,0.0,0.0,995.38780106,8.94795999673E-4,633.264434519,412.28468117,-0.0,0.0160934911636,-0.0721184253993,0.0,0.0,0.0,0.0921393681271,3.76330246859
2.9,2.09555113758E7,4431.53766307,0.0,-93.0320415012,1528.12653203,0.0,0.0,0.0461491490948,92.7088809922,29865.5188777,1.30230275612E-7,0.0,32.10694870412882,0.0,0.0,-0.0121165452138,0.0,0.0,0.0,995.426911623,8.95095301528E-4,633.526038033,412.317080608,-0.0,0.0166447364694,-0.0772547640618,0.0,0.0,0.0,0.0952675856531,4.02483754617
3.0,2.09555019124E7,4584.35036608,0.0,-96.2347478402,1528.12753343,0.0,0.0,0.049214898347,95.9004432678,29856.088407,1.43265004445E-7,0.0,32.106977648596555,0.0,0.0,-0.0125343656617,0.0,0.0,0.0,995.467390706,8.95405169316E-4,633.796898312,412.350615078,-0.0,0.0171971628767,-0.0825735981268,0.0,0.0,0.0,0.0983997151273,4.29567444357
3.1,2.09554921288E7,4737.16317082,0.0,-99.4369160981,1528.12856671,0.0,0.0,0.0523823126461,99.0914674023,29846.3388069,1.57151861907E-7,0.0,32.107007572671904,0.0,0.0,-0.0129521869618,0.0,0.0,0.0,995.509237919,8.95725609673E-4,634.077023404,412.385284394,-0.0,0.0177507043621,-0.0880751978738,0.0,0.0,0.0,0.101535278072,4.57582608418
3.2,2.09554820251E7,4889.97608049,0.0,-102.638528082,1528.12963199,0.0,0.0,0.0556514806584,102.281935201,29836.2701321,1.71918658169E-7,0.0,32.10703847605489,0.0,0.0,-0.0133700091418,0.0,0.0,0.0,995.552452859,8.9605662946E-4,634.366421633,412.421088365,-0.0,0.0183053041345,-0.0937598396641,0.0,0.0,0.0,0.10467384916,4.86530582544
3.3,2.09554716011E7,5042.78909829,0.0,-105.839565572,1528.13072937,0.0,0.0,0.0590224851121,105.471828443,29825.8824391,1.87593226923E-7,0.0,32.10707035864556,0.0,0.0,-0.0137878322296,0.0,0.0,0.0,995.597035109,8.96398235761E-4,634.665101594,412.458026794,-0.0,0.0188609133127,-0.0996278063502,0.0,0.0,0.0,0.107815048612,5.16412745841
3.4,2.09554608572E7,5195.60222743,0.0,-109.040010319,1528.13185894,0.0,0.0,0.0624954035233,108.661128874,29815.1757862,2.04203423797E-7,0.0,32.10710322024391,0.0,0.0,-0.014205656253,0.0,0.0,0.0,995.642984239,8.96750435884E-4,634.97307216,412.496099476,-0.0,0.0194174898216,-0.105679387604,0.0,0.0,0.0,0.11095853586,5.47230520729
3.5,2.09554497932E7,5348.41547115,0.0,-112.239844044,1528.1330208,0.0,0.0,0.0660703088336,111.849818217,29804.1502337,2.21777125097E-7,0.0,32.107137060649976,0.0,0.0,-0.01462348124,0.0,0.0,0.0,995.690299805,8.97113237365E-4,635.290342474,412.535306201,-0.0,0.0199749974659,-0.11191488018,0.0,0.0,0.0,0.114104004216,5.78985372897
3.6,2.09554384092E7,5501.22883267,0.0,-115.439048438,1528.13421504,0.0,0.0,0.0697472699528,115.037878159,29792.8058435,2.40342226562E-7,0.0,32.10717187976379,0.0,0.0,-0.0150413072183,0.0,0.0,0.0,995.738981351,8.9748664796E-4,635.616921955,412.575646751,-0.0,0.02053340515,-0.118334588133,0.0,0.0,0.0,0.117251176399,6.11678811251
3.7,2.09554267054E7,5654.04231524,0.0,-118.637605162,1528.13544175,0.0,0.0,0.0735263522346,118.22529036,29781.1426796,2.5992664239E-7,0.0,32.107207677385375,0.0,0.0,-0.0154591342159,0.0,0.0,0.0,995.789028407,8.9787067565E-4,635.952820297,412.617120904,-0.0,0.0210926862171,-0.124938822986,0.0,0.0,0.0,0.120399800728,6.45312387861
3.8,2.09554146817E7,5806.85592211,0.0,-121.835495846,1528.13670102,0.0,0.0,0.0774076178908,121.412036446,29769.1608077,2.80558304293E-7,0.0,32.10724445321476,0.0,0.0,-0.0158769622608,0.0,0.0,0.0,995.840440489,8.98265328641E-4,636.298047467,412.659728429,-0.0,0.0216528178874,-0.131727903876,0.0,0.0,0.0,0.123549647902,6.79887697915
3.9,2.09554023383E7,5959.66965653,0.0,-125.032702086,1528.13799292,0.0,0.0,0.0813911263522,124.598098012,29756.8602952,3.022651607E-7,0.0,32.10728220705198,0.0,0.0,-0.0162947913809,0.0,0.0,0.0,995.893217102,8.98670615363E-4,636.652613707,412.703469091,-0.0,0.0222137807785,-0.138702157668,0.0,0.0,0.0,0.126700508243,7.1540637966
4.0,2.09553896752E7,6112.48352178,0.0,-128.229205445,1528.13931755,0.0,0.0,0.0854769345835,127.783456621,29744.2412115,3.25075176052E-7,0.0,32.10732093889705,0.0,0.0,-0.0167126216041,0.0,0.0,0.0,995.947357736,8.99086544469E-4,637.016529535,412.748342646,-0.0,0.0227755584945,-0.145861919045,0.0,0.0,0.0,0.129852189334,7.51870114346
4.1,2.09553766925E7,6265.29752114,0.0,-131.424987454,1528.14067498,0.0,0.0,0.0896650973675,130.968093799,29731.3036279,3.49016330139E-7,0.0,32.10736064825001,0.0,0.0,-0.0171304529585,0.0,0.0,0.0,996.002861867,8.99513124836E-4,637.389805741,412.794348846,-0.0,0.0233381372726,-0.153207530591,0.0,0.0,0.0,0.133004513994,7.89280626172
4.2,2.09553633902E7,6418.11165788,0.0,-134.620029608,1528.1420653,0.0,0.0,0.0939556675437,134.15199104,29718.0476174,3.74116617574E-7,0.0,32.107401335110886,0.0,0.0,-0.017548285472,0.0,0.0,0.0,996.059728959,8.99950365565E-4,637.772453392,412.841487435,-0.0,0.0239015056776,-0.160739342846,0.0,0.0,0.0,0.136157318522,8.27639682221
4.3,2.09553497685E7,6570.92593529,0.0,-137.814313365,1528.14348857,0.0,0.0,0.0983486962335,137.335129802,29704.473255,4.004040473E-7,0.0,32.10744299917973,0.0,0.0,-0.0179661191727,0.0,0.0,0.0,996.117958464,9.0039827598E-4,638.164483829,412.88975815,-0.0,0.0244656543382,-0.168457714361,0.0,0.0,0.0,0.13931045118,8.66949092406
4.4,2.09553358274E7,6723.74035669,0.0,-141.00782015,1528.14494488,0.0,0.0,0.102844233026,140.517491506,29690.5806173,4.27906642099E-7,0.0,32.10748564015655,0.0,0.0,-0.0183839540885,0.0,0.0,0.0,996.177549817,9.00856865629E-4,638.565908669,412.939160723,-0.0,0.0250305757166,-0.176363011735,0.0,0.0,0.0,0.142463770878,9.07210709401
4.5,2.0955321567E7,6876.55492537,0.0,-144.20053135,1528.14643431,0.0,0.0,0.107442326156,143.699057536,29676.3697832,4.56652438269E-7,0.0,32.10752925794139,0.0,0.0,-0.0188017902475,0.0,0.0,0.0,996.238502442,9.01326144285E-4,638.976739802,412.98969488,-0.0,0.0255962639089,-0.18445560965,0.0,0.0,0.0,0.145617146022,9.4842642858
4.6,2.09553069873E7,7029.36964466,0.0,-147.392428311,1528.14795692,0.0,0.0,0.112143022651,146.879809238,29661.840833,4.86669485211E-7,0.0,32.10757385213428,0.0,0.0,-0.0192196276778,0.0,0.0,0.0,996.300815751,9.0180612194E-4,639.396989397,413.041360338,-0.0,0.0261627144697,-0.192735890893,0.0,0.0,0.0,0.148770453516,9.90598187945
4.7,2.09552920885E7,7182.18451787,0.0,-150.583492344,1528.1495128,0.0,0.0,0.116946368469,150.059727921,29646.9938491,5.17985845157E-7,0.0,32.10761942263526,0.0,0.0,-0.0196374664074,0.0,0.0,0.0,996.36448914,9.02296808815E-4,639.826669895,413.094156809,-0.0,0.0267299242585,-0.201204246379,0.0,0.0,0.0,0.151923577873,10.3372796807
4.8,2.09552768706E7,7334.99954833,0.0,-153.773704719,1528.15110203,0.0,0.0,0.121852408621,153.238794852,29631.8289158,5.50629592904E-7,0.0,32.10766596914437,0.0,0.0,-0.0200553064643,0.0,0.0,0.0,996.429521993,9.02798215349E-4,640.265794013,413.148083998,-0.0,0.0272978913052,-0.209861075161,0.0,0.0,0.0,0.155076410452,10.77817792
4.9,2.09552613338E7,7487.81473939,0.0,-156.963046666,1528.15272467,0.0,0.0,0.126861187279,156.416991259,29616.3461192,5.84628815536E-7,0.0,32.107713491361636,0.0,0.0,-0.0204731478768,0.0,0.0,0.0,996.49591368,9.03310352208E-4,640.714374746,413.203141605,-0.0,0.0278666146906,-0.218706784441,0.0,0.0,0.0,0.158228848767,11.2286972523
5.0,2.09552454781E7,7640.63009438,0.0,-160.151499373,1528.15438081,0.0,0.0,0.131972747875,159.594298329,29600.5455472,6.20011612266E-7,0.0,32.1077619890871,0.0,0.0,-0.0208909906728,0.0,0.0,0.0,996.56366356,9.03833230277E-4,641.172425363,413.259329321,-0.0,0.0284360944412,-0.22774178958,0.0,0.0,0.0,0.161380795891,11.6888587558
5.1,2.09552293035E7,7793.44561667,0.0,-163.339043987,1528.15607051,0.0,0.0,0.137187133188,162.770697206,29584.4272898,6.56806094193E-7,0.0,32.107811461920804,0.0,0.0,-0.0213088348805,0.0,0.0,0.0,996.632770975,9.04366860668E-4,641.639959409,413.316646831,-0.0,0.0290063314363,-0.236966514097,0.0,0.0,0.0,0.164532159922,12.1586839315
5.2,2.09552128103E7,7946.2613096,0.0,-166.525661612,1528.15779386,0.0,0.0,0.142504385422,165.946168993,29567.9914387,6.9504038417E-7,0.0,32.10786190976278,0.0,0.0,-0.021726680528,0.0,0.0,0.0,996.703235256,9.04911254713E-4,642.116990705,413.375093816,-0.0,0.029577327325,-0.24638138967,0.0,0.0,0.0,0.167682853508,12.6381947021
5.3,2.09551959984E7,8099.07717656,0.0,-169.711333309,1528.15955093,0.0,0.0,0.147924546276,169.120694747,29551.2380875,7.34742616637E-7,0.0,32.10791333231308,0.0,0.0,-0.0221445276435,0.0,0.0,0.0,996.77505572,9.05466423968E-4,642.60353335,413.434669946,-0.0,0.0301490844522,-0.255986856134,0.0,0.0,0.0,0.170832793423,13.1274134116
5.4,2.0955178868E7,8251.89322092,0.0,-172.896040093,1528.16134179,0.0,0.0,0.153447657012,172.294255482,29534.1673319,7.75940937527E-7,0.0,32.10796572917173,0.0,0.0,-0.022562376255,0.0,0.0,0.0,996.848231672,9.0603238021E-4,643.099601717,413.495374888,-0.0,0.0307216057932,-0.265783361479,0.0,0.0,0.0,0.1739819002,13.6263628241
5.5,2.09551614192E7,8404.70944605,0.0,-176.079762934,1528.16316653,0.0,0.0,0.15907375851,175.466832168,29516.7792692,8.1866350414E-7,0.0,32.10801910003878,0.0,0.0,-0.0229802263908,0.0,0.0,0.0,996.922762402,9.06609135441E-4,643.605210457,413.557208301,-0.0,0.0312948948943,-0.275771361841,0.0,0.0,0.0,0.177130097786,14.1350661233
5.6,2.09551436521E7,8557.52585535,0.0,-179.262482757,1528.16502522,0.0,0.0,0.16480289132,178.638405725,29499.0739989,8.62938485002E-7,0.0,32.10807344471427,0.0,0.0,-0.023398078079,0.0,0.0,0.0,996.998647186,9.07196701881E-4,644.120374496,413.620169837,-0.0,0.0318689558207,-0.285951321494,0.0,0.0,0.0,0.180277313249,14.6535469111
5.7,2.09551255668E7,8710.34245223,0.0,-182.444180441,1528.16691793,0.0,0.0,0.170635095708,181.808957032,29481.0516221,9.08794059888E-7,0.0,32.10812876289825,0.0,0.0,-0.0238159313478,0.0,0.0,0.0,997.07588529,9.07795091977E-4,644.645109039,413.684259141,-0.0,0.0324437931084,-0.296323712843,0.0,0.0,0.0,0.183423476501,15.1818292074
5.8,2.09551071633E7,8863.15924008,0.0,-185.624836815,1528.16884475,0.0,0.0,0.176570411705,184.978466914,29462.7122422,9.5625841965E-7,0.0,32.10818505419074,0.0,0.0,-0.0242337862254,0.0,0.0,0.0,997.154475962,9.08404318395E-4,645.179429566,413.749475853,-0.0,0.0330194117219,-0.306889016409,0.0,0.0,0.0,0.186568520064,15.7199374486
5.9,2.09550884419E7,9015.97622232,0.0,-188.80443266,1528.17080575,0.0,0.0,0.182608879136,188.146916152,29444.0559641,1.00535976623E-6,0.0,32.10824231839181,0.0,0.0,-0.02465164274,0.0,0.0,0.0,997.23441844,9.09024394023E-4,645.723351837,413.815819604,-0.0,0.0335958170157,-0.317647720823,0.0,0.0,0.0,0.189712378845,16.2678964868
6.0,2.09550694025E7,9168.79340237,0.0,-191.982948709,1528.17280101,0.0,0.0,0.18875053766,191.314285476,29425.082895,1.05612631256E-6,0.0,32.108300555101486,0.0,0.0,-0.0250695009198,0.0,0.0,0.0,997.315711948,9.09655331973E-4,646.276891884,413.88329002,-0.0,0.0341730146994,-0.328600322806,0.0,0.0,0.0,0.192854989943,16.8257315891
6.1,2.09550500453E7,9321.61078366,0.0,-195.160365644,1528.17483061,0.0,0.0,0.194995426801,194.480555566,29405.7931437,1.10858628257E-6,0.0,32.10835976401984,0.0,0.0,-0.0254873607929,0.0,0.0,0.0,997.398355695,9.10297145575E-4,646.840066022,413.95188672,-0.0,0.0347510108065,-0.339747327159,0.0,0.0,0.0,0.195996292469,17.3934684362
6.2,2.09550303704E7,9474.42836964,0.0,-198.336664096,1528.17689463,0.0,0.0,0.201343585979,197.645707052,29386.1868211,1.16276791111E-6,0.0,32.10841994474689,0.0,0.0,-0.0259052223878,0.0,0.0,0.0,997.48234888,9.10949848385E-4,647.41289084,414.021609316,-0.0,0.0353298116653,-0.351089246744,0.0,0.0,0.0,0.199136227388,17.9711331217
6.3,2.0955010378E7,9627.24616374,0.0,-201.511824645,1528.17899315,0.0,0.0,0.207795054528,200.80972051,29366.2640402,1.21869944398E-6,0.0,32.1084810970827,0.0,0.0,-0.0263230857326,0.0,0.0,0.0,997.567690685,9.11613454175E-4,647.995383206,414.092457413,-0.0,0.0359094238736,-0.362626602472,0.0,0.0,0.0,0.202274737369,18.5587521508
6.4,2.09549900681E7,9780.06416942,0.0,-204.685827818,1528.18112626,0.0,0.0,0.214349871728,203.972576466,29346.0249156,1.27640913786E-6,0.0,32.108543220527324,0.0,0.0,-0.0267409508555,0.0,0.0,0.0,997.65438028,9.12287976943E-4,648.587560265,414.164430609,-0.0,0.0364898542746,-0.374359923281,0.0,0.0,0.0,0.205411766656,19.1563524396
6.5,2.09549694409E7,9932.88239015,0.0,-207.858654087,1528.18329403,0.0,0.0,0.221008076818,207.13425539,29325.4695641,1.33592526034E-6,0.0,32.10860631488079,0.0,0.0,-0.0271588177848,0.0,0.0,0.0,997.742416823,9.12973430906E-4,649.189439442,414.237528495,-0.0,0.0370711099357,-0.38628974612,0.0,0.0,0.0,0.208547260945,19.7639613136
6.6,2.09549484964E7,10085.7008294,0.0,-211.030283874,1528.18549654,0.0,0.0,0.227769709018,210.294737702,29304.5981044,1.39727608991E-6,0.0,32.10867037964316,0.0,0.0,-0.0275766865489,0.0,0.0,0.0,997.831799455,9.13669830501E-4,649.801038436,414.311750656,-0.0,0.0376531981284,-0.398416615929,0.0,0.0,0.0,0.211681167277,20.3816065067
6.7,2.09549272349E7,10238.5194906,0.0,-214.200697542,1528.18773389,0.0,0.0,0.23463480755,213.454003763,29283.4106571,1.46048991593E-6,0.0,32.10873541461448,0.0,0.0,-0.0279945571759,0.0,0.0,0.0,997.922527308,9.14377190387E-4,650.42237523,414.38709667,-0.0,0.038236126311,-0.410741085621,0.0,0.0,0.0,0.214813433935,21.0093161603
6.8,2.09549056563E7,10391.3383773,0.0,-217.3698754,1528.19000615,0.0,0.0,0.241603411646,216.61203388,29261.9073449,1.52559503867E-6,0.0,32.10880141919482,0.0,0.0,-0.0284124296943,0.0,0.0,0.0,998.014599497,9.15095525443E-4,651.05346808,414.463566108,-0.0,0.0388199021114,-0.423263716059,0.0,0.0,0.0,0.217944010354,21.6471188219
6.9,2.09548837609E7,10544.157493,0.0,-220.537797701,1528.19231341,0.0,0.0,0.248675560565,219.768808303,29240.0882922,1.59261976928E-6,0.0,32.108868393284205,0.0,0.0,-0.0288303041322,0.0,0.0,0.0,998.108015125,9.15824850769E-4,651.694335525,414.541158533,-0.0,0.0394045333124,-0.435985076035,0.0,0.0,0.0,0.221072847038,22.2950434437
7.0,2.09548615488E7,10696.9768412,0.0,-223.704444639,1528.19465575,0.0,0.0,0.255851293602,222.924307226,29217.9536257,1.66159242984E-6,0.0,32.108936336282696,0.0,0.0,-0.0292481805181,0.0,0.0,0.0,998.202773283,9.16565181684E-4,652.344996378,414.619873502,-0.0,0.0399900278375,-0.448905742247,0.0,0.0,0.0,0.224199895484,22.9531193818
7.1,2.09548390201E7,10849.7964253,0.0,-226.869796352,1528.19703327,0.0,0.0,0.263130650104,226.078510783,29195.5034739,1.73254135339E-6,0.0,32.10900524799036,0.0,0.0,-0.0296660588803,0.0,0.0,0.0,998.298873045,9.17316533729E-4,653.005469737,414.699710566,-0.0,0.0405763937384,-0.462026299278,0.0,0.0,0.0,0.227325108108,23.6213763948
7.2,2.09548161749E7,11002.616249,0.0,-230.033832918,1528.19944604,0.0,0.0,0.270513669475,229.231399049,29172.7379674,1.80549488384E-6,0.0,32.10907512780724,0.0,0.0,-0.030083939247,0.0,0.0,0.0,998.396313476,9.18078922664E-4,653.675774973,414.780669268,-0.0,0.0411636391829,-0.47534733957,0.0,0.0,0.0,0.230448438186,24.2998446423
7.3,2.09547930134E7,11155.4363157,0.0,-233.196534354,1528.20189416,0.0,0.0,0.278000391182,232.382952043,29149.6572386,1.88048137612E-6,0.0,32.10914597553339,0.0,0.0,-0.0305018216467,0.0,0.0,0.0,998.495093623,9.18852364466E-4,654.35593174,414.862749143,-0.0,0.0417517724439,-0.488869463403,0.0,0.0,0.0,0.23356983979,24.9885546838
7.4,2.09547695356E7,11308.256629,0.0,-236.357880619,1528.20437772,0.0,0.0,0.28559085477,235.533149718,29126.2614222,1.95752919612E-6,0.0,32.109217790668865,0.0,0.0,-0.0309197061078,0.0,0.0,0.0,998.595212523,9.19636875335E-4,655.04595997,414.945949721,-0.0,0.0423408018899,-0.502593278865,0.0,0.0,0.0,0.236689267737,25.6875374773
7.5,2.09547457418E7,11461.0771924,0.0,-239.51785161,1528.2068968,0.0,0.0,0.293285099859,238.681971971,29102.5506545,2.03666672077E-6,0.0,32.109290572813734,0.0,0.0,-0.0313375926585,0.0,0.0,0.0,998.696669197,9.2043247169E-4,655.745879875,415.030270524,-0.0,0.0429307359746,-0.516519401829,0.0,0.0,0.0,0.239806677537,26.3968243779
7.6,2.09547216321E7,11613.8980096,0.0,-242.676427161,1528.2094515,0.0,0.0,0.301083166154,241.829398633,29078.5250743,2.11792233799E-6,0.0,32.10936432146804,0.0,0.0,-0.0317554813274,0.0,0.0,0.0,998.799462655,9.21239170167E-4,656.455711946,415.115711066,-0.0,0.0435215832293,-0.530648455927,0.0,0.0,0.0,0.242922025347,27.1164471364
7.7,2.09546972066E7,11766.7190839,0.0,-245.833587043,1528.2120419,0.0,0.0,0.308985093449,244.975409474,29054.184822,2.20132444682E-6,0.0,32.10943903633185,0.0,0.0,-0.0321733721427,0.0,0.0,0.0,998.903591892,9.22056987623E-4,657.175476956,415.202270855,-0.0,0.0441133522539,-0.54498107252,0.0,0.0,0.0,0.24603526793,27.846437898
7.8,2.09546724654E7,11919.5404191,0.0,-248.989310966,1528.21466811,0.0,0.0,0.316990921628,248.1199842,29029.5300403,2.28690145732E-6,0.0,32.109514717005226,0.0,0.0,-0.0325912651329,0.0,0.0,0.0,999.00905589,9.22885941132E-4,657.905195955,415.289949392,-0.0,0.0447060517101,-0.559517890674,0.0,0.0,0.0,0.249146362611,28.5868292004
7.9,2.09546474088E7,12072.3620188,0.0,-252.143578574,1528.21733021,0.0,0.0,0.325100690669,251.263102454,29004.5608737,2.37468179073E-6,0.0,32.10959136298821,0.0,0.0,-0.0330091603265,0.0,0.0,0.0,999.115853616,9.23726047988E-4,658.644890275,415.378746171,-0.0,0.0452996903136,-0.574259557126,0.0,0.0,0.0,0.252255267246,29.3376539729
8.0,2.09546220368E7,12225.1838864,0.0,-255.296369444,1528.22002829,0.0,0.0,0.333314440647,254.404743812,28979.277469,2.46469387938E-6,0.0,32.109668973780884,0.0,0.0,-0.0334270577518,0.0,0.0,0.0,999.223984026,9.24577325701E-4,659.394581527,415.468660678,-0.0,0.0458942768282,-0.58920672626,0.0,0.0,0.0,0.255361940185,30.0989455343
8.1,2.09545963496E7,12378.0060256,0.0,-258.44766309,1528.22276246,0.0,0.0,0.341632211733,257.544887785,28953.6799749,2.5569661668E-6,0.0,32.10974754908331,0.0,0.0,-0.0338449574373,0.0,0.0,0.0,999.333446061,9.25439792002E-4,660.154291606,415.559692392,-0.0,0.0464898200594,-0.604360060073,0.0,0.0,0.0,0.258466340241,30.870737592
8.2,2.09545703473E7,12530.8284401,0.0,-261.597438959,1528.22553281,0.0,0.0,0.350054044196,260.683513817,28927.768542,2.65152710772E-6,0.0,32.109827088295525,0.0,0.0,-0.0342628594115,0.0,0.0,0.0,999.444238649,9.26313464839E-4,660.924042682,415.651840785,-0.0,0.0470863288487,-0.619720228147,0.0,0.0,0.0,0.261568426662,31.6530642395
8.3,2.09545440301E7,12683.6511334,0.0,-264.745676429,1528.22833943,0.0,0.0,0.358579978401,263.820601285,28901.5433234,2.74840516809E-6,0.0,32.10990759101761,0.0,0.0,-0.0346807637028,0.0,0.0,0.0,999.556360704,9.27198362375E-4,661.703857211,415.745105323,-0.0,0.0476838120679,-0.635287907613,0.0,0.0,0.0,0.264668159102,32.4459599556
8.4,2.09545173982E7,12836.4741092,0.0,-267.892354811,1528.23118242,0.0,0.0,0.367210054811,266.956129498,28875.0044738,2.84762882515E-6,0.0,32.10998905684963,0.0,0.0,-0.0350986703396,0.0,0.0,0.0,999.669811126,9.28094502993E-4,662.493757926,415.839485463,-0.0,0.0482822786145,-0.651063783125,0.0,0.0,0.0,0.267765497597,33.2494596022
8.5,2.09544904517E7,12989.2973711,0.0,-271.037453348,1528.23406188,0.0,0.0,0.375944313985,270.090077696,28848.1521501,2.94922656738E-6,0.0,32.11007148519164,0.0,0.0,-0.0355165793506,0.0,0.0,0.0,999.784588802,9.29001905292E-4,663.293767845,415.934980654,-0.0,0.0488817374065,-0.667048546822,0.0,0.0,0.0,0.270860402544,34.063598423
8.6,2.09544631908E7,13142.1209228,0.0,-274.180951211,1528.23697791,0.0,0.0,0.384782796574,273.222425049,28820.9865116,3.05322689462E-6,0.0,32.11015487564371,0.0,0.0,-0.0359344907642,0.0,0.0,0.0,999.900692607,9.29920588089E-4,664.103910264,416.031590341,-0.0,0.0494821973781,-0.683242898295,0.0,0.0,0.0,0.273952834675,34.8884120412
8.7,2.09544356156E7,13294.9447679,0.0,-277.322827502,1528.23993061,0.0,0.0,0.393725543321,276.353150657,28793.5077192,3.15965831802E-6,0.0,32.11023922780591,0.0,0.0,-0.0363524046088,0.0,0.0,0.0,1000.0181214,9.30850570417E-4,664.924208762,416.129313958,-0.0,0.0500836674754,-0.699647544556,0.0,0.0,0.0,0.277042755037,35.7239364584
8.8,2.09544077263E7,13447.7689101,0.0,-280.463061253,1528.24292009,0.0,0.0,0.402772595061,279.482233549,28765.7159362,3.26854936013E-6,0.0,32.110324540978304,0.0,0.0,-0.0367703209131,0.0,0.0,0.0,1000.13687403,9.31791871524E-4,665.754687199,416.228150934,-0.0,0.0506861566521,-0.716263199997,0.0,0.0,0.0,0.280130124979,36.5702080523
8.9,2.0954379523E7,13600.5933531,0.0,-283.601631422,1528.24594644,0.0,0.0,0.411923992712,282.60965268,28737.6113279,3.3799285549E-6,0.0,32.110410814860955,0.0,0.0,-0.0371882397055,0.0,0.0,0.0,1000.25694932,9.32744510876E-4,666.595369717,416.32810069,-0.0,0.0512896738664,-0.73309058636,0.0,0.0,0.0,0.283214906127,37.4272635749
9.0,2.0954351006E7,13753.4181006,0.0,-286.738516896,1528.24900976,0.0,0.0,0.421179777277,285.735386937,28709.1940618,3.49382444769E-6,0.0,32.110498048853934,0.0,0.0,-0.0376061610146,0.0,0.0,0.0,1000.37834611,9.33708508154E-4,667.446280739,416.42916264,-0.0,0.0518942280763,-0.750130432695,0.0,0.0,0.0,0.286297060371,38.2951401509
9.1,2.09543221754E7,13906.2431563,0.0,-289.873696488,1528.25211016,0.0,0.0,0.430539989836,288.859415129,28680.4643074,3.61026559531E-6,0.0,32.11058624245732,0.0,0.0,-0.038024084869,0.0,0.0,0.0,1000.50106318,9.34683883255E-4,668.307444972,416.531336189,-0.0,0.0524998282371,-0.767383475326,0.0,0.0,0.0,0.289376549851,39.1738752754
9.2,2.09542930313E7,14059.0685239,0.0,-293.007148936,1528.25524775,0.0,0.0,0.440004671547,291.981715994,28651.4222364,3.72928056609E-6,0.0,32.110675395171164,0.0,0.0,-0.0384420112972,0.0,0.0,0.0,1000.62509934,9.3567065629E-4,669.178887405,416.634620737,-0.0,0.0531064832977,-0.784850457811,0.0,0.0,0.0,0.292453336938,40.0635068123
9.3,2.0954263574E7,14211.8942071,0.0,-296.138852905,1528.25842263,0.0,0.0,0.449573863634,295.102268193,28622.0680225,3.85089793974E-6,0.0,32.110765506495554,0.0,0.0,-0.0388599403278,0.0,0.0,0.0,1000.75045336,9.36668847587E-4,670.060633305,416.739015674,-0.0,0.0537142021971,-0.802532130902,0.0,0.0,0.0,0.295527384224,40.964072992
9.4,2.09542338036E7,14364.7202097,0.0,-299.268786984,1528.26163491,0.0,0.0,0.459247607387,298.221050314,28592.4018418,3.97514630761E-6,0.0,32.11085657593055,0.0,0.0,-0.0392778719894,0.0,0.0,0.0,1000.87712401,9.37678477686E-4,670.952708228,416.844520384,-0.0,0.0543229938623,-0.82042925251,0.0,0.0,0.0,0.298598654511,41.8756124094
9.5,2.09542037203E7,14517.5465354,0.0,-302.396929686,1528.26488469,0.0,0.0,0.46902594416,301.338040867,28562.4238722,4.10205427252E-6,0.0,32.11094860277622,0.0,0.0,-0.0396958063106,0.0,0.0,0.0,1001.00511004,9.38699567345E-4,671.855138008,416.951134243,-0.0,0.0549328672046,-0.838542587656,0.0,0.0,0.0,0.301667110794,42.7981640219
9.6,2.09541733243E7,14670.3731879,0.0,-305.523259445,1528.26817208,0.0,0.0,0.478908915357,304.453218285,28532.134294,4.23165044889E-6,0.0,32.111041586732654,0.0,0.0,-0.04011374332,0.0,0.0,0.0,1001.13441019,9.39732137532E-4,672.767948764,417.05885662,-0.0,0.055543831117,-0.856872908436,0.0,0.0,0.0,0.304732716254,43.7317671473
9.7,2.09541426157E7,14823.200171,0.0,-308.64775462,1528.27149719,0.0,0.0,0.488896562435,307.566560924,28501.5332897,4.36396346264E-6,0.0,32.11113552699991,0.0,0.0,-0.0405316830462,0.0,0.0,0.0,1001.26502318,9.40776209433E-4,673.691166895,417.167686876,-0.0,0.0561558944721,-0.875420993977,0.0,0.0,0.0,0.307795434245,44.6764614616
9.8,2.09541115948E7,14976.0274886,0.0,-311.770393491,1528.27486014,0.0,0.0,0.498988926888,310.678047062,28470.6210437,4.49902195131E-6,0.0,32.111230423178064,0.0,0.0,-0.0409496255179,0.0,0.0,0.0,1001.39694772,9.41831804443E-4,674.624819088,417.277624364,-0.0,0.0567690661188,-0.894187630393,0.0,0.0,0.0,0.310855228286,45.6322869967
9.9,2.09540802617E7,15128.8551443,0.0,-314.891154259,1528.27826103,0.0,0.0,0.509186050253,313.787654897,28439.3977429,4.63685456409E-6,0.0,32.11132627476721,0.0,0.0,-0.0413675707637,0.0,0.0,0.0,1001.53018251,9.42898944175E-4,675.568932308,417.38866843,-0.0,0.0573833548804,-0.91317361074,0.0,0.0,0.0,0.313912062052,46.5992841382
10.0,2.09540486166E7,15281.683142,0.0,-318.010015044,1528.28169997,0.0,0.0,0.51948797409,316.895362549,28407.8635761,4.77748996169E-6,0.0,32.1114230809674,0.0,0.0,-0.0417855188124,0.0,0.0,0.0,1001.66472623,9.4397765045E-4,676.523533806,417.500818411,-0.0,0.0579987695519,-0.932379734973,0.0,0.0,0.0,0.316965899362,47.5774936232
10.1,2.09540166597E7,15434.5114856,0.0,-321.126953887,1528.28517708,0.0,0.0,0.529894739987,320.001148055,28376.0187344,4.92095681652E-6,0.0,32.111520841478715,0.0,0.0,-0.0422034696924,0.0,0.0,0.0,1001.80057755,9.45067945305E-4,677.488651116,417.614073639,-0.0,0.0586153188979,-0.951806809899,0.0,0.0,0.0,0.320016704175,48.5669565376
10.2,2.09539843913E7,15587.3401787,0.0,-324.241948748,1528.28869247,0.0,0.0,0.540406389544,323.104989374,28343.8634113,5.06728381259E-6,0.0,32.11161955550124,0.0,0.0,-0.0426214234327,0.0,0.0,0.0,1001.93773512,9.46169850988E-4,678.464312057,417.728433435,-0.0,0.0592330116505,-0.971455649131,0.0,0.0,0.0,0.32306444058,49.5677143144
10.3,2.09539518114E7,15740.1692254,0.0,-327.354977504,1528.29224625,0.0,0.0,0.551022964369,326.20686438,28311.3978021,5.2164996455E-6,0.0,32.11171922263506,0.0,0.0,-0.0430393800617,0.0,0.0,0.0,1002.0761976,9.47283389958E-4,679.450544727,417.843897115,-0.0,0.0598518565066,-0.991327073039,0.0,0.0,0.0,0.326109072791,50.5798087304
10.4,2.09539189204E7,15892.9986293,0.0,-330.46601795,1528.29583855,0.0,0.0,0.561744506073,329.306750867,28278.6221047,5.36863302254E-6,0.0,32.11181984208024,0.0,0.0,-0.0434573396083,0.0,0.0,0.0,1002.2159636,9.48408584886E-4,680.447377513,417.960463986,-0.0,0.0604718621265,-1.0114219087,0.0,0.0,0.0,0.329150565135,51.6032819045
10.5,2.09538857183E7,16045.8283944,0.0,-333.5750478,1528.29946947,0.0,0.0,0.572571056258,332.404626545,28245.536519,5.52371266267E-6,0.0,32.11192141343686,0.0,0.0,-0.0438753021012,0.0,0.0,0.0,1002.35703174,9.49545458656E-4,681.454839084,418.078133346,-0.0,0.0610930371317,-1.03174098986,0.0,0.0,0.0,0.332188882052,52.6381762946
10.6,2.09538522054E7,16198.6585245,0.0,-336.682044681,1528.30313914,0.0,0.0,0.583502656509,335.50046904,28212.1412471,5.68176729641E-6,0.0,32.112023935905015,0.0,0.0,-0.044293267569,0.0,0.0,0.0,1002.49940062,9.50694034359E-4,682.472958393,418.196904488,-0.0,0.0617153901024,-1.05228515686,0.0,0.0,0.0,0.335223988084,53.6845346955
10.7,2.09538183819E7,16351.4890235,0.0,-339.786986137,1528.30684766,0.0,0.0,0.594539348386,338.594255895,28178.4364937,5.84282566591E-6,0.0,32.11212740898476,0.0,0.0,-0.0447112360406,0.0,0.0,0.0,1002.64306884,9.51854335299E-4,683.501764675,418.316776694,-0.0,0.0623389295763,-1.07305525661,0.0,0.0,0.0,0.338255847872,54.7424002359
10.8,2.09537842481E7,16504.3198953,0.0,-342.889849628,1528.31059517,0.0,0.0,0.60568117342,341.685964565,28144.4224652,6.00691652505E-6,0.0,32.112231832176214,0.0,0.0,-0.0451292075447,0.0,0.0,0.0,1002.78803495,9.53026384989E-4,684.541287453,418.43774924,-0.0,0.0629636640464,-1.09405214253,0.0,0.0,0.0,0.34128442615,55.8118163758
10.9,2.0953749804E7,16657.1511438,0.0,-345.990612526,1528.31438178,0.0,0.0,0.616928173097,344.775572422,28110.0993708,6.17406863923E-6,0.0,32.11233720457942,0.0,0.0,-0.0455471821101,0.0,0.0,0.0,1002.93429753,9.54210207153E-4,685.591556533,418.559821394,-0.0,0.063589601959,-1.11527667447,0.0,0.0,0.0,0.344309687739,56.892826904
11.0,2.095371505E7,16809.982773,0.0,-349.089252119,1528.3182076,0.0,0.0,0.628280388852,347.863056751,28075.4674215,6.34431078549E-6,0.0,32.11244352569448,0.0,0.0,-0.0459651597654,0.0,0.0,0.0,1003.08185512,9.55405825722E-4,686.652602003,418.682992415,-0.0,0.0642167517124,-1.13672971871,0.0,0.0,0.0,0.347331597542,57.9854759352
11.1,2.09536799863E7,16962.8147866,0.0,-352.185745606,1528.32207277,0.0,0.0,0.639737862063,350.94839475,28040.526831,6.51767175253E-6,0.0,32.112550794921496,0.0,0.0,-0.0463831405396,0.0,0.0,0.0,1003.23070625,9.56613264836E-4,687.724454239,418.807261556,-0.0,0.0648451216545,-1.15841214783,0.0,0.0,0.0,0.350350120543,59.089807907
11.2,2.0953644613E7,17115.6471888,0.0,-355.2800701,1528.3259774,0.0,0.0,0.651300634037,354.031563528,28005.2778149,6.69418034056E-6,0.0,32.112659011660526,0.0,0.0,-0.0468011244614,0.0,0.0,0.0,1003.38084944,9.57832548846E-4,688.8071439,418.932628059,-0.0,0.0654747200817,-1.18032484075,0.0,0.0,0.0,0.353365221797,60.2058675775
11.3,2.09536089303E7,17268.4799834,0.0,-358.372202624,1528.32992161,0.0,0.0,0.662968746002,357.112540107,27969.7205913,6.87386536139E-6,0.0,32.11276817511167,0.0,0.0,-0.0472191115597,0.0,0.0,0.0,1003.53228319,9.59063702307E-4,689.90070193,419.05909116,-0.0,0.0661055552366,-1.20246868258,0.0,0.0,0.0,0.35637686643,61.3337000217
11.4,2.09535729386E7,17421.3131745,0.0,-361.462120114,1528.33390554,0.0,0.0,0.674742239097,360.19130142,27933.8553807,7.05675563832E-6,0.0,32.112878284575,0.0,0.0,-0.0476371018632,0.0,0.0,0.0,1003.68500599,9.60306749985E-4,691.005159557,419.186650087,-0.0,0.0667376353069,-1.22484456462,0.0,0.0,0.0,0.359385019633,62.4733506293
11.5,2.0953536638E7,17574.1467659,0.0,-364.549799415,1528.3379293,0.0,0.0,0.686621154362,363.267824311,27897.6824057,7.24288000628E-6,0.0,32.11298933955062,0.0,0.0,-0.0480550954008,0.0,0.0,0.0,1003.83901633,9.61561716851E-4,692.120548296,419.315304058,-0.0,0.0673709684235,-1.24745338426,0.0,0.0,0.0,0.362389646659,63.624865101
11.6,2.09535000287E7,17726.9807617,0.0,-367.635217283,1528.34199302,0.0,0.0,0.698605532729,366.342085532,27861.2018913,7.43226731162E-6,0.0,32.11310133933861,0.0,0.0,-0.0484730922013,0.0,0.0,0.0,1003.99431267,9.62828628083E-4,693.246899944,419.445052286,-0.0,0.0680055626587,-1.27029604497,0.0,0.0,0.0,0.365390712822,64.7882894458
11.7,2.0953463111E7,17879.8151658,0.0,-370.718350382,1528.34609682,0.0,0.0,0.71069541501,369.414061747,27824.4140647,7.62494641219E-6,0.0,32.11321428313907,0.0,0.0,-0.0488910922936,0.0,0.0,0.0,1004.15089345,9.64107509066E-4,694.384246586,419.575893972,-0.0,0.068641426025,-1.29337345619,0.0,0.0,0.0,0.368388183488,65.9636699779
11.8,2.09534258851E7,18032.6499824,0.0,-373.799175286,1528.35024084,0.0,0.0,0.722890841887,372.483729526,27787.3191558,7.82094617723E-6,0.0,32.11332817035207,0.0,0.0,-0.0493090957066,0.0,0.0,0.0,1004.30875711,9.6539838539E-4,695.532620591,419.707828312,-0.0,0.0692785664732,-1.31668653329,0.0,0.0,0.0,0.371382024077,67.1510533132
11.9,2.09533883512E7,18185.4852153,0.0,-376.877668476,1528.35442519,0.0,0.0,0.735191853901,375.551065349,27749.9173966,8.02029548746E-6,0.0,32.11344300027772,0.0,0.0,-0.0497271024691,0.0,0.0,0.0,1004.46790207,9.66701282851E-4,696.692054612,419.840854492,-0.0,0.0699169918911,-1.34023619751,0.0,0.0,0.0,0.374372200058,68.3504863664
12.0,2.09533505097E7,18338.3208688,0.0,-379.953806342,1528.35865002,0.0,0.0,0.74759849144,378.616045603,27712.2090213,8.22302323486E-6,0.0,32.11355877211609,0.0,0.0,-0.0501451126101,0.0,0.0,0.0,1004.62832674,9.68016227447E-4,697.862581588,419.97497169,-0.0,0.0705567101015,-1.36402337589,0.0,0.0,0.0,0.377358676947,69.5620163473
12.1,2.09533123606E7,18491.1569467,0.0,-383.027565179,1528.36291544,0.0,0.0,0.76011079473,381.678646581,27674.1942668,8.42915832278E-6,0.0,32.11367548536729,0.0,0.0,-0.0505631261584,0.0,0.0,0.0,1004.79002952,9.69343245383E-4,699.044234743,420.110179076,-0.0,0.0711977288614,-1.38804900119,0.0,0.0,0.0,0.380341420302,70.785690758
12.2,2.09532739042E7,18643.9934532,0.0,-386.098921189,1528.36722159,0.0,0.0,0.772728803825,384.738844484,27635.8733721,8.63872966592E-6,0.0,32.11379313903141,0.0,0.0,-0.050981143143,0.0,0.0,0.0,1004.95300878,9.70682363069E-4,700.237047588,420.246475812,-0.0,0.0718400558598,-1.41231401185,0.0,0.0,0.0,0.383320395724,72.021557389
12.3,2.09532351409E7,18796.8303924,0.0,-389.167850482,1528.3715686,0.0,0.0,0.785452558591,387.796615418,27597.2465788,8.85176619013E-6,0.0,32.11391173260853,0.0,0.0,-0.0513991635927,0.0,0.0,0.0,1005.1172629,9.72033607114E-4,701.441053918,420.383861049,-0.0,0.0724836987167,-1.43681935191,0.0,0.0,0.0,0.386295568852,73.2696643159
12.4,2.09531960707E7,18949.6677683,0.0,-392.23432907,1528.37595659,0.0,0.0,0.798282098697,390.851935393,27558.3141307,9.06829683246E-6,0.0,32.11403126529876,0.0,0.0,-0.0518171875366,0.0,0.0,0.0,1005.28279022,9.73397004334E-4,702.656287814,420.522333934,-0.0,0.0731286649812,-1.46156597092,0.0,0.0,0.0,0.389266905361,74.5300598961
12.5,2.09531566941E7,19102.5055851,0.0,-395.298332871,1528.38038571,0.0,0.0,0.811217463602,393.904780326,27519.0762742,9.2883505411E-6,0.0,32.11415173630219,0.0,0.0,-0.0522352150035,0.0,0.0,0.0,1005.44958908,9.74772581745E-4,703.882783641,420.661893602,-0.0,0.0737749621303,-1.48655482391,0.0,0.0,0.0,0.39223437096,75.8027927646
12.6,2.09531170112E7,19255.3438468,0.0,-398.359837708,1528.38485609,0.0,0.0,0.824258692547,396.955126036,27479.5332579,9.51195627532E-6,0.0,32.11427314491891,0.0,0.0,-0.0526532460225,0.0,0.0,0.0,1005.61765781,9.76160366564E-4,705.120576051,420.802539181,-0.0,0.0744225975674,-1.51178687128,0.0,0.0,0.0,0.395197931392,77.0879118311
12.7,2.09530770222E7,19408.1825577,0.0,-401.418819306,1528.38936785,0.0,0.0,0.837405824536,400.002948248,27439.6853331,9.73914300539E-6,0.0,32.11439549034903,0.0,0.0,-0.0530712806225,0.0,0.0,0.0,1005.78699472,9.77560386212E-4,706.36969998,420.944269789,-0.0,0.0750715786207,-1.53726307876,0.0,0.0,0.0,0.39815755243,78.3854662757
12.8,2.09530367275E7,19561.0217218,0.0,-404.475253295,1528.39392114,0.0,0.0,0.850658898329,403.048222588,27399.5327532,9.96993971251E-6,0.0,32.114518771992635,0.0,0.0,-0.0534893188324,0.0,0.0,0.0,1005.95759811,9.78972668308E-4,707.630190652,421.087084538,-0.0,0.0757219125418,-1.56298441729,0.0,0.0,0.0,0.401113199872,79.6955055456
12.9,2.09529961272E7,19713.8613433,0.0,-407.529115206,1528.39851608,0.0,0.0,0.864017952429,406.090924585,27359.0757743,1.02043753888E-5,0.0,32.11464298884982,0.0,0.0,-0.0539073606813,0.0,0.0,0.0,1006.12946625,9.80397240672E-4,708.902083573,421.230982529,-0.0,0.0763736065044,-1.58895186302,0.0,0.0,0.0,0.404064839547,81.0180793506
13.0,2.09529552217E7,19866.7014264,0.0,-410.580380472,1528.40315282,0.0,0.0,0.877483025065,409.13102967,27318.3146549,1.04424790372E-5,0.0,32.1147681403207,0.0,0.0,-0.0543254061982,0.0,0.0,0.0,1006.30259743,9.81834131323E-4,710.185414538,421.375962855,-0.0,0.0770266676027,-1.61516639715,0.0,0.0,0.0,0.407012437307,82.3532376602
13.1,2.09529140112E7,20019.5419752,0.0,-413.629024429,1528.40783149,0.0,0.0,0.891054154188,412.168513178,27277.2496558,1.06842796714E-5,0.0,32.11489422550537,0.0,0.0,-0.054743455412,0.0,0.0,0.0,1006.47698989,9.8328336848E-4,711.480219625,421.522024602,-0.0,0.07768110285,-1.64162900592,0.0,0.0,0.0,0.409955959027,83.7010306985
13.2,2.0952872496E7,20172.3829941,0.0,-416.675022313,1528.41255223,0.0,0.0,0.904731377447,415.20335034,27235.8810404,1.09298063158E-5,0.0,32.11502124370391,0.0,0.0,-0.0551615083519,0.0,0.0,0.0,1006.65264187,9.8474498056E-4,712.786535199,421.669166845,-0.0,0.0783369191772,-1.66834068046,0.0,0.0,0.0,0.412895370604,85.0615089413
13.3,2.09528306763E7,20325.2244871,0.0,-419.718349261,1528.41731518,0.0,0.0,0.918514732184,418.235516293,27194.2090747,1.11790880051E-5,0.0,32.11514919401644,0.0,0.0,-0.0555795650468,0.0,0.0,0.0,1006.82955161,9.86218996177E-4,714.10439791,421.817388651,-0.0,0.0789941234315,-1.6953024168,0.0,0.0,0.0,0.415830637957,86.4347231111
13.4,2.09527885524E7,20478.0664585,0.0,-422.758980309,1528.42212047,0.0,0.0,0.932404255418,421.26498607,27152.2340271,1.14321537849E-5,0.0,32.115278075743056,0.0,0.0,-0.0559976255258,0.0,0.0,0.0,1007.00771731,9.87705444142E-4,715.433844693,421.966689079,-0.0,0.079652722375,-1.72251521571,0.0,0.0,0.0,0.418761727023,87.8207241735
13.5,2.09527461246E7,20630.9089126,0.0,-425.796890394,1528.42696824,0.0,0.0,0.946399983831,424.291734606,27109.9561682,1.16890327109E-5,0.0,32.11540788798387,0.0,0.0,-0.056415689818,0.0,0.0,0.0,1007.18713718,9.89204353465E-4,716.774912768,422.117067178,-0.0,0.0803127226829,-1.74998008265,0.0,0.0,0.0,0.421688603754,89.2195633326
13.6,2.09527033932E7,20783.7518536,0.0,-428.832054351,1528.43185864,0.0,0.0,0.960501953754,427.315736734,27067.3757717,1.19497538493E-5,0.0,32.115538629938975,0.0,0.0,-0.0568337579523,0.0,0.0,0.0,1007.3678094,9.90715753349E-4,718.127639642,422.268521988,-0.0,0.0809741309426,-1.77769802769,0.0,0.0,0.0,0.424611234124,90.6312920271
13.7,2.09526603583E7,20936.5952858,0.0,-431.864446915,1528.4367918,0.0,0.0,0.974710201157,430.336967186,27024.4931133,1.22143462766E-5,0.0,32.115670300808475,0.0,0.0,-0.057251829958,0.0,0.0,0.0,1007.54973215,9.92239673192E-4,719.492063105,422.421052543,-0.0,0.0816369536519,-1.80567006542,0.0,0.0,0.0,0.427529584119,92.0559619257
13.8,2.09526170204E7,21089.4392134,0.0,-434.894042719,1528.44176787,0.0,0.0,0.98902476163,433.355400592,26981.3084715,1.24828390791E-5,0.0,32.11580289979248,0.0,0.0,-0.057669905864,0.0,0.0,0.0,1007.73290357,9.93776142589E-4,720.868221235,422.574657863,-0.0,0.0823011972177,-1.83389721485,0.0,0.0,0.0,0.430443619738,93.4936249227
13.9,2.09525733796E7,21242.2836408,0.0,-437.920816292,1528.44678699,0.0,0.0,1.00344567037,436.371011481,26937.8221272,1.27552613534E-5,0.0,32.11593642589109,0.0,0.0,-0.0580879856995,0.0,0.0,0.0,1007.91732182,9.95325191328E-4,722.256152392,422.729336965,-0.0,0.0829668679547,-1.86238049934,0.0,0.0,0.0,0.433353306997,94.9443331335
14.0,2.09525294363E7,21395.1285722,0.0,-440.944742062,1528.4518493,0.0,0.0,1.01797296217,439.383774277,26894.0343641,1.3031642206E-5,0.0,32.11607087840442,0.0,0.0,-0.0585060694936,0.0,0.0,0.0,1008.10298503,9.96886849389E-4,723.655895223,422.885088851,-0.0,0.0836339720837,-1.89112094651,0.0,0.0,0.0,0.436258611921,96.4081388904
14.1,2.09524851907E7,21547.9740121,0.0,-443.965794354,1528.45695494,0.0,0.0,1.0326066714,442.393663303,26849.9454682,1.3312010753E-5,0.0,32.11620625643257,0.0,0.0,-0.0589241572753,0.0,0.0,0.0,1008.2898913,9.98461146945E-4,725.067488661,423.041912519,-0.0,0.0843025157304,-1.92011958812,0.0,0.0,0.0,0.439159500549,97.8850947374
14.2,2.09524406432E7,21700.8199647,0.0,-446.983947388,1528.46210405,0.0,0.0,1.04734683201,445.400652778,26805.5557281,1.35963961205E-5,0.0,32.116342558975646,0.0,0.0,-0.0593422490739,0.0,0.0,0.0,1008.47803875,0.00100004811436,726.490971922,423.199806954,-0.0,0.0849725049239,-1.94937746003,0.0,0.0,0.0,0.442055938928,99.3752534257
14.3,2.0952395794E7,21853.6664343,0.0,-449.999175283,1528.46729679,0.0,0.0,1.06219347747,448.404716817,26760.8654351,1.38848274439E-5,0.0,32.116479785433754,0.0,0.0,-0.0597603449185,0.0,0.0,0.0,1008.66742545,0.0010016477822,727.926384506,423.358771135,-0.0,0.0856439455951,-1.97889560205,0.0,0.0,0.0,0.444947893117,100.878667909
14.4,2.09523506435E7,22006.5134255,0.0,-453.011452051,1528.4725333,0.0,0.0,1.07714664081,451.40582943,26715.8748831,1.41773338682E-5,0.0,32.116617934607014,0.0,0.0,-0.0601784448381,0.0,0.0,0.0,1008.85804949,0.0010032601812,729.373766202,423.518804031,-0.0,0.0863168435758,-2.00867505788,0.0,0.0,0.0,0.447835329181,102.39539134
14.5,2.09523051919E7,22159.3609425,0.0,-456.020751601,1528.47781372,0.0,0.0,1.09220635458,454.403964524,26670.5843685,1.44739445477E-5,0.0,32.11675700579553,0.0,0.0,-0.060596548862,0.0,0.0,0.0,1009.04990892,0.0010048853423,730.833157078,423.6799046,-0.0,0.0869912045966,-2.03871687502,0.0,0.0,0.0,0.450718213196,103.925477061
14.6,2.09522594394E7,22312.2089897,0.0,-459.027047735,1528.4831382,0.0,0.0,1.10737265081,457.3990959,26624.9941903,1.47746886458E-5,0.0,32.11689699809941,0.0,0.0,-0.0610146570194,0.0,0.0,0.0,1009.24300179,0.00100652329663,732.30459749,423.842071792,-0.0,0.0876670342858,-2.06902210464,0.0,0.0,0.0,0.453596511243,105.468978606
14.7,2.09522133865E7,22465.0575716,0.0,-462.030314153,1528.48850688,0.0,0.0,1.12264556106,460.391197253,26579.1046503,1.50795953351E-5,0.0,32.11703791061878,0.0,0.0,-0.0614327693393,0.0,0.0,0.0,1009.43732613,0.0010081740755,733.788128078,424.005304549,-0.0,0.088344338168,-2.09959180151,0.0,0.0,0.0,0.456470189413,107.025949688
14.8,2.09521670335E7,22617.9066925,0.0,-465.030524445,1528.49391991,0.0,0.0,1.13802511632,463.380242172,26532.9160528,1.53886937971E-5,0.0,32.11717974225374,0.0,0.0,-0.061850885851,0.0,0.0,0.0,1009.63287995,0.00100983771042,735.283789765,424.169601802,-0.0,0.0890231216625,-2.13042702387,0.0,0.0,0.0,0.459339213799,108.5964442
14.9,2.09521203805E7,22770.756357,0.0,-468.027652098,1528.49937744,0.0,0.0,1.15351134708,466.366204143,26486.4287046,1.57020132219E-5,0.0,32.117322492304396,0.0,0.0,-0.0622690065836,0.0,0.0,0.0,1009.82966126,0.00101151423306,736.791623759,424.334962473,-0.0,0.0897033900822,-2.16152883336,0.0,0.0,0.0,0.462203550503,110.180516208
15.0,2.09520734281E7,22923.6065695,0.0,-471.021670492,1528.50487962,0.0,0.0,1.16910428325,469.349056542,26439.6429156,1.60195828084E-5,0.0,32.11746615977087,0.0,0.0,-0.0626871315664,0.0,0.0,0.0,1010.02766805,0.00101320367531,738.311671551,424.501385475,-0.0,0.0903851486315,-2.1928982949,0.0,0.0,0.0,0.46506316563,111.778219942
15.1,2.09520261763E7,23076.4573344,0.0,-474.012552899,1528.5104266,0.0,0.0,1.18480395417,472.32877264,26392.5589979,1.63414317639E-5,0.0,32.117610743553286,0.0,0.0,-0.0631052608286,0.0,0.0,0.0,1010.2268983,0.00101490606922,739.843974915,424.668869711,-0.0,0.0910684024056,-2.22453647658,0.0,0.0,0.0,0.467918025292,113.389609796
15.2,2.09519786256E7,23229.3086563,0.0,-477.000272487,1528.51601852,0.0,0.0,1.20061038858,475.305325601,26345.1772665,1.66675893041E-5,0.0,32.11775624295175,0.0,0.0,-0.0635233943994,0.0,0.0,0.0,1010.42734996,0.00101662144705,741.388575912,424.837414076,-0.0,0.0917531563885,-2.25644444957,0.0,0.0,0.0,0.470768095602,115.014740321
15.3,2.09519307764E7,23382.1605397,0.0,-479.984802312,1528.52165554,0.0,0.0,1.21652361465,478.27868848,26297.4980391,1.69980846528E-5,0.0,32.11790265686636,0.0,0.0,-0.0639415323079,0.0,0.0,0.0,1010.62902098,0.0010183498412,742.945516882,425.007017454,-0.0,0.0924394154517,-2.28862328799,0.0,0.0,0.0,0.473613342679,116.653666216
15.4,2.09518826288E7,23535.0129889,0.0,-482.966115326,1528.5273378,0.0,0.0,1.23254365989,481.248834226,26249.521636,1.73329470418E-5,0.0,32.11804998439727,0.0,0.0,-0.0643596745835,0.0,0.0,0.0,1010.8319093,0.0010200912843,744.51484045,425.177678719,-0.0,0.093127184353,-2.32107406882,0.0,0.0,0.0,0.476453732645,118.306442328
15.5,2.09518341833E7,23687.8660087,0.0,-485.944184372,1528.53306546,0.0,0.0,1.24867055118,484.21573568,26201.2483804,1.76722057106E-5,0.0,32.11819822454457,0.0,0.0,-0.0647778212554,0.0,0.0,0.0,1011.03601283,0.00102184580914,746.096589523,425.349396737,-0.0,0.0938164677345,-2.35379787176,0.0,0.0,0.0,0.479289231624,119.973123642
15.6,2.09517854401E7,23840.7196036,0.0,-488.918982185,1528.53883867,0.0,0.0,1.26490431477,487.179365575,26152.6785979,1.80158899066E-5,0.0,32.11834737620839,0.0,0.0,-0.0651959723529,0.0,0.0,0.0,1011.24132948,0.00102361344869,747.690807292,425.522170364,-0.0,0.0945072701217,-2.38679577918,0.0,0.0,0.0,0.482119805744,121.653765276
15.7,2.09517363996E7,23993.573778,0.0,-491.89048139,1528.54465758,0.0,0.0,1.28124497622,490.139696534,26103.8126172,1.83640288844E-5,0.0,32.11849743858884,0.0,0.0,-0.0656141279051,0.0,0.0,0.0,1011.44785713,0.00102539423609,749.297537231,425.695998446,-0.0,0.0951995959217,-2.42006887591,0.0,0.0,0.0,0.484945421135,123.348422479
15.8,2.09516870621E7,24146.4285366,0.0,-494.858654506,1528.55052233,0.0,0.0,1.29769256038,493.096701072,26054.6507695,1.87166519062E-5,0.0,32.11864841068605,0.0,0.0,-0.0660322879413,0.0,0.0,0.0,1011.65559367,0.00102718820469,750.916823092,425.87087982,-0.0,0.0958934494216,-2.45361824922,0.0,0.0,0.0,0.487766043928,125.057150619
15.9,2.09516374279E7,24299.283884,0.0,-497.823473941,1528.55643309,0.0,0.0,1.31424709144,496.050351596,26005.1933888,1.90737882408E-5,0.0,32.11880029130013,0.0,0.0,-0.0664504524909,0.0,0.0,0.0,1011.86453696,0.001028995388,752.548708912,426.046813311,-0.0,0.0965888347874,-2.48744498864,0.0,0.0,0.0,0.490581640257,126.780005182
16.0,2.09515874975E7,24452.1398248,0.0,-500.784911995,1528.56239001,0.0,0.0,1.33090859284,499.000620402,25955.4408119,1.94354671645E-5,0.0,32.11895307953121,0.0,0.0,-0.066868621583,0.0,0.0,0.0,1012.07468484,0.00103081581969,754.19323901,426.223797737,-0.0,0.0972857560623,-2.52155018587,0.0,0.0,0.0,0.493392176257,128.517041762
16.1,2.09515372711E7,24604.9963635,0.0,-503.742940857,1528.56839323,0.0,0.0,1.34767708727,501.947479679,25905.3933784,1.98017179598E-5,0.0,32.119106774379404,0.0,0.0,-0.067286795247,0.0,0.0,0.0,1012.28603515,0.00103264953363,755.850457984,426.401831905,-0.0,0.0979842171652,-2.55593493462,0.0,0.0,0.0,0.496197618065,130.268316059
16.2,2.0951486749E7,24757.853505,0.0,-506.697532608,1528.57444292,0.0,0.0,1.36455259668,504.890901505,25855.0514306,2.0172569916E-5,0.0,32.11926137484485,0.0,0.0,-0.0677049735122,0.0,0.0,0.0,1012.4985857,0.00103449656387,757.520410716,426.580914612,-0.0,0.0986842218891,-2.59060033057,0.0,0.0,0.0,0.49899793182,132.03388387
16.3,2.09514359317E7,24910.7112537,0.0,-509.648659219,1528.58053923,0.0,0.0,1.38153514224,507.830857849,25804.4153136,2.05480523287E-5,0.0,32.119416879727645,0.0,0.0,-0.0681231564078,0.0,0.0,0.0,1012.71233431,0.00103635694462,759.203142365,426.761044646,-0.0,0.0993857738999,-2.62554747114,0.0,0.0,0.0,0.50179308366,133.813801081
16.4,2.09513848194E7,25063.5696144,0.0,-512.596292551,1528.5866823,0.0,0.0,1.39862474432,510.767320567,25753.4853754,2.09281944993E-5,0.0,32.11957328812794,0.0,0.0,-0.0685413439632,0.0,0.0,0.0,1012.92727877,0.00103823071025,760.898698373,426.942220784,-0.0,0.100088876735,-2.66077745545,0.0,0.0,0.0,0.504583039727,135.608123667
16.5,2.09513334125E7,25216.4285917,0.0,-515.540404354,1528.59287231,0.0,0.0,1.4158214225,513.70026141,25702.2619669,2.13130257354E-5,0.0,32.119730599045845,0.0,0.0,-0.0689595362077,0.0,0.0,0.0,1013.14341684,0.00104011789535,762.607124461,427.124441793,-0.0,0.1007935338,-2.69629138416,0.0,0.0,0.0,0.507367766162,137.416907679
16.6,2.09512817114E7,25369.2881904,0.0,-518.48096627,1528.59910939,0.0,0.0,1.4331251955,516.629652015,25650.7454415,2.170257535E-5,0.0,32.11988881118148,0.0,0.0,-0.0693777331705,0.0,0.0,0.0,1013.36074631,0.00104201853463,764.328466629,427.307706431,-0.0,0.101499748372,-2.73209035932,0.0,0.0,0.0,0.510147229107,139.240209238
16.7,2.09512297165E7,25522.1484151,0.0,-521.417949827,1528.60539371,0.0,0.0,1.4505360812,519.55546391,25598.9361558,2.20968726618E-5,0.0,32.120047923635,0.0,0.0,-0.0697959348811,0.0,0.0,0.0,1013.5792649,0.00104393266299,766.062771158,427.492013445,-0.0,0.10220752359,-2.76817548427,0.0,0.0,0.0,0.512921394707,141.078084535
16.8,2.0951177428E7,25675.0092707,0.0,-524.351326446,1528.61172542,0.0,0.0,1.46805409664,522.477668512,25546.834469,2.24959469942E-5,0.0,32.120207935306496,0.0,0.0,-0.0702141413686,0.0,0.0,0.0,1013.79897036,0.00104586031552,767.810084606,427.677361573,-0.0,0.102916862463,-2.80454786352,0.0,0.0,0.0,0.515690229105,142.930589816
16.9,2.09511248463E7,25827.8707618,0.0,-527.281067435,1528.61810468,0.0,0.0,1.48567925793,525.396237128,25494.4407433,2.28998276761E-5,0.0,32.12036884499612,0.0,0.0,-0.0706323526625,0.0,0.0,0.0,1014.01986041,0.00104780152745,769.57045381,427.863749542,-0.0,0.103627767861,-2.84120860257,0.0,0.0,0.0,0.518453698447,144.797781378
17.0,2.09510719719E7,25980.7328932,0.0,-530.207143994,1528.62453164,0.0,0.0,1.50341158032,528.311140953,25441.7553437,2.33085440407E-5,0.0,32.12053065180398,0.0,0.0,-0.0710505687921,0.0,0.0,0.0,1014.24193276,0.00104975633418,771.343925885,428.051176069,-0.0,0.104340242515,-2.8781588078,0.0,0.0,0.0,0.52121176888,146.679715566
17.1,2.0951018805E7,26133.5956697,0.0,-533.129527209,1528.63100646,0.0,0.0,1.52125107811,531.222351073,25388.7786382,2.37221254258E-5,0.0,32.12069335443024,0.0,0.0,-0.0714687897867,0.0,0.0,0.0,1014.46518509,0.0010517247713,773.130548224,428.23963986,-0.0,0.10505428902,-2.91539958633,0.0,0.0,0.0,0.523964406551,148.576448759
17.2,2.09509653461E7,26286.4590961,0.0,-536.048188057,1528.6375293,0.0,0.0,1.53919776467,534.129838462,25335.5109976,2.41406011734E-5,0.0,32.12085695177499,0.0,0.0,-0.0718870156757,0.0,0.0,0.0,1014.68961508,0.00105370687454,774.930368497,428.429139613,-0.0,0.105769909828,-2.95293204591,0.0,0.0,0.0,0.52671157761,150.48803737
17.3,2.09509115955E7,26439.3231772,0.0,-538.963097404,1528.64410032,0.0,0.0,1.5572516524,537.033573984,25281.9527956,2.45640006296E-5,0.0,32.121021442838384,0.0,0.0,-0.0723052464884,0.0,0.0,0.0,1014.9152204,0.0010557026798,776.743434652,428.619674013,-0.0,0.106487107248,-2.99075729473,0.0,0.0,0.0,0.529453248206,152.414537834
17.4,2.09508575536E7,26592.1879178,0.0,-541.874226004,1528.65071966,0.0,0.0,1.57541275273,539.933528391,25228.1044088,2.49923531438E-5,0.0,32.12118682642054,0.0,0.0,-0.0727234822541,0.0,0.0,0.0,1015.1419987,0.00105771222316,778.569794909,428.811241736,-0.0,0.107205883446,-3.02887644129,0.0,0.0,0.0,0.532189384491,154.356006602
17.5,2.09508032208E7,26745.0533228,0.0,-544.781544502,1528.65738749,0.0,0.0,1.59368107609,542.829672324,25173.9662169,2.54256880691E-5,0.0,32.1213531013216,0.0,0.0,-0.0731417230023,0.0,0.0,0.0,1015.3699476,0.00105973554083,780.409497769,429.003841449,-0.0,0.107926240441,-3.06729059428,0.0,0.0,0.0,0.534919952618,156.312500134
17.6,2.09507485974E7,26897.9193969,0.0,-547.68502343,1528.66410397,0.0,0.0,1.61205663188,545.721976313,25119.5386023,2.58640347617E-5,0.0,32.121520266441706,0.0,0.0,-0.0735599687622,0.0,0.0,0.0,1015.59906474,0.00106177266922,782.262592005,429.197471806,-0.0,0.108648180107,-3.10600086242,0.0,0.0,0.0,0.537644918742,158.284074892
17.7,2.09506936839E7,27050.7861452,0.0,-550.58463321,1528.67086925,0.0,0.0,1.63053942847,548.610410779,25064.8219506,2.63074225807E-5,0.0,32.121688320580965,0.0,0.0,-0.0739782195632,0.0,0.0,0.0,1015.82934772,0.00106382364487,784.129126666,429.392131453,-0.0,0.109371704168,-3.14500835431,0.0,0.0,0.0,0.54036424902,160.270787331
17.8,2.09506384806E7,27203.6535724,0.0,-553.480344154,1528.6776835,0.0,0.0,1.64912947317,551.494946029,25009.8166502,2.67558808876E-5,0.0,32.12185726263954,0.0,0.0,-0.0743964754348,0.0,0.0,0.0,1016.06079413,0.00106588850449,786.009151075,429.587819022,-0.0,0.110096814198,-3.18431417827,0.0,0.0,0.0,0.543077909611,162.272693892
17.9,2.0950582988E7,27356.5216835,0.0,-556.37212646,1528.68454686,0.0,0.0,1.66782677221,554.375552262,24954.5230924,2.72094390463E-5,0.0,32.12202709131754,0.0,0.0,-0.0748147364061,0.0,0.0,0.0,1016.29340155,0.00106796728494,787.902714828,429.784533139,-0.0,0.110823511618,-3.22391944222,0.0,0.0,0.0,0.545785866677,164.289850998
