time,eiPosition_ft_X,eiPosition_ft_Y,eiPosition_ft_Z,gePosition_ft_X,gePosition_ft_Y,gePosition_ft_Z,eiVelocity_ft_s_X,eiVelocity_ft_s_Y,eiVelocity_ft_s_Z,feVelocity_ft_s_X,feVelocity_ft_s_Y,feVelocity_ft_s_Z,altitudeMsl_ft,longitude_deg,latitude_deg,localGravity_ft_s2,eulerAngle_deg_Yaw,eulerAngle_deg_Pitch,eulerAngle_deg_Roll,bodyAngularRateWrtEi_deg_s_Roll,bodyAngularRateWrtEi_deg_s_Pitch,bodyAngularRateWrtEi_deg_s_Yaw,altitudeRateWrtMsl_ft_min,speedOfSound_ft_s,airDensity_slug_ft3,ambientPressure_lbf_ft2,ambientTemperature_dgR,aero_bodyForce_lbf_X,aero_bodyForce_lbf_Y,aero_bodyForce_lbf_Z,aero_bodyMoment_ftlbf_L,aero_bodyMoment_ftlbf_M,aero_bodyMoment_ftlbf_N,mach,dynamicPressure_lbf_ft2,trueAirspeed_nmi_h,feVelocity_ft_s_Z
0.0,2.0955646325459316E7,0.0,0.0,2.0955646325459316E7,0.0,0.0,0.0,1528.1098290457676,0.0,0.0,0.0,0.0,30000.0,0.0,0.0,32.10653595191867,0.0,-0.0,0.0,0.0,0.0,6.718855644083851E-19,-0.0,994.8487845641213,8.906867503799385E-4,629.6672472120785,411.8388730822483,1.0708672765824572E-18,0.003497717961874515,-0.0,-0.0,0.0,-0.0,0.020103557035326958,0.17813734710216522,11.849676132202148,0.0
0.009999999776482582,2.0955646323853996E7,15.281098465009267,9.835137586666362E-20,2.0955646323859572E7,1.7571949761929773E-7,9.835137586666364E-20,-0.3210650909479887,1528.1098639118698,1.967026682071394E-17,7.893215654712031E-20,3.5216475683182456E-5,0.3199507756490618,29999.998400256038,4.804426184785206E-13,2.6890694084909427E-25,32.1065359568286,-7.858084153985559E-42,2.155227684594661E-35,-4.178074180284666E-5,0.0,0.0,6.718855644083851E-19,-19.19704653894371,994.8487914348453,8.90686802738856E-4,629.6672929243368,411.83887877081384,1.0756599612530013E-18,0.0034981534321403777,-5.595939219021736E-5,-0.0,0.0,-0.0,0.02010609395802021,0.17818231880664825,11.851171493530273,0.3199507756490618
0.019999999552965164,2.0955646319038015E7,30.562197277507405,3.934050014812912E-19,2.09556463190603E7,7.059353528404699E-7,3.934050014812912E-19,-0.6421296110389774,1528.1098985479753,3.934042933200725E-17,1.5779496329080322E-19,7.090370265696177E-5,0.6399009803642475,29999.993600983173,1.9301297469431276E-12,1.075626391141853E-24,32.10653597155848,-6.286467396105882E-41,8.620910738376925E-35,-8.356148457493783E-5,0.0,0.0,6.718855644083851E-19,-38.39405882185485,994.8488120471932,8.906869598169637E-4,629.6674300622991,411.83889583665615,1.0796134711139927E-18,0.0034994839675188713,-1.1196144906896812E-4,-0.0,0.0,0.0,0.02011377364397049,0.17831848561763763,11.855697631835938,0.6399009803642475
0.029999999329447746,2.0955646311011393E7,45.84329643527683,8.851599474712946E-19,2.095564631106154E7,1.5954374319449016E-6,8.851599474712946E-19,-0.9631935709204573,1528.1099329677331,5.901056917045037E-17,2.366694048543922E-19,1.0707532699630002E-4,0.9598506247926611,29999.985602222383,4.362157576565949E-12,2.420155810577705E-24,32.10653599610821,-3.771880481807923E-40,3.4483642953496235E-34,-1.253422283293697E-4,0.0,0.0,6.718855644083851E-19,-57.59103748755967,994.8488464009878,8.906872216129629E-4,629.6676586248426,411.83892427962945,1.0940501273677297E-18,0.003501708530746183,-1.6804907768828495E-4,-0.0,0.0,0.0,0.0201265886425972,0.17854583263397217,11.863251686096191,0.9598506247926611
0.03999999910593033,2.095564629977414E7,61.1243959361987,1.5736161753232925E-18,2.095564629986329E7,2.8491143524433937E-6,1.5736161753232928E-18,-1.2842569696206263,1528.1099671800757,7.868066539717826E-17,3.1553460190436503E-19,1.4374027950117644E-4,1.2797997079620795,29999.97440397367,7.78989229963382E-12,4.3024950950871644E-24,32.10653603047777,1.2132853246536767E-20,1.769483443451909E-26,-1.6712297307950843E-4,0.0,0.0,6.718855644083851E-19,-76.78798247772477,994.8488944962281,8.906875881269249E-4,629.6679786120486,411.83896409973397,1.0929820931157764E-18,0.003504825405388681,-2.2426507348813628E-4,-0.0,0.0,-0.0,0.020144527778029442,0.17886437475681305,11.87382698059082,1.2797997079620795
0.05000000074505806,2.0955646285326254E7,76.40549577824349,2.458773168693681E-18,2.0955646285465542E7,4.471943981343429E-6,2.458773168693681E-18,-1.6053198057404912,1528.1100011939143,9.835072068191797E-17,3.943933098591405E-19,1.8090747050824479E-4,1.599748228473056,29999.960006225854,1.2226944130452357E-11,6.722642834636214E-24,32.10653607466721,-7.543761142604819E-39,4.1380371544151486E-33,-2.089037188389643E-4,0.0,0.0,6.718855644083851E-19,-95.98489370838335,994.84895633296,8.906880593593146E-4,629.6683900243497,411.8390152970094,1.0908229090893186E-18,0.003508832200708658,-2.806520683194342E-4,-0.0,0.0,0.0,0.020167581737041473,0.17927411198616028,11.887415885925293,1.599748228473056
0.05999999865889549,2.0955646267667744E7,91.68659595947058,3.540630035720914E-18,2.095564626786833E7,6.4689931633665765E-6,3.540630035720915E-18,-1.9263820774557716,1528.1100350181343,1.180206578253124E-16,4.731684410963254E-19,2.1858578238750882E-4,1.919696184500825,29999.942409012467,1.768716656227427E-11,9.680596592962923E-24,32.106536128676424,-2.4265706493041274E-20,-5.3084500436539E-26,-2.506844656215907E-4,0.0,0.0,6.718855644083851E-19,-115.18177107004949,994.8490319110371,8.906886353091614E-4,629.6688928609324,411.8390778713364,1.1082862740205211E-18,0.0035137258606975116,-3.3725247737673505E-4,-0.0,0.0,-0.0,0.02019573003053665,0.17977502942085266,11.904007911682129,1.919696184500825
0.07000000029802322,2.0955646246798616E7,106.96769647802809,4.819186573789892E-18,2.095564624707163E7,8.845417326597271E-6,4.819186573789893E-18,-2.247443782519327,1528.1100686615864,1.3769061155254612E-16,5.519948584298286E-19,2.567840654496029E-4,2.2396435737977276,29999.92161231488,2.4184655289107915E-11,1.3176355818797885E-23,32.10653619250547,-1.4081687806448647E-38,5.5173828725447284E-33,-2.9246521344148356E-4,0.0,0.0,6.718855644083851E-19,-134.37861442786365,994.8491212305361,8.906893159772317E-4,629.6694871225075,411.8391518227815,1.1349680476232541E-18,0.003519502675573863,-3.941084472738257E-4,-0.0,0.0,-0.0,0.020228950306773186,0.1803671419620514,11.923590660095215,2.2396435737977276
0.07999999821186066,2.0955646222718872E7,122.2487973321524,6.294442066943743E-18,2.0955646223075457E7,1.1606460304847133E-5,6.2944420669437445E-18,-2.5685049182640953,1528.1101021330803,1.5736050022115934E-16,6.307910827440621E-19,2.9551112748660974E-4,2.5595903936961517,29999.897616140544,3.1733747720058036E-11,1.7209918557813416E-23,32.106536266154315,-3.2186715380409134E-38,1.1034765745078456E-32,-3.3424596231297995E-4,0.0,0.0,6.718855644083851E-19,-153.5754236217691,994.8492242914214,8.906901013634654E-4,629.6701728090718,411.83923715131806,1.1478797444929689E-18,0.0035261582956076726,-4.512618055202822E-4,-0.0,0.0,-0.0,0.020267220214009285,0.18105043470859528,11.946149826049805,2.5595903936961517
0.09000000357627869,2.095564619542852E7,137.52989852016785,7.966396558620854E-18,2.095564619587982E7,1.475745372658821E-5,7.966396558620854E-18,-2.8895654816065317,1528.1101354413802,1.7703042965348953E-16,7.096631252247536E-19,3.3477573104358276E-4,2.8795366411119705,29999.87042050436,4.034902130860361E-11,2.1781284932471376E-23,32.10653634962293,-3.6210055250586225E-38,1.1034765745065986E-32,-3.7602671225065766E-4,0.0,0.0,6.718855644083851E-19,-172.77219846671824,994.8493410936251,8.906909914675888E-4,629.670949920443,411.8393338568934,1.0830596734181485E-18,0.0035336877471813374,-5.087540116468853E-4,-0.0,0.0,0.0,0.02031051181256771,0.1818249225616455,11.971667289733887,2.8795366411119705
0.10000000149011612,2.0955646164927565E7,152.81100004048605,9.835048724351888E-18,2.0955646165484726E7,1.8303816688103325E-5,9.83504872435189E-18,-3.210625469050525,1528.1101685951971,1.967001319722964E-16,7.883433227442922E-19,3.7458658523310064E-4,3.19948231254846,29999.840025410056,5.00452926589671E-11,2.689045132566796E-23,32.10653644291128,-8.046679044970961E-38,2.2069531490104106E-32,-4.178074632693332E-4,0.0,0.0,6.718855644083851E-19,-191.9689387529076,994.8494716371263,8.906919862897192E-4,629.6718184567882,411.8394419394942,1.1338510431271014E-18,0.003542085450943574,-5.666261102071007E-4,-0.0,0.0,-0.0,0.020358789712190628,0.1826905906200409,12.000125885009766,3.19948231254846
0.10999999940395355,2.0955646131216012E7,168.0921018916055,1.1900398657365933E-17,2.0955646131890178E7,2.225105484399137E-5,1.1900398657365936E-17,-3.5316848766917732,1528.1102016031837,2.163698206310755E-16,8.670453679069935E-19,4.1495234118780024E-4,3.519427404100676,29999.806430861354,6.083761503944798E-11,3.2537417996985334E-23,32.10653654601937,-8.851347060932777E-38,2.2069531490073296E-32,-4.595882153840595E-4,0.0,0.0,6.718855644083851E-19,-211.16564424604056,994.8496159219037,8.906930858300045E-4,629.6727784183086,411.8395613991073,1.1328264074855452E-18,0.00355134524189759,-6.249186858612655E-4,-0.0,0.0,0.0,0.02041202038526535,0.18364745378494263,12.031503677368164,3.519427404100676
0.11999999731779099,2.095564609429387E7,183.3732040721109,1.4162445839451657E-17,2.095564609509618E7,2.6604760307691322E-5,1.4162445839451657E-17,-3.8527437002225984,1528.110234473927,2.360396271007283E-16,9.459009954252123E-19,4.558815843296782E-4,3.8393719114602596,29999.76963686198,7.274127811046573E-11,3.872218353473143E-23,32.10653665894719,-9.65601509829706E-38,2.2069531490039556E-32,-5.013689686101265E-4,0.0,0.0,6.718855644083851E-19,-230.36231468761557,994.8497739479354,8.906942900886218E-4,629.6738298052378,411.8396922357197,1.1385272157565811E-18,0.003561460391266834,-6.83671820729837E-4,-0.0,0.0,0.0,0.020470162853598595,0.18469549715518951,12.065776824951172,3.8393719114602596
0.12999999523162842,2.0955646054161143E7,198.65430658067245,1.662119013509787E-17,2.0955646055102743E7,3.137061054303558E-5,1.6621190135097873E-17,-4.173801934937177,1528.1102672159454,2.557091934869902E-16,1.024552599225916E-18,4.973828309594923E-4,4.159315829920687,29999.729643426836,8.577180489393077E-11,4.5444747574064593E-23,32.10653678169469,0.0,0.0,-5.431497229630575E-4,0.0,0.0,6.718855644083851E-19,-249.55894979524123,994.8499457151512,8.906955990654072E-4,629.6749726175206,411.83983444927844,1.1942830995346558E-18,0.003572423629957752,-7.42925054177435E-4,-0.0,0.0,-0.0,0.020533179864287376,0.18583473563194275,12.102923393249512,4.159315829920687
0.14000000059604645,2.0955646010817833E7,213.93540941604522,1.927663033875036E-17,2.0955646011909865E7,3.6554367994767745E-5,1.9276630338750362E-17,-4.494859575737157,1528.1102998376812,2.7537870037985545E-16,1.1031810815326176E-18,5.394645221176782E-4,4.4792591543828655,29999.68645054847,9.994495076305236E-11,5.2705106824982797E-23,32.1065369142619,-4.853141298556641E-20,-2.4772764941369237E-25,-5.849304784586074E-4,0.0,0.0,6.718855644083851E-19,-268.75554926297195,994.850131223576,8.90697012760961E-4,629.676206855775,411.8399880398101,1.1784864435426378E-18,0.003584227173446381,-8.027173451675167E-4,-0.0,0.0,0.0,0.020601022988557816,0.18706515431404114,12.142914772033691,4.4792591543828655
0.15000000596046448,2.0955645964263953E7,229.21651257706827,2.2128766059360585E-17,2.0955645965517562E7,4.216187872430055E-5,2.212876605936059E-17,-4.815916617137642,1528.110332347496,2.950485374121905E-16,1.1821764111116305E-18,5.821350174452674E-4,4.799201879361137,29999.64005824551,1.1527669971232872E-10,6.05032602249534E-23,32.106537056648754,9.706282597094573E-20,5.30845196969487E-25,-6.267112351127606E-4,0.0,0.0,6.718855644083851E-19,-287.9521127616682,994.8503304731222,8.906985311750552E-4,629.6775325199048,411.8401530072487,1.217043360482333E-18,0.003596862747882255,-8.63087037297666E-4,-0.0,0.0,-0.0,0.02067364566028118,0.18838676810264587,12.185723304748535,4.799201879361137
0.1599999964237213,2.0955645914499503E7,244.49761606266384,2.5177598340057902E-17,2.0955645915925827E7,4.819907249498101E-5,2.5177598340057902E-17,-5.1369730532735005,1528.1103647536677,3.147178647993538E-16,1.2606991625059846E-18,6.254025929101555E-4,5.119143998989569,29999.590466510504,1.3178326459070131E-10,6.88392106331871E-23,32.10653720885527,-5.149874987129099E-37,8.827812595950104E-32,-6.684919929417294E-4,0.0,0.0,6.718855644083851E-19,-307.1486399393741,994.8505434638139,8.907001543083449E-4,629.6789496105916,411.8403293516208,1.1169966694382932E-18,0.0036103216172402868,-9.240718266086193E-4,-0.0,0.0,0.0,0.020750999450683594,0.18979957699775696,12.23132038116455,5.119143998989569
0.17000000178813934,2.0955645861524496E7,259.7787198718365,2.842312340009113E-17,2.095564586313469E7,5.46719609246793E-5,2.842312340009114E-17,-5.458028877906003,1528.110397064383,3.343872652982364E-16,1.3393324746691438E-18,6.692754330764044E-4,5.439085507028611,29999.537675373256,1.4948108205049142E-10,7.771294772019718E-23,32.10653737088138,-5.471742246708359E-37,8.827812595930742E-32,-7.102727519619509E-4,0.0,0.0,6.718855644083851E-19,-326.34513042171665,994.8507701955143,8.907018821602942E-4,629.6804581274852,411.8405170728206,1.2328723967060357E-18,0.0036245946113023695,-9.857087322246853E-4,-0.0,0.0,0.0,0.020833028480410576,0.1913035660982132,12.27967357635498,5.439085507028611
0.18000000715255737,2.0955645805338927E7,275.05982400367225,3.1865343457905743E-17,2.0955645807144124E7,6.15866373436802E-5,3.186534345790575E-17,-5.779084084429716,1528.1104292877365,3.5405686975265957E-16,1.4182075959407788E-18,7.137616315589951E-4,5.759026396871975,29999.481684807688,1.6838681215888304E-10,8.712447755966462E-23,32.10653754272713,4.8531412985153503E-20,3.1850722801562322E-25,-7.520535121900852E-4,0.0,0.0,6.718855644083851E-19,-345.5415838123185,994.8510106683264,8.907037147322244E-4,629.6820580718639,411.84071617094105,1.2008922266419762E-18,0.003639672154308242,-0.0010480340698728523,-0.0,0.0,-0.0,0.0209196787327528,0.1928987354040146,12.330751419067383,5.759026396871975
0.1899999976158142,2.0955645745942805E7,290.3409284573376,3.5504260003317494E-17,2.0955645747954153E7,6.894927548728447E-5,3.55042600033175E-17,-6.100138665879664,1528.1104614317235,3.7372654176291E-16,1.4971885531432498E-18,7.588691819288869E-4,6.078966661553803,29999.42249483615,1.8851733482333276E-10,9.707380423358346E-23,32.10653772439248,-6.1154767939109565E-37,8.82781259588849E-32,-7.938342736430119E-4,0.0,0.0,6.718855644083851E-19,-364.7379996932282,994.8512648821443,8.907056520239011E-4,629.6837494436558,411.84092664590287,1.1770707274917281E-18,0.003655544294046712,-0.0011110834282851596,-0.0,0.0,-0.0,0.02101089432835579,0.19458509981632233,12.384519577026367,6.078966661553803
0.20000000298023224,2.0955645683336154E7,305.62203323207837,3.933987265565211E-17,2.095564568556479E7,7.676612790419313E-5,3.933987265565212E-17,-6.421192614938702,1528.1104935042395,3.9339604439587273E-16,1.5760388612632508E-18,8.046059756666596E-4,6.398906293756044,29999.360105473548,2.0988974543989014E-10,1.07560926710249E-22,32.106537915877375,-6.4373440817959434E-37,8.827812595865608E-32,-8.356150363378268E-4,0.0,0.0,6.718855644083851E-19,-383.93437762536263,994.8515328368939,8.907076940353589E-4,629.6855322430312,411.84114849765314,1.294036400633734E-18,0.003672200731245901,-0.001174891648489201,-0.0,0.0,-0.0,0.02110661379992962,0.1963626593351364,12.440943717956543,6.398906293756044
0.20999999344348907,2.0955645617518958E7,320.90313832721887,4.3372181395162003E-17,2.095564561997603E7,8.504352666705017E-5,4.3372181395162016E-17,-6.742245923945088,1528.110525513074,4.130654993233516E-16,1.6548806613082068E-18,8.509798032993885E-4,6.718845285816018,29999.294516712427,2.3252135683595405E-10,1.1858584494527526E-22,32.10653811718184,-1.3518422758761213E-36,1.7655625191683104E-31,-8.773958002918423E-4,0.0,0.0,6.718855644083851E-19,-403.1307171489611,994.8518145325961,8.907098407673968E-4,629.6874064708354,411.8413817262187,1.3002929170577769E-18,0.0036896308490616237,-0.001239492805952672,-0.0,0.0,-0.0,0.021206779405474663,0.19823141396045685,12.499987602233887,6.718845285816018
0.2199999988079071,2.0955645548491236E7,336.18424374216085,4.7601184177687154E-17,2.095564555118788E7,9.378788013236772E-5,4.7601184177687154E-17,-7.063298584900212,1528.11055746591,4.3273492467027565E-16,1.7337325680399424E-18,8.979983432593391E-4,7.038783629734149,29999.225728563964,2.564296904114666E-10,1.3014855335973104E-22,32.10653832830584,-1.416215737359975E-36,1.765562519163264E-31,-9.191765655225798E-4,0.0,0.0,6.718855644083851E-19,-422.3270177840489,994.8521099691915,8.90712092220229E-4,629.6893721274106,411.84162633155984,1.321483711435576E-18,0.0037078237424997503,-0.0013049201955342548,-0.0,0.0,-0.0,0.021311325952410698,0.20019134879112244,12.561614990234375,7.038783629734149
0.23000000417232513,2.0955645476252988E7,351.46534947638236,5.2026881869427196E-17,2.095564547920035E7,1.0300567385002068E-4,5.202688186942719E-17,-7.384350589476469,1528.1105893703195,4.524042502423835E-16,1.8125248971761845E-18,9.456691673409416E-4,7.358721317181847,29999.153741031885,2.8163247862563396E-10,1.4224905433252397E-22,32.10653854924936,0.0,0.0,-9.609573320477714E-4,0.0,0.0,6.718855644083851E-19,-441.5232790309108,994.8524191466523,8.90714448394343E-4,629.6914292133457,411.8418823136637,1.2838293099656128E-18,0.0037267682476218216,-0.0013712063191797048,-0.0,0.0,-0.0,0.0214201882481575,0.20224247872829437,12.625785827636719,7.358721317181847
0.23999999463558197,2.0955645400804225E7,366.7464555294364,5.66492719424709E-17,2.095564540401346E7,1.1270346755054561E-4,5.66492719424709E-17,-7.705401929025241,1528.1106212337618,4.720738831335576E-16,1.8916652722367002E-18,9.93999731151101E-4,7.6786583395094805,29999.078554142267,3.081476567597938E-10,1.548873409630619E-22,32.10653878001233,-1.5449626663380137E-36,1.7655625191524677E-31,-0.0010027380998853543,0.0,0.0,6.718855644083851E-19,-460.7195003705688,994.8527420648538,8.907169092895232E-4,629.6935777286229,411.8421496724377,1.2583954244825216E-18,0.0037464529703818993,-0.0014383828762786057,-0.0,0.0,0.0,0.02153330296278,0.20438480377197266,12.692463874816895,7.6786583395094805
0.25,2.095564532214495E7,382.0275619009502,6.146835615810199E-17,2.0955645325627193E7,1.228878959409485E-4,6.1468356158102E-17,-8.026452594584955,1528.1106530635814,4.917429604475678E-16,1.9702913457933098E-18,0.0010429973791114243,7.998594687754435,29999.000167876482,3.3599336509330126E-10,1.680634180785277E-22,32.10653902059479,-1.6093361338877634E-36,1.7655625191467173E-31,-0.0010445188690534665,0.0,0.0,6.718855644083851E-19,-479.91568126526613,994.8530787238633,8.907194749070468E-4,629.6958176745352,411.8424284079485,1.3311285706362203E-18,0.003766866314970504,-0.0015064807565927328,-0.0,0.0,0.0,0.02165060304105282,0.2066183239221573,12.761609077453613,7.998594687754435
0.25999999046325684,2.0955645240275174E7,397.3086685906238,6.648413350588097E-17,2.095564524404156E7,1.335656657488471E-4,6.648413350588097E-17,-8.34750257688921,1528.1106848670058,5.114122907589464E-16,2.0492122598463327E-18,0.001092669335135904,8.318530352649244,29998.918582241982,3.651879408218149E-10,1.8177728292830277E-22,32.106539270996734,0.0,0.0,-0.0010862996395704463,0.0,0.0,6.718855644083851E-19,-499.1118211589546,994.8534291236347,8.907221452473629E-4,629.6981490516602,411.84271852016957,1.253516639051832E-18,0.0037879965115212395,-0.0015755300356388579,-0.0,0.0,0.0,0.021772019565105438,0.20894303917884827,12.83318042755127,8.318530352649244
0.27000001072883606,2.09556451551949E7,412.5897755982289,7.16966038488097E-17,2.0955645159256585E7,1.4474355572247077E-4,7.169660384880972E-17,-8.66855186637493,1528.110716651144,5.310816536790183E-16,2.128208211357416E-18,0.0011430227064962762,8.638465324629747,29998.83379726857,3.957499180573277E-10,1.9602893515037651E-22,32.10653953121806,-6.952332300999794E-36,7.062250076538048E-31,-0.001128080411454828,0.0,0.0,6.718855644083851E-19,-518.3079194777848,994.8537932640261,8.907249203102204E-4,629.700571859972,411.8430200089955,1.1875448729119502E-18,0.003809831643089876,-0.0016455599724175644,-0.0,0.0,0.0,0.021897485479712486,0.2113589495420456,12.90713882446289,8.638465324629747
0.2800000011920929,2.0955645066904135E7,427.8708829236077,7.710576402824689E-17,2.0955645071272254E7,1.5642841532326202E-4,7.710576402824689E-17,-8.989600453190533,1528.110748422985,5.507505102322923E-16,2.206740828138177E-18,0.0011940644799566737,8.958399593843248,29998.745812937617,4.276980242535835E-10,2.1081836612161963E-22,32.10653980125883,-3.6049130982395515E-36,3.531125038256115E-31,-0.001169861184725338,0.0,0.0,6.718855644083851E-19,-537.5039756305949,994.8541711451024,8.907278000969794E-4,629.7030861008587,411.84333287449255,1.326151758532147E-18,0.0038323596718156903,-0.0017165990093647371,-0.0,0.0,-0.0,0.02202693000435829,0.21386604011058807,12.983443260192871,8.958399593843248
0.28999999165534973,2.095564497540289E7,443.15199056667154,8.271161604171403E-17,2.0955644980088595E7,1.6862716256582644E-4,8.271161604171404E-17,-9.31064832720409,1528.1107801893977,5.704196970383487E-16,2.2856473502408495E-18,0.0012458015217736288,9.278333150156682,29998.654629278928,4.610511743002164E-10,2.2614558131709366E-22,32.106540081118965,-3.733660050308351E-36,3.5311250382427356E-31,-0.001211641959400892,0.0,0.0,6.718855644083851E-19,-556.699989009401,994.8545627667207,8.907307846074444E-4,629.7056917743585,411.84365711655516,1.3978725862941115E-18,0.003855568464144293,-0.0017886747743789864,-0.0,0.0,0.0,0.022160286083817482,0.2164643406867981,13.062052726745605,9.278333150156682
0.30000001192092896,2.095564488069117E7,458.4330985274001,8.851416294972816E-17,2.0955644885705594E7,1.813467843021499E-4,8.851416294972818E-17,-9.631695478011446,1528.1108119571286,5.900897731877692E-16,2.365487505388118E-18,0.0012982405774687067,9.598265983164742,29998.5602462776,4.958284712998764E-10,2.4201058911873734E-22,32.10654037079849,-7.724814013530298E-36,7.062250076457778E-31,-0.0012534227355005933,0.0,0.0,6.718855644083851E-19,-575.8959589898845,994.8549681289289,8.907338738429108E-4,629.7083888818178,411.8439927352366,1.393367436681442E-18,0.0038794458150920893,-0.0018618140848100928,-0.0,0.0,-0.0,0.022297479212284088,0.21915383636951447,13.142925262451172,9.598265983164742
0.3100000023841858,2.0955644782768983E7,473.7142068058398,9.451340670313584E-17,2.0955644788123276E7,1.9459433372048807E-4,9.451340670313584E-17,-9.952741894944307,1528.1108437328019,6.097593575831109E-16,2.444880849454204E-18,0.0013513882665989144,9.918198082197948,29998.46266395971,5.320491997298621E-10,2.584133948749815E-22,32.10654067029734,9.706282596619732E-20,1.0970807551491994E-24,-0.001295203513043726,0.0,0.0,6.718855644083851E-19,-595.0918849318768,994.8553872315986,8.907370678033624E-4,629.711177423446,411.84433973044446,1.4105027445206208E-18,0.00390397947144337,-0.001936042953246639,-0.0,0.0,0.0,0.022438442334532738,0.22193452715873718,13.226019859313965,9.918198082197948
0.3199999928474426,2.095564468163633E7,488.9953154021026,1.0070934295170381E-16,2.095564468734163E7,2.0837692983377565E-4,1.0070934295170381E-16,-10.273787567078243,1528.110875522919,6.294280854844523E-16,2.523463311519315E-18,0.0014052510913969047,10.238129436330677,29998.361882314086,5.697328240433912E-10,2.753539867066817E-22,32.10654097961555,9.706282596579086E-20,1.1324704515269224E-24,-0.0013369842920497549,0.0,0.0,6.718855644083851E-19,-614.2877661798407,994.8558200747609,8.907403664900288E-4,629.714057400548,411.8446981022188,1.2285881231308135E-18,0.0039291571538747,-0.002011386594982342,-0.0,0.0,0.0,0.02258310467004776,0.22480642795562744,13.311293601989746,10.238129436330677
0.33000001311302185,2.0955644577293225E7,504.2764243163651,1.0710196481899785E-16,2.095564458336068E7,2.2270175617222776E-4,1.0710196481899787E-16,-10.594832483240626,1528.1109073338594,6.490968243229156E-16,2.602103006906338E-18,0.0014598354263117923,10.558060034389085,29998.257901363075,6.088989850950158E-10,2.928323458281848E-22,32.10654129875304,9.70628259653715E-20,1.1678608553852594E-24,-0.0013787650725383196,0.0,0.0,6.718855644083851E-19,-633.4836020633451,994.8562666583022,8.907437699030717E-4,629.7170288135035,411.8450678504804,1.4044030308471048E-18,0.0039549665779380115,-0.002087869437001688,-0.0,0.0,-0.0,0.022731393575668335,0.22776952385902405,13.398707389831543,10.558060034389085
0.3400000035762787,2.095564446973968E7,519.5575335488668,1.1369127983535274E-16,2.095564447618043E7,2.3757605868013343E-4,1.1369127983535277E-16,-10.91587663201846,1528.1109391718785,6.687662905765268E-16,2.681517112562404E-18,0.0015151475252851148,10.87798986495892,29998.15072111413,6.495674943901845E-10,3.108484928445313E-22,32.10654162770979,1.9412565192987847E-19,2.4064996961319294E-24,-0.0014205458545292335,0.0,0.0,6.718855644083851E-19,-652.6793918975352,994.8567269821724,8.907472780431692E-4,629.7200916631507,411.84544897520317,1.4983016817143424E-18,0.003981395473902609,-0.002165515128360647,-0.0,0.0,0.0,0.02288324013352394,0.2308238297700882,13.4882173538208,10.87798986495892
0.3499999940395355,2.0955644358975694E7,534.8386430999093,1.2047728898521565E-16,2.0955644365800884E7,2.530071463979766E-4,1.2047728898521565E-16,-11.236920001766098,1528.11097104311,6.884358303954393E-16,2.7610524918073613E-18,0.0015711935190223533,11.197918916393288,29998.040341567248,6.917583359502956E-10,3.2940243046384627E-22,32.10654196648581,1.9412565192898816E-19,2.477279096521965E-24,-0.0014623266380424788,0.0,0.0,6.718855644083851E-19,-671.8751349835973,994.8572010463529,8.907508909112706E-4,629.7232459505723,411.8458414763875,1.3756347287593108E-18,0.00400843160542567,-0.0022443465518150406,-0.0,0.0,0.0,0.023038573563098907,0.2339693307876587,13.579782485961914,11.197918916393288
0.36000001430511475,2.0955644245001283E7,550.1197529698549,1.2745999161899845E-16,2.0955644252222054E7,2.69002387767614E-4,1.2745999161899847E-16,-11.55796258061285,1528.1110029535655,7.081052177624156E-16,2.840483854353059E-18,0.0016279794170392992,11.517847176820215,29997.926762737334,7.354916562105497E-10,3.4849415692705724E-22,32.10654231508106,1.9412565192807202E-19,2.54805920574974E-24,-0.0015041074230982031,0.0,0.0,6.718855644083851E-19,-691.0708306092129,994.8576888507605,8.907546085078663E-4,629.7264916764581,411.8462453539807,1.5288665398290686E-18,0.004036062787045683,-0.0023243858365636096,-0.0,0.0,0.0,0.023197323083877563,0.23720602691173553,13.673361778259277,11.517847176820215
0.3700000047683716,2.0955644127816446E7,565.4008631591254,1.3463939236174958E-16,2.0955644135443944E7,2.8556921199651697E-4,1.346393923617496E-16,-11.879004356470439,1528.1110349091346,7.277749724446984E-16,2.9203317077143492E-18,0.0016855111058430698,11.837774634150128,29997.80998462811,7.807877677500211E-10,3.681236848972077E-22,32.1065426734955,-2.858181497931165E-35,2.1186750228712862E-30,-0.0015458882097167186,0.0,0.0,6.718855644083851E-19,-710.2664780490077,994.8581903953593,8.90758430833841E-4,629.729828841849,411.84666060796985,1.5870696062343314E-18,0.0040642769005135885,-0.002405654371981809,-0.0,0.0,-0.0,0.023359419777989388,0.2405339479446411,13.768914222717285,11.837774634150128
0.3799999952316284,2.0955644007421196E7,580.6819736682008,1.4201548877622172E-16,2.095564401546656E7,3.027151054766364E-4,1.4201548877622175E-16,-12.200045317040345,1528.1110669155864,7.474443288028097E-16,2.9998311655614925E-18,0.0017437943530248363,12.15770127608319,29997.690007243305,8.276671395003491E-10,3.882910077284903E-22,32.10654304172915,-9.784765647259767E-36,7.062250076202413E-31,-0.0015876689979184952,0.0,0.0,6.718855644083851E-19,-729.4620765649913,994.8587056801132,8.907623578901078E-4,629.7332574478193,411.8470872383422,1.4015586164044496E-18,0.004093061909955437,-0.002488172822213535,-0.0,0.0,0.0,0.02352479286491871,0.24395306408405304,13.866398811340332,12.15770127608319
0.38999998569488525,2.0955643883815542E7,595.9630844976184,1.4958827415891482E-16,2.0955643892289918E7,3.204476123528366E-4,1.4958827415891485E-16,-12.521085449820967,1528.11109897857,7.671124387292458E-16,3.0781348859744784E-18,0.0018028348033944765,12.477627090116462,29997.566830601543,8.761503982999534E-10,4.089961071110341E-22,32.10654341978193,-1.0042259644632394E-35,7.062250076166266E-31,-0.0016294497877241576,0.0,0.0,6.718855644083851E-19,-748.6576254069877,994.859234704921,8.907663896771201E-4,629.7367774950485,411.8475252450318,1.5185688555463135E-18,0.004122405875892983,-0.002571961141504788,-0.0,0.0,-0.0,0.023693375289440155,0.2474633902311325,13.965775489807129,12.477627090116462
0.4000000059604645,2.095564375699949E7,611.2441956479712,1.5735774957351923E-16,2.095564376591402E7,3.3877433224915876E-4,1.573577495735192E-16,-12.842124742114645,1528.1111311036157,7.867821325749307E-16,3.158073997467626E-18,0.0018626379853470417,12.797552063550937,29997.440454702824,9.262583226773458E-10,4.302389859720892E-22,32.10654380765385,-2.0599507304032937E-35,1.4124500152258372E-30,-0.0016712305791544864,0.0,0.0,6.718855644083851E-19,-767.8531238130562,994.8597774697618,8.907705261959692E-4,629.7403889847816,411.8479746280392,1.67413808717724E-18,0.004152296968146112,-0.0026570385901688617,-0.0,0.0,-0.0,0.023865098133683205,0.2510649263858795,14.06700325012207,12.797552063550937
0.4099999964237213,2.0955643626973048E7,626.525307119907,1.653239217863426E-16,2.0955643636338875E7,3.5770291958669986E-4,1.653239217863426E-16,-13.163163181034525,1528.1111632961358,8.064522040735973E-16,3.2384430229497127E-18,0.0019232093088163954,13.117476183498395,29997.310879558325,9.780118409861448E-10,4.520196628311845E-22,32.10654420534489,0.0,0.0,-0.0017130113722304097,0.0,0.0,6.718855644083851E-19,-787.0485710099038,994.8603339745652,8.907747674474091E-4,629.744091917976,411.8484353873249,1.7191959405601355E-18,0.004182723477634631,-0.0027434237510671187,-0.0,0.0,-0.0,0.024039896205067635,0.25475770235061646,14.170042991638184,13.117476183498395
0.41999998688697815,2.095564349373623E7,641.8064189141271,1.7348679281275115E-16,2.0955643503564507E7,3.7724108267411793E-4,1.734867928127512E-16,-13.484200753511239,1528.111195561427,8.261219200842342E-16,3.318509621762293E-18,0.0019845540664120867,13.437399436888088,29997.178105190396,1.0314320289184237E-9,4.743381432185753E-22,32.10654461285497,-2.1629483394671237E-35,1.4124500152104399E-30,-0.0017547921669730008,0.0,0.0,6.718855644083851E-19,-806.2439662132853,994.8609042192127,8.907791134318571E-4,629.7478862953026,411.84890752280995,1.485292522036084E-18,0.004213673827121339,-0.002831134546511584,-0.0,0.0,0.0,0.024217698723077774,0.25854164361953735,14.274855613708496,13.437399436888088
0.4300000071525574,2.0955643357289035E7,657.0875310313852,1.8184635563752807E-16,2.095564336759089E7,3.973965810928348E-4,1.8184635563752807E-16,-13.80523744629943,1528.1112279046697,8.457904810828626E-16,3.3974750810557312E-18,0.0020466774370573315,13.75732181047325,29997.04213157296,1.0865401023555117E-9,4.971944079740826E-22,32.10654503018416,-2.214447147106256E-35,1.4124500152024597E-30,-0.001796572963403479,0.0,0.0,6.718855644083851E-19,-825.439308628395,994.8614882037931,8.907835641513424E-4,629.7517721188481,411.8493910345874,1.5944069511740142E-18,0.004245136580937117,-0.002920188255498905,-0.0,0.0,-0.0,0.0243984442204237,0.2624168395996094,14.381402015686035,13.75732181047325
0.4399999976158142,2.0955643217631478E7,672.3686434724863,1.9040260852487004E-16,2.0955643228418063E7,4.181772272886519E-4,1.904026085248701E-16,-14.126273245984102,1528.111260330932,8.654598032490333E-16,3.4772564018997134E-18,0.0021095844850795224,14.077243290837481,29996.902958747,1.1433574217197355E-9,5.2058845237270355E-22,32.10654545733235,-2.2659459568519016E-35,1.4124500151942918E-30,-0.0018383537615432027,0.0,0.0,6.718855644083851E-19,-844.6345974502489,994.8620859281069,8.907881196057296E-4,629.7557493888157,411.8498859225121,1.5781090430640832E-18,0.00427710045369303,-0.003010601531164156,-0.0,0.0,-0.0,0.024582063779234886,0.26638323068618774,14.489644050598145,14.077243290837481
0.44999998807907104,2.095564307476357E7,687.6497562382856,1.9915555349791738E-16,2.095564308604603E7,4.39590882479024E-4,1.9915555349791743E-16,-14.447308138986784,1528.111292845169,8.851291211254747E-16,3.5570889585513885E-18,0.002173280162029219,14.397163864400873,29996.76058671251,1.2019054807843525E-9,5.445202819674271E-22,32.10654589429953,-2.3174447687305489E-35,1.4124500151859364E-30,-0.001880134561413667,0.0,0.0,6.718855644083851E-19,-863.8298318640524,994.86269739213,8.907927797962514E-4,629.7598181066119,411.8503921865845,1.5967315114069774E-18,0.004309554318079515,-0.0031023904184140872,-0.0,0.0,-0.0,0.024768497794866562,0.27044084668159485,14.599543571472168,14.397163864400873
0.46000000834465027,2.095564292868532E7,702.9308693296869,2.0810518741069895E-16,2.0955642940474793E7,4.6164545699411974E-4,2.08105187410699E-16,-14.768342111571526,1528.1113254522254,9.04797933183325E-16,3.6364720633215495E-18,0.002237769310318131,14.71708351742604,29996.615015476942,1.2622059076060935E-9,5.689898881786317E-22,32.10654634108568,-2.368943582768845E-35,1.4124500151773927E-30,-0.0019219153630364973,0.0,0.0,6.718855644083851E-19,-883.0250110455625,994.8633225958055,8.907975447239257E-4,629.7639782734622,411.8509098267785,1.830935659482874E-18,0.004342487211737198,-0.003195570371626178,-0.0,0.0,-0.0,0.024957679212093353,0.2745896875858307,14.711064338684082,14.71708351742604
0.4699999988079071,2.095564277939673E7,718.2119827476423,2.1725151215106794E-16,2.0955642791704357E7,4.84348909367327E-4,2.1725151215106794E-16,-15.089375149850712,1528.1113581568375,9.244663972918096E-16,3.715564435896807E-18,0.002303056663219122,15.037002236023897,29996.466245040298,1.324280462038512E-9,5.939972761903969E-22,32.106546797690825,-4.84088479798722E-35,2.824900030337324E-30,-0.0019636961664334573,0.0,0.0,6.718855644083851E-19,-902.2201341614337,994.863961539108,8.908024143900432E-4,629.7682298908383,411.8514388430946,1.5692417637897862E-18,0.004375888343279444,-0.00329015627236889,-0.0,0.0,0.0,0.025149546563625336,0.27882975339889526,14.824169158935547,15.037002236023897
0.47999998927116394,2.095564262689782E7,733.4930964931508,2.2659451947737824E-16,2.0955642639734752E7,5.077092458805055E-4,2.265945194773783E-16,-15.410407239790707,1528.1113909636342,9.441341581785037E-16,3.794011663253538E-18,0.0023691468460030787,15.356920006159358,29996.314275436103,1.3881510344886729E-9,6.195424234917682E-22,32.10654726411483,-2.471941217431812E-35,1.4124500151597421E-30,-0.0020054769716264316,0.0,0.0,6.718855644083851E-19,-921.4152003695615,994.8646142218678,8.908073887948238E-4,629.7725729592845,411.8519792354141,1.7072749092888809E-18,0.0044097470974911145,-0.0033861624470676514,-0.0,0.0,-0.0,0.025344040244817734,0.2831610441207886,14.938820838928223,15.356920006159358
0.49000000953674316,2.095564247118859E7,748.7742105672569,2.3613420876651203E-16,2.0955642484565962E7,5.317345165849474E-4,2.361342087665121E-16,-15.731438367217317,1528.1114238771397,9.638040735198836E-16,3.8746722898787614E-18,0.0024360443800316425,15.676836813656724,29996.159106645733,1.4538396350379225E-9,6.456253284024497E-22,32.106547740357755,0.0,0.0,-0.002047257778637437,0.0,0.0,6.718855644083851E-19,-940.6102088194034,994.8652806441381,8.908124679402243E-4,629.7770074808694,411.8525310038037,1.7004166714411719E-18,0.004444053039777549,-0.003483602684582626,-0.0,0.0,-0.0,0.025541100651025772,0.2875835597515106,15.054986000061035,15.676836813656724
0.5,2.0955642312269054E7,764.0553249710496,2.458705914877677E-16,2.0955642326198015E7,5.564328168929933E-4,2.4587059148776774E-16,-16.052468517821076,1528.1114569017743,9.8347276205228E-16,3.954165928396826E-18,0.00250375368162034,15.996752644205044,29996.00073869899,1.52136839779363E-9,6.72246022305065E-22,32.10654822641953,-5.14987772211438E-35,2.8249000302826826E-30,-0.0020890385874886034,0.0,0.0,6.718855644083851E-19,-959.8051586523027,994.8659608057645,8.908176518266448E-4,629.7815334563098,411.853094148158,1.7347460035005606E-18,0.004478795919861548,-0.0035824902536112763,-0.0,0.0,0.0,0.025740666314959526,0.2920973002910614,15.172629356384277,15.996752644205044
0.5099999904632568,2.095564215013922E7,779.3364397056621,2.558036643040031E-16,2.0955642164630905E7,5.818122866685371E-4,2.558036643040031E-16,-16.373497677162366,1528.111490041857,1.0031413731215198E-15,4.033642808898528E-18,0.0025722790672681843,16.316667483363187,29995.83917158842,1.59075957840254E-9,6.99404496099766E-22,32.10654872230016,-5.252875372598129E-35,2.824900030263718E-30,-0.0021308193982021886,0.0,0.0,6.718855644083851E-19,-979.0000490017912,994.866654706751,8.90822940455732E-4,629.7861508874184,411.8536686685039,1.4048992241164169E-18,0.004513965674829293,-0.003682837919915676,-0.0,0.0,0.0,0.02594268135726452,0.2967022657394409,15.291715621948242,16.316667483363187
0.5199999809265137,2.0955641984799102E7,794.61755477227,2.659334202592515E-16,2.0955641999864668E7,6.078811081806634E-4,2.6593342025925153E-16,-16.694525830676348,1528.111523301607,1.0228101572843784E-15,4.113354380091179E-18,0.0026416247518386855,16.636581316564804,29995.67440535128,1.6620355484557506E-9,7.271007307928021E-22,32.106549227999544,-1.071174605545508E-34,5.649800060488756E-30,-0.0021726002108005617,0.0,0.0,6.718855644083851E-19,-998.1948789938882,994.8673623469094,8.908283338276983E-4,629.7908597747634,411.8542545647095,1.7311000346808894E-18,0.004549552431516812,-0.003784657963292475,-0.0,0.0,-0.0,0.026147088035941124,0.30139848589897156,15.412213325500488,16.636581316564804
0.5299999713897705,2.0955641816248715E7,809.8986701720905,2.7625986564889386E-16,2.0955641831899296E7,6.346475038299104E-4,2.762598656488939E-16,-17.015552963677756,1528.1115566851452,1.0424793587594062E-15,4.193545759832922E-18,0.002711794853107327,16.956494129123083,29995.50643998012,1.7352187892720307E-9,7.5533474362203135E-22,32.106549743517704,-5.458870687558027E-35,2.8249000302246626E-30,-0.002214381025306207,0.0,0.0,6.718855644083851E-19,-1017.389647747385,994.8680837262434,8.908338319442479E-4,629.7956601202227,411.8548518368018,1.90486929765581E-18,0.0045855465083310875,-0.0038879621942937534,-0.0,0.0,0.0,0.026353830471634865,0.30618593096733093,15.534087181091309,16.956494129123083
0.5400000214576721,2.095564164448806E7,825.179785906382,2.867830074842178E-16,2.0955641660734806E7,6.621197388767541E-4,2.8678300748421785E-16,-17.336579061365498,1528.1115901964974,1.0621488039357731E-15,4.27404424369285E-18,0.002782793393353184,17.2764059062354,29995.335275489837,1.8103318993579272E-9,7.841065537831982E-22,32.10655026885458,-1.941256519071687E-19,-3.8220868283394245E-24,-0.0022561618417417206,0.0,0.0,6.718855644083851E-19,-1036.584354374124,994.8688188446595,8.908394348063817E-4,629.8005519250684,411.85546048472844,1.6911824025835984E-18,0.004621938416497376,-0.003992761970626568,-0.0,0.0,0.0,0.026562854647636414,0.31106460094451904,15.657306671142578,17.2764059062354
0.550000011920929,2.095564146951714E7,840.4609019764422,2.9750284017134964E-16,2.0955641486371186E7,6.903061175762559E-4,2.9750284017134964E-16,-17.657604108827112,1528.1116238395955,1.0818178737795443E-15,4.354231710957054E-18,0.0028546243016326646,17.596316632987723,29995.160911869258,1.88739758383937E-9,8.134161460081915E-22,32.106550804010226,-1.9412565190576224E-19,-3.8928662878013695E-24,-0.0022979426601298096,0.0,0.0,6.718855644083851E-19,-1055.7789979792633,994.8695677021761,8.908451424159818E-4,629.805535191349,411.8560805085297,1.9688367961623114E-18,0.004658718860817444,-0.004099068213242069,-0.0,0.0,0.0,0.026774108409881592,0.3160345256328583,15.781840324401855,17.596316632987723
0.5600000023841858,2.0955641291335978E7,855.742018383608,3.0841936812915267E-16,2.095564130880847E7,7.192149829506889E-4,3.084193681291527E-16,-17.978628091043028,1528.1116576182787,1.1014872607075254E-15,4.4348014982100335E-18,0.0029272914133247592,17.916226294358932,29994.98334915191,1.966438653840034E-9,8.432635324056746E-22,32.106551348984524,0.0,0.0,-0.0023397234804932833,0.0,0.0,6.718855644083851E-19,-1074.973577661536,994.8703302986187,8.90850954773496E-4,629.8106099198686,411.8567119080869,1.8431482141279052E-18,0.004695878739940167,-0.004206891422060047,-0.0,0.0,-0.0,0.026987535879015923,0.32109567523002625,15.907655715942383,17.916226294358932
0.5699999928474426,2.0955641109944582E7,871.0231351292539,3.19532581792281E-16,2.0955641128046665E7,7.488547150842351E-4,3.1953258179228105E-16,-18.299650992890736,1528.111691536297,1.1211560840609776E-15,4.514873872795921E-18,0.003000798473996401,18.236134875224938,29994.802587348968,2.0474780218188357E-9,8.736486868499358E-22,32.10655190377746,0.0,0.0,-0.0023815043028550557,0.0,0.0,6.718855644083851E-19,-1094.1680925134963,994.8711066339087,8.908568718801332E-4,629.8157761121029,411.8573546833609,1.76105998615108E-18,0.004733409146223476,-0.0043162416913477405,-0.0,0.0,0.0,0.027203086763620377,0.32624807953834534,16.034725189208984,18.236134875224938
0.5799999833106995,2.0955640925342962E7,886.3042522147919,3.308424839464518E-16,2.0955640944085773E7,7.79233732373541E-4,3.308424839464518E-16,-18.620672799148743,1528.1117255973115,1.1408248214237707E-15,4.5949273507296115E-18,0.003075149141221454,18.556042360362657,29994.618626456708,2.1305387049891733E-9,9.045716169853648E-22,32.106552468389026,-1.9412565190138807E-19,-4.105201861518068E-24,-0.0024232851272381435,0.0,0.0,6.718855644083851E-19,-1113.3625416217594,994.8718967080302,8.908628937376158E-4,629.8210337699843,411.85800883436553,1.9721142732733123E-18,0.0047713013651904425,-0.004427128724708474,-0.0,0.0,0.0,0.027420714497566223,0.33149173855781555,16.163015365600586,18.556042360362657
0.5899999737739563,2.095564073753113E7,901.5853696416693,3.423490807866515E-16,2.095564075692582E7,8.103604886855464E-4,3.423490807866516E-16,-18.941693494500413,1528.111759804898,1.1604949917515646E-15,4.676481825641418E-18,0.0031503469868544532,18.875948734453875,29994.43146650493,2.2156438175480535E-9,9.360323397782815E-22,32.106553042819144,-6.076856748400657E-35,2.8249000300984823E-30,-0.0024650659536656593,0.0,0.0,6.718855644083851E-19,-1132.5569240672326,994.8727005208235,8.908690203465988E-4,629.8263828945201,411.85867436099534,1.9949534472314618E-18,0.0048095468746185985,-0.004539561849672081,-0.0,0.0,0.0,0.027640365064144135,0.3368266224861145,16.29250144958496,18.875948734453875
0.6000000238418579,2.0955640546509095E7,916.8664874113699,3.540523730178837E-16,2.0955640566566803E7,8.422434729027373E-4,3.540523730178838E-16,-19.262713063537664,1528.111794162547,1.1801641597366343E-15,4.757102933378519E-18,0.0032263954983948475,19.195853982088877,29994.24110748619,2.3028165694327894E-9,9.680308571850871E-22,32.10655362706783,1.9412565189834267E-19,4.246769285878596E-24,-0.002506846782160816,0.0,0.0,6.718855644083851E-19,-1151.7512389253327,994.8735180722881,8.908752517089854E-4,629.8318234878154,411.8593512632776,2.0731518271841327E-18,0.004848137343324063,-0.0046535500319048176,-0.0,0.0,0.0,0.02786199189722538,0.34225279092788696,16.423152923583984,19.195853982088877
0.6100000143051147,2.0955640352276873E7,932.1476055254113,3.6595236243760936E-16,2.0955640373008747E7,8.748912090368322E-4,3.6595236243760946E-16,-19.583731490764507,1528.1118286736673,1.1998330766652343E-15,4.83754290914857E-18,0.0033032980794417506,19.515758087770095,29994.04754943028,2.3920802666318707E-9,1.000567174149611E-21,32.10655422113499,1.941256518967813E-19,4.3175544158015944E-24,-0.002548627612746918,0.0,0.0,6.718855644083851E-19,-1170.9454852662057,994.8743493622627,8.908815878254867E-4,629.8373555509421,411.86003954110686,1.9460484389807235E-18,0.00488706462962549,-0.004769101888989963,-0.0,0.0,-0.0,0.028085550293326378,0.34777018427848816,16.554941177368164,19.515758087770095
0.6200000047683716,2.0955640154834475E7,947.4287239853451,3.7804903788552537E-16,2.0955640176251654E7,9.083122549782274E-4,3.7804903788552547E-16,-19.904748760600466,1528.1118633415877,1.219501778134137E-15,4.9178383038532895E-18,0.0033810580549235372,19.83566103591541,29993.85079233721,2.483458307765809E-9,1.0336412601877581E-21,32.106554825020645,1.9412565189519432E-19,4.388328249705733E-24,-0.002590408445447363,0.0,0.0,6.718855644083851E-19,-1190.1396621549247,994.8751943907137,8.908880286978175E-4,629.8429790858557,411.8607391944837,1.869624020964992E-18,0.0049263207795657285,-0.004886225703821828,-0.0,0.0,0.0,0.028310993686318398,0.35337886214256287,16.687843322753906,19.83566103591541
0.6299999952316284,2.0955639954181906E7,962.7098427927554,3.903423978628918E-16,2.095563997629553E7,9.425152006770077E-4,3.903423978628919E-16,-20.22576485738386,1528.111898169557,1.2391708504700463E-15,4.998576403297311E-18,0.003459678671097842,20.155562810861515,29993.650836214423,2.5769741791137935E-9,1.0672531112320493E-21,32.106555438724754,-1.2977695113603584E-34,5.649800060013703E-30,-0.002632189280285638,0.0,0.0,6.718855644083851E-19,-1209.333768651691,994.8760531575749,8.908945743274781E-4,629.8486940943324,411.8614502233824,2.125771279009258E-18,0.004965898024879355,-0.005004929437571818,-0.0,0.0,0.0,0.028538275510072708,0.3590787649154663,16.821828842163086,20.155562810861515
0.6399999856948853,2.0955639750319183E7,977.9909619492587,4.028324528258071E-16,2.0955639773140397E7,9.775086680292588E-4,4.028324528258071E-16,-20.546779765374946,1528.111933160748,1.2588406209152031E-15,5.080085413603382E-18,0.003539163095324191,20.475463396867028,29993.44768108055,2.6726514543028917E-9,1.10140275590177E-21,32.10655606224727,1.9412565189194254E-19,4.529892877817242E-24,-0.0026739701172853163,0.0,0.0,6.718855644083851E-19,-1228.5278038120216,994.8769256627314,8.909012247156305E-4,629.8545005778602,411.86217262773727,1.885194029503697E-18,0.005005788780754594,-0.005125220742248809,-0.0,0.0,0.0,0.028767352923750877,0.36486995220184326,16.956872940063477,20.475463396867028
0.6499999761581421,2.0955639543246314E7,993.2720814565027,4.1551919815215954E-16,2.095563956678627E7,0.0010133013113318157,4.1551919815215963E-16,-20.86779346875896,1528.111968318259,1.278509730862957E-15,5.1610076965962516E-18,0.0036195144219757177,20.79536277811555,29993.241326954216,2.770513795551437E-9,1.1360901815906727E-21,32.10655669558813,1.9412565189027815E-19,4.600666722704436E-24,-0.002715750956470063,0.0,0.0,6.718855644083851E-19,-1247.721766686933,994.8778119060681,8.909079798634657E-4,629.8603985379602,411.8629064074828,2.2769469935428603E-18,0.0050459856434086695,-0.005247106972852303,-0.0,0.0,-0.0,0.028998184949159622,0.37075239419937134,17.09295082092285,20.79536277811555
0.6600000262260437,2.0955639332963314E7,1008.5532013161658,4.284026346476808E-16,2.0955639357233144E7,0.0010499018140990302,4.284026346476808E-16,-21.188805951649027,1528.1120036451148,1.2981775795888082E-15,5.2407435006693944E-18,0.003700735671757044,21.115260938718524,29993.03177382797,2.870584944965653E-9,1.171315390533517E-21,32.106557338747365,-2.7191362875355878E-34,1.1299600119736741E-29,-0.002757531797863615,0.0,0.0,6.718855644083851E-19,-1266.9156563231115,994.8787118875807,8.90914839773056E-4,629.8663879769307,411.86365156264606,1.855593875710248E-18,0.005086481387504351,-0.005370595199123587,-0.0,0.0,0.0,0.02923072688281536,0.3767261207103729,17.230037689208984,21.115260938718524
0.6700000166893005,2.0955639119470198E7,1023.8343215299565,4.4148275233996337E-16,2.0955639144481055E7,0.0010873188903133268,4.4148275233996347E-16,-21.509817198088964,1528.1120391442685,1.317845660193452E-15,5.320786903652623E-18,0.003782829792841147,21.435157862718142,29992.819021739066,2.972888727958886E-9,1.2070783554965479E-21,32.10655799172485,-1.380167690089146E-34,5.649800059818424E-30,-0.0027993126414898022,0.0,0.0,6.718855644083851E-19,-1286.1094717630885,994.8796256070732,8.909218044450394E-4,629.8724688958251,411.86440809309545,2.088886518629844E-18,0.005127268963404947,-0.005495692216876265,-0.0,0.0,-0.0,0.02946494147181511,0.38279110193252563,17.36811065673828,21.435157862718142
0.6800000071525574,2.0955638902766973E7,1039.1154420996118,4.547595556611836E-16,2.0955638928529993E7,0.0011255612830609607,4.547595556611836E-16,-21.830827192055935,1528.1120748186036,1.3375137128545003E-15,5.400879064376541E-18,0.0038657996654168406,21.75505353408987,29992.603070676327,3.0774490495216184E-9,1.243379088630739E-21,32.106558654520626,3.8825130377025917E-19,9.626021758350656E-24,-0.002841093487372529,0.0,0.0,6.718855644083851E-19,-1305.3032120453922,994.8805530645564,8.909288738816668E-4,629.8786412971125,411.8651759988712,2.086785816547588E-18,0.005168341494335481,-0.005622404558962146,-0.0,0.0,-0.0,0.029700785875320435,0.38894736766815186,17.50714683532715,21.75505353408987
0.6899999976158142,2.095563868285366E7,1054.396563026898,4.68233034805359E-16,2.0955638709379982E7,0.0011646377647593908,4.682330348053589E-16,-22.151835917463067,1528.1121106709363,1.3571821190927905E-15,5.4814024888182775E-18,0.003949648100551903,22.07494793674517,29992.38392066583,3.1842898948431724E-9,1.2802175631583505E-21,32.106559327134626,3.8825130376672364E-19,9.767580778140507E-24,-0.0028828743355357772,0.0,0.0,6.718855644083851E-19,-1324.4968762047101,994.8814942598806,8.909360480839987E-4,629.8849051822306,411.86595527988146,2.1518455162868982E-18,0.005209692273407877,-0.0057507385058131535,-0.0,0.0,-0.0,0.0299382247030735,0.3951948881149292,17.64712142944336,22.07494793674517
0.699999988079071,2.0955638459730268E7,1069.6776843136088,4.819031997278894E-16,2.0955638487031046E7,0.0012045571338603622,4.819031997278894E-16,-22.47284335816189,1528.1121467040164,1.376850930345659E-15,5.56240960322564E-18,0.0040343778431489365,22.394841054533895,29992.16157172993,3.2934353202974996E-9,1.3175938063326412E-21,32.10656000956676,-4.3258990073243525E-34,1.694940017899224E-29,-0.002924655186003607,0.0,0.0,6.718855644083851E-19,-1343.6904632720336,994.8824491929118,8.909433270532453E-4,629.891260552755,411.8667459360474,2.2886622662703393E-18,0.005251314760580549,-0.005880700095625307,-0.0,0.0,0.0,0.030177216976881027,0.40153369307518005,17.788013458251953,22.394841054533895
0.7099999785423279,2.0955638233396802E7,1084.9588059615653,4.957700521683632E-16,2.0955638261483178E7,0.0012453282179194503,4.957700521683633E-16,-22.79384949794473,1528.1121829205285,1.3965195479472259E-15,5.643302734255624E-18,0.004119991574673858,22.714732871246678,29991.93602386117,3.404909461835808E-9,1.3555078229441343E-21,32.106560701817074,1.94125651879749E-19,5.025343770811312E-24,-0.0029664360388001526,0.0,0.0,6.718855644083851E-19,-1362.8839722748007,994.8834178636433,8.909507107916209E-4,629.8977074111461,411.8675479673962,2.1682740066569466E-18,0.005293202579543421,-0.0060122951341662284,-0.0,0.0,-0.0,0.030417729169130325,0.4079637825489044,17.929800033569336,22.714732871246678
0.7200000286102295,2.095563800385328E7,1100.2399279726146,5.0983359572110415E-16,2.095563803273639E7,0.0012869598690485873,5.0983359572110415E-16,-23.114854320546975,1528.112219323095,1.4161893561231582E-15,5.725467103599588E-18,0.00420649191179165,23.0346233706172,29991.707277074456,3.5187365225531393E-9,1.3939596228549629E-21,32.1065614038855,3.8825130375580757E-19,1.0192252234878808E-23,-0.003008216893949617,0.0,0.0,6.718855644083851E-19,-1382.077402237032,994.8844002719719,8.909581993006369E-4,629.9042457592575,411.8683613738756,2.4555907516488935E-18,0.005335349514531688,-0.006145529204200384,-0.0,0.0,-0.0,0.030659722164273262,0.4144851863384247,18.07246208190918,23.0346233706172
0.7300000190734863,2.0955637771099716E7,1115.5210503486305,5.240938283182438E-16,2.095563780079071E7,0.001329460966417173,5.240938283182439E-16,-23.43585780964927,1528.1122559142761,1.4358566594513165E-15,5.805208288495135E-18,0.004293881411141216,23.35451253632442,29991.47533139214,3.6349407795268114E-9,1.4329492004464918E-21,32.10656211577199,-3.0075299835844326E-34,1.1299600119005947E-29,-0.003049997751476278,0.0,0.0,6.718855644083851E-19,-1401.2707521794653,994.885396417762,8.909657925815892E-4,629.9108755987627,411.869186155407,2.480398465722678E-18,0.005377749507105452,-0.006280407674570524,-0.0,0.0,0.0,0.03090316243469715,0.42109784483909607,18.21597671508789,23.35451253632442
0.7400000095367432,2.095563753513613E7,1130.8021730915116,5.385507444204046E-16,2.095563756564615E7,0.001372840413978338,5.385507444204047E-16,-23.7568599488796,1528.1122926965731,1.4555259749479892E-15,5.887044307830883E-18,0.004382162567061643,23.67440035199461,29991.240186832845,3.753546577599733E-9,1.4724765406089623E-21,32.10656283747649,-3.0487290922994804E-34,1.129960011889554E-29,-0.0030917786114044803,0.0,0.0,6.718855644083851E-19,-1420.4640211196765,994.8864063008928,8.909734906359223E-4,629.9175969314723,411.87002231192474,2.22511443002869E-18,0.005420396652898956,-0.006416935708931883,-0.0,0.0,0.0,0.031148018315434456,0.42780178785324097,18.360326766967773,23.67440035199461
0.75,2.0955637295962527E7,1146.0832962031811,5.532043455032268E-16,2.0955637327302717E7,0.0014171071406963165,5.532043455032269E-16,-24.07786072181531,1528.1123296724284,1.4751942090473424E-15,5.967882601476664E-18,0.004471337819322906,23.994286801203398,29991.0018434003,3.874578330002122E-9,1.5125416474131955E-21,32.10656356899897,-3.089928203406299E-34,1.1299600118783627E-29,-0.003133559473758637,0.0,0.0,6.718855644083851E-19,-1439.657208072204,994.8874299213077,8.909812934655995E-4,629.9244097596577,411.8708698434165,2.0354975184500573E-18,0.005463285198344647,-0.006555118274147366,-0.0,0.0,0.0,0.03139425069093704,0.43459704518318176,18.505489349365234,23.994286801203398
0.7599999904632568,2.0955637053578917E7,1161.364419685587,5.680546236195556E-16,2.095563708576041E7,0.0014622701003190741,5.680546236195557E-16,-24.39886011198502,1528.1123668442278,1.4948617333807516E-15,6.04809580949427E-18,0.004561409548805772,24.314171867477672,29990.760301094502,3.998060517729865E-9,1.5531444991672036E-21,32.106564310339444,-3.1311273169290223E-34,1.129960011867022E-29,-0.003175340338563228,0.0,0.0,6.718855644083851E-19,-1458.8503120486603,994.8884672789652,8.909892010727326E-4,629.9313140857275,411.87172874988295,2.2879597243408574E-18,0.005506409537385896,-0.006694960148350697,-0.0,0.0,-0.0,0.03164183720946312,0.44148358702659607,18.651447296142578,24.314171867477672
0.7699999809265137,2.095563680798532E7,1176.6455435407006,5.83101578327047E-16,2.0955636841019273E7,0.0015083382688771962,5.831015783270471E-16,-24.719858102870493,1528.112404214302,1.51452893113978E-15,6.1280681350015885E-18,0.004652380080230285,24.634055534297502,29990.51555995643,4.124017682706159E-9,1.5942850946987389E-21,32.10656506149778,-3.172326432891845E-34,1.1299600118555304E-29,-0.0032171212058427962,0.0,0.0,6.718855644083851E-19,-1478.0433320578502,994.8895183736472,8.909972134581208E-4,629.9383099109514,411.87259903117916,2.251900434423208E-18,0.00554976420817773,-0.0068364659286815725,-0.0,0.0,-0.0,0.031890735030174255,0.4484614431858063,18.79818344116211,24.634055534297502
0.7799999713897705,2.0955636559181757E7,1191.9266677705152,5.98345205189262E-16,2.0955636593079302E7,0.0015553206440017675,5.98345205189262E-16,-25.040854677908378,1528.112441784927,1.5341970039269248E-15,6.209002194816082E-18,0.004744251684656871,24.953937785097768,29990.267619986087,4.252474425916536E-9,1.6359634219156083E-21,32.10656582247399,-3.213525551319021E-34,1.1299600118438888E-29,-0.0032589020756219438,0.0,0.0,6.718855644083851E-19,-1497.236267105866,994.8905832053113,8.91005330623933E-4,629.9453972378033,411.873480687306,2.296204189757355E-18,0.005593343889819007,-0.006979640038743236,-0.0,0.0,-0.0,0.03214092180132866,0.4555306136608124,18.945676803588867,24.953937785097768
0.7900000214576721,2.0955636307168234E7,1207.207792377048,6.137855125343462E-16,2.0955636341940522E7,0.0016032262494718452,6.137855125343463E-16,-25.361849820491944,1528.1124795583269,1.5538648668583248E-15,6.289814122051636E-18,0.004837026581532714,25.273818603270033,29990.01648120582,4.383455419842362E-9,1.6781795036263542E-21,32.106566593268,-3.254724672234874E-34,1.129960011832097E-29,-0.003300682947925342,0.0,0.0,6.718855644083851E-19,-1516.429116196202,994.8916617738182,8.910135525716351E-4,629.9525760681504,411.87437371818487,2.425976059320258E-18,0.005637143399068608,-0.007124486735726252,-0.0,0.0,0.0,0.032392360270023346,0.462691068649292,19.093910217285156,25.273818603270033
0.800000011920929,2.0955636051944766E7,1222.4889173623376,6.294225055412534E-16,2.0955636087602936E7,0.0016520641279385018,6.294225055412534E-16,-25.682843513972685,1528.112517536675,1.573532544691133E-15,6.370529693394069E-18,0.004930706939373869,25.59369797216403,29989.76214361936,4.516985388567345E-9,1.7209333540296592E-21,32.1065673738798,-3.2959237956637753E-34,1.1299600118201546E-29,-0.0033424638227777135,0.0,0.0,6.718855644083851E-19,-1535.6218783298418,994.8927540791084,8.910218793033301E-4,629.959846404424,411.8752781238032,2.2427993986078026E-18,0.005681157687103092,-0.007271010117269602,-0.0,0.0,0.0,0.032645028084516525,0.4699428379535675,19.242868423461914,25.59369797216403
0.8100000023841858,2.095563579351137E7,1237.7700427284442,6.452561635533433E-16,2.0955635830066565E7,0.0017018433452449244,6.452561635533433E-16,-26.00383574166188,1528.1125557220944,1.5931997102499446E-15,6.4508227554351196E-18,0.005025294875310519,25.913575875089307,29989.50460724905,4.653089119589357E-9,1.764224916686401E-21,32.106568164309316,-3.337122921630166E-34,1.1299600118080628E-29,-0.003384244700203849,0.0,0.0,6.718855644083851E-19,-1554.8145525053585,994.8938601210415,8.910303108205417E-4,629.9672082485569,411.87619390408236,2.1392036711478173E-18,0.005725381836284474,-0.00741921412802332,-0.0,0.0,-0.0,0.03289889544248581,0.4772859215736389,19.392534255981445,25.913575875089307
0.8199999928474426,2.0955635531868055E7,1253.051168477449,6.612865036095425E-16,2.0955635569331426E7,0.0017525729876979312,6.612865036095426E-16,-26.324826486832116,1528.1125941166592,1.6128692991950099E-15,6.533629992791652E-18,0.005120792459179703,26.23345229531669,29989.2438721098,4.791791456360408E-9,1.8080542382231496E-21,32.106568964556516,-3.3783220501585373E-34,1.12996001179582E-29,-0.0034260255802285914,0.0,0.0,6.718855644083851E-19,-1574.0071377190015,994.8949798995087,8.910388471250634E-4,629.974661602725,411.8771210589702,2.96074859766939E-18,0.005769811056970143,-0.007569102565957817,-0.0,0.0,-0.0,0.03315393254160881,0.4847203195095062,19.542888641357422,26.23345229531669
0.8299999833106995,2.095563526701484E7,1268.3322946114533,6.775135463190459E-16,2.095563530539752E7,0.001804262162067971,6.775135463190461E-16,-26.645815732718702,1528.1126327223967,1.6325380538501984E-15,6.615694755980949E-18,0.005217201712615818,26.553327216079744,29988.97993820533,4.9331172982866835E-9,1.8524213750286094E-21,32.10656977462138,-3.4195211812734313E-34,1.1299600117834274E-29,-0.0034678064628768357,0.0,0.0,6.718855644083851E-19,-1593.1996329647845,994.8961134144489,8.910474882190844E-4,629.9822064694581,411.87805958845445,2.6202086900746895E-18,0.005814440684355898,-0.007720679088409198,-0.0,0.0,-0.0,0.03341011330485344,0.4922460615634918,19.693920135498047,26.553327216079744
0.8399999737739563,2.095563499895174E7,1283.613421132579,6.939372710862587E-16,2.095563503826488E7,0.0018569199937701342,6.939372710862589E-16,-26.966803462521064,1528.1126715412884,1.6522077597481067E-15,6.698803606446355E-18,0.005314524611324362,26.87320062057612,29988.712805565447,5.0770915957551994E-9,1.8973262708320392E-21,32.10657059450382,-3.460720314999453E-34,1.1299600117708848E-29,-0.003509587348173538,0.0,0.0,6.718855644083851E-19,-1612.3920372345672,994.8972606656878,8.910562341039682E-4,629.9898428505716,411.8790094924298,2.7954406141370223E-18,0.005859266175348563,-0.007873947217862482,-0.0,0.0,0.0,0.03366741165518761,0.4998631179332733,19.845609664916992,26.87320062057612
