time,eiPosition_ft_X,eiPosition_ft_Y,eiPosition_ft_Z,gePosition_ft_X,gePosition_ft_Y,gePosition_ft_Z,eiVelocity_ft_s_X,eiVelocity_ft_s_Y,eiVelocity_ft_s_Z,feVelocity_ft_s_X,feVelocity_ft_s_Y,feVelocity_ft_s_Z,altitudeMsl_ft,longitude_deg,latitude_deg,localGravity_ft_s2,eulerAngle_deg_Yaw,eulerAngle_deg_Pitch,eulerAngle_deg_Roll,bodyAngularRateWrtEi_deg_s_Roll,bodyAngularRateWrtEi_deg_s_Pitch,bodyAngularRateWrtEi_deg_s_Yaw,altitudeRateWrtMsl_ft_min,speedOfSound_ft_s,airDensity_slug_ft3,ambientPressure_lbf_ft2,ambientTemperature_dgR,aero_bodyForce_lbf_X,aero_bodyForce_lbf_Y,aero_bodyForce_lbf_Z,aero_bodyMoment_ftlbf_L,aero_bodyMoment_ftlbf_M,aero_bodyMoment_ftlbf_N,mach,dynamicPressure_lbf_ft2,trueAirspeed_nmi_h
0.0,2.092564632546E7,0.0,0.0,2.092564632546E7,0.0,0.0,0.32808399,1525.9221945458175,-5.261804925388061E-17,-5.059913855142778E-17,-4.052205619664573E-18,-0.32808398999999994,0.0,0.0,0.0,32.19881021407498,90.0,55.219999999999985,1.1151489152697565E-14,-2.319297050098701E-19,-0.0041780741322344,8.407451806607791E-19,19.685039399999997,1116.449481741113,0.0023768988323037404,2116.22,518.67,0.005046011565448302,2.3142341372908817E-18,0.01545586925814647,0.0,0.9154011131020584,-1.390939263910773E-16,2.9386371292711784E-4,1.2792363089138482E-4,0.19438209604639262
0.10000000000000007,2.0925646959440935E7,153.12154456178985,-6.590492684499152E-17,2.0925646960001156E7,0.5293204814278053,-6.590492684499152E-17,11.489739194055266,1535.9102171941008,-1.1803761779932242E-15,-1.0919060382484302E-15,9.987892300182262,-11.500978051432135,0.6345411613583565,1.449313832619703E-6,1.3477870420293907E-20,32.19880825814063,90.00000000000006,55.22000138153204,3.345446861959434E-14,-2.319297050098701E-19,-0.004180931665263638,8.416446587521809E-19,690.0586830859281,1116.4470483669356,0.0023768547374127995,2116.1715163794534,518.6677390525415,-4.895645677751011,-5.6779564550863845E-15,-16.484865274559123,0.0,-39.44716363874701,1.3726044800877006E-14,0.013643770246907667,0.2757513831924191,9.02492809240682
0.20000000000000015,2.0925648732430533E7,307.25775692441283,-2.5004271780159037E-16,2.092564873468621E7,2.0732828895788433,-2.5004271780159037E-16,22.89265849007359,1546.0657332667342,-2.414256513713014E-15,-2.2375989415101674E-15,20.143026770560507,-22.91535982006375,2.4092263132333755,5.676782632437538E-6,5.1134922856288096E-20,32.19880278778304,90.00000000000014,55.22000444553002,8.3636177989009E-14,-2.319297050098701E-19,-0.00420361459151505,8.486225420256831E-19,1374.9215892038249,1116.4402368741573,0.0023767313109816757,2116.03580653706,518.6614102422557,-19.803579606742275,-2.4744654779208184E-14,-70.24275096617885,0.0,-171.73429567954415,6.134976823642067E-14,0.027327858131599058,1.1061964012078929,18.076414757909106
0.3000000000000002,2.0925651646838337E7,462.4102916383989,-5.601154893974908E-16,2.0925651651946943E7,4.6335167882115025,-5.601154893974908E-16,34.31813125383904,1556.236636435968,-3.889975039900519E-15,-3.749965564645424E-15,30.313294782370857,-34.35252058083795,5.326487455517054,1.2686866850468031E-5,1.1454627670332644E-19,32.198793795508415,90.00000000000014,55.220006099336445,7.248469060303525E-14,-2.319297050098701E-19,-0.004268710562884855,8.570841029611817E-19,2061.151234850277,1116.4290399252234,0.0023765284309713998,2115.8127394851876,518.6510068260925,-44.74657098443119,5.502071775563544E-15,-161.33843669583962,0.0,-404.49397598675733,-1.082748373805313E-15,0.04103686886556187,2.49415650091543,27.14416983533991
0.4000000000000003,2.0925655704926234E7,618.5806813595364,-1.0454438462847316E-15,2.0925655714067515E7,8.211529780034276,-1.0454438462847316E-15,45.76628717871801,1566.422805591615,-5.68803011787676E-15,-3.649392641955481E-15,40.49857288198945,-45.8125919585111,9.388609126210213,2.248369208452758E-5,2.1379822975996638E-19,32.198781274279256,90.00000000000009,55.22000089722702,5.575744702070385E-14,-2.319297050098701E-19,-0.00440070796690579,8.639858907429135E-19,2748.755517510666,1116.4134486232817,0.0023762459541583703,2115.5021630123524,518.6365206604776,-79.76959213172991,7.867964809672697E-14,-289.81351484238695,0.0,-745.3314970730912,-3.9000261699295786E-13,0.05477072514040854,4.442306251515764,36.22803454488074
0.5000000000000003,2.0925660908968903E7,775.7704466786275,-1.715178194535936E-15,2.092566092334493E7,12.808817335999064,-1.715178194535936E-15,57.23725528846079,1576.6241205382573,-7.502036113935385E-15,-7.269438626888558E-15,50.69873851583611,-57.295704911043174,14.597888845950365,3.507134979368413E-5,3.5076208350917525E-19,32.19876521701978,90.00000000000004,55.21998084921353,3.903019325027013E-14,-2.319297050098701E-19,-0.0046260044395224,9.077537053044272E-19,3437.74229466259,1116.393453970747,0.002375883742611008,2115.103932807615,518.617943556854,-124.91541450064307,-3.75098617979676E-14,-455.69315380629234,0.0,-1201.8293783365525,1.003244219594096E-13,0.0685295551307945,6.953213710817352,45.327985341739165
0.6000000000000004,2.0925667261253968E7,933.9810962526819,-2.5675835197613806E-15,2.0925667282089174E7,18.42686292603294,-2.5675835197613806E-15,68.73116342656832,1586.840462749439,-9.372185864749354E-15,-1.2912336329636502E-14,60.91367078455905,-68.8019892189633,20.956637285649776,5.045389765090895E-5,5.250830192713566E-19,32.19874561661545,90.00000000000006,55.219935229716846,3.903014850418567E-14,-2.319297050098701E-19,-0.0049729146509406704,9.79205826494799E-19,4128.119353137798,1116.3690468683628,0.0023754416637187395,2114.617912504524,518.5952672811474,-180.22455800069602,-3.0492553330215986E-13,-658.9853894789808,0.0,-1781.5402748710017,8.355729700161869E-13,0.08231352235317928,10.029339194071179,54.444021362584735
0.7000000000000005,2.0925674764081795E7,1093.2141270146326,-3.6060128575092544E-15,2.0925674792623017E7,25.067138228280204,-3.6060128575092544E-15,80.24813770588945,1597.0717161804473,-1.1270765273021882E-14,-7.695874016991797E-15,71.14325125585809,-80.33157293500943,28.467178028076887,6.863536011068729E-5,7.374467487344912E-19,32.19872246591368,89.99999999999999,55.219850385544035,5.575723612106214E-15,-2.319297050098701E-19,-0.005471676395676099,1.090683214969642E-18,4819.894376100566,1116.3402181157428,0.0023749195902477843,2114.043973754115,518.568483554611,-245.7352357217945,1.5131995990147242E-13,-899.6802006666983,0.0,-2491.979007115128,-6.961490947563385E-14,0.09612280149884499,13.673034083738715,63.576148429546336
0.8000000000000006,2.092568341976514E7,1253.4710244674989,-4.829749715201264E-15,2.092568345728167E7,32.73110342282023,-4.829749715201264E-15,91.78830191752783,1607.3177681412592,-1.3128166711610539E-14,-1.2756310726451968E-14,81.38736483751151,-91.88458179312791,37.1318472661078,8.961972920792183E-5,9.877067457648041E-19,32.19869575772487,90.00000000000007,55.21970954335253,5.0181334895049093E-14,-2.319297050098701E-19,-0.006154454752823002,1.2305360981328958E-18,5513.074907587675,1116.3069584121513,0.0023743174004011527,2113.38199630213,518.537584054899,-321.48329201396274,-1.8544407762965528E-13,-1177.7483546234753,0.0,-3340.6136146968374,5.325465052088973E-13,0.10995757250180531,17.8865396830091,72.72437511597771
0.9000000000000007,2.0925693230628975E7,1414.7532630691132,-6.238956053448527E-15,2.0925693278412607E7,41.420207575964824,-6.238956053448527E-15,103.35177689812461,1617.5785102313173,-1.49739330807109E-14,-1.0370185305203404E-14,91.64590071224781,-103.46113857590127,46.9529935978353,1.1341096560483997E-4,1.2758961320761685E-18,32.19866548482291,90.00000000000004,55.21949261680415,2.7878367408550467E-14,-2.319297050098701E-19,-0.007055344047576252,1.4613098948709945E-18,6207.6683145540765,1116.2692583569735,0.002373634977873055,2112.6318680596546,518.5025604168586,-407.5021327128964,2.0109835732593088E-13,-1493.1400027878503,0.0,-4334.8552787981525,-1.189862372876557E-13,0.12381801866339177,22.6719861158815,81.88871149549043
1.0000000000000007,2.0925704199010264E7,1577.0623067136553,-7.865124044737103E-15,2.0925704258375302E7,51.1358891213406,-7.865124044737103E-15,114.93867985456582,1627.8538393378365,-1.7562376536159003E-14,-1.5906812392123004E-14,101.91875333618792,-115.06136243946126,57.93297778069973,1.4001299990289563E-4,1.6084552064495692E-18,32.198631639946086,90.00000000000006,55.21917601364756,3.9029403842451835E-14,-2.319297050098701E-19,-0.008210367302855843,1.1660340500295305E-18,6903.681746367676,1116.2271084501972,0.002372872211903354,2111.7934851733635,518.4634042333373,-503.8226462796379,7.967681139523347E-16,-1845.7830063690512,0.0,-5482.04694193513,-5.23872730829882E-16,0.1377043259994498,28.031391276735416,91.06916869960125
1.0999999999999897,2.092571632725742E7,1740.3996093164617,-9.767998208420624E-15,2.092571639954077E7,61.87957644431502,-9.767998208420624E-15,126.549123645149,1638.1436586993789,-2.0294190684084896E-14,-1.847172359857919E-14,112.20582350261003,-126.68536819492465,70.07417226210237,1.69429734237623E-4,1.9976020067270763E-18,32.19859421579844,90.00000000000013,55.21873244299508,6.133123667230366E-14,-2.319297050098701E-19,-0.009657472824085285,6.5454386754938E-19,7601.122091695479,1116.1804990938567,0.0023720289973494157,2110.8667521144394,518.4201070568924,-610.4731145075546,-8.491145365977046E-14,-2235.580971587822,0.0,-6789.45044293513,2.6061128517354026E-13,0.15161668303752204,33.96665983262297,100.26575877300323
1.1999999999999786,2.0925729617729854E7,1904.766615508698,-1.194410963474462E-14,2.092572970429102E7,73.65268857629697,-1.194410963474462E-14,138.1832160162313,1648.447879036409,-2.3022901351241606E-14,-2.354139276783278E-14,122.5070194727296,-138.33326554538124,83.37896063551307,2.0166504417432348E-4,2.4426271243954175E-18,32.198553205051496,90.00000000000017,55.218130723101694,8.3632239960116E-14,-2.319297050098701E-19,-0.011436527511195742,1.811767763371398E-19,8299.995932722873,1116.1294205938166,0.0023711052347638872,2109.8515817735397,518.3726604018206,-727.4791112933495,7.173356035288952E-13,-2662.410974692114,0.0,-8264.231974779228,-3.931611320713804E-12,0.16555528080672338,40.479582281449915,109.47849465625019
1.2999999999999676,2.0925744072797418E7,2070.1647614486974,-1.4388108738713884E-14,2.092574417501857E7,86.45663600572044,-1.4388108738713884E-14,149.84105879337648,1658.7664197506197,-2.5691014564896916E-14,-2.6253402439406955E-14,132.8222581752963,-150.00515827745704,97.84973717108369,2.367227809232257E-4,2.942436543926174E-18,32.198508600345754,90.00000000000018,55.2173355899956,9.478131148430561E-14,-2.319297050098701E-19,-0.013589306439929075,-8.047602801934895E-21,9000.309496647422,1116.0738631610618,0.002370100830463412,2108.747895545312,518.3210557457342,-854.863387783746,7.38120995358317E-13,-3126.1209573292767,0.0,-9913.445663574297,-6.310512581727553E-13,0.17952031292166887,47.57183406906655,118.70739023052766
1.3999999999999566,2.0925759694839876E7,2236.5954757569148,-1.7098941595118395E-14,2.0925759814125884E7,100.29282161267233,-1.7098941595118395E-14,161.5227470260176,1669.0992101947518,-2.8364625559880654E-14,-3.014021323769992E-14,143.15146647672543,-161.70114340647356,113.48890622332692,2.7460677389317577E-4,3.4968147326104356E-18,32.19846039429247,90.00000000000027,55.21630750735819,1.449559081076678E-13,-2.319297050098701E-19,-0.016159478199590502,-1.184487645515199E-21,9702.068604388414,1116.0138169135537,0.002369015696607373,2107.555623423435,518.2652845316709,-992.6457420055551,6.129350955861427E-13,-3626.526773482899,0.0,-11744.015058304904,-5.643648995953452E-13,0.19351197571811918,55.244974768771854,127.95246039658737
1.4999999999999456,2.0925776486245994E7,2404.0601805816495,-2.00853973799523E-14,2.0925776624024462E7,115.16264173435074,-2.00853973799523E-14,173.2283680846596,1679.4461910146103,-3.113998891884116E-14,-3.1790628848524447E-14,153.49458252350612,-173.42131027424088,130.29888135194778,3.153208336035387E-4,4.1075591186652E-18,32.198408579476414,90.0000000000003,55.215002478107905,1.6167628819750602E-13,-2.319297050098701E-19,-0.019192585416696023,-1.056941298502921E-20,10405.278616454452,1115.9492718793542,0.0023678497512992745,2106.274704120018,518.2053381713848,-1140.8428708468844,8.410102602352529E-13,-4163.408869959948,0.0,-13762.712313226477,-8.297181415560262E-13,0.20753046842063108,63.500447327092225,137.2137211749116
1.5999999999999346,2.09257944494129E7,2572.560292802804,-2.335096221556405E-14,2.092579460713422E7,131.0674873685721,-2.335096221556405E-14,184.95800070965768,1689.8073155649606,-3.393303402301921E-14,-3.4628082358041566E-14,163.8515571585098,-185.165739598515,148.28208468481898,3.5886875497406247E-4,4.775382630660924E-18,32.19835314845781,90.00000000000031,55.213371858196496,1.7281929652763686E-13,-2.319297050098701E-19,-0.022736019833634567,6.083608412398485E-21,11109.9443759109,1115.880217998528,0.0023666029186657353,2104.9050851598554,518.141208047508,-1299.4682019478948,8.001552802519285E-13,-4736.5085832373115,0.0,-15976.134837535268,-8.420740179365182E-13,0.22157599333290492,72.33957737839295,146.4911898206844
1.6999999999999236,2.0925813586745046E7,2742.097225381185,-2.6896459474049462E-14,2.0925813765882418E7,148.00874552289488,-2.6896459474049462E-14,196.7117140106325,1700.182551400866,-3.673133232606343E-14,-3.747102092039472E-14,174.22235541283231,-196.93450247319925,167.4409458488226,4.0525432101343547E-4,5.500453652100124E-18,32.19829409377573,90.00000000000034,55.21136217320049,1.8953417467045134E-13,-2.319297050098701E-19,-0.02683899124870292,5.131501472652345E-20,11816.070148391955,1115.8066451267835,0.00236527512896656,2103.4467230082682,518.0728855173336,-1468.5317027680287,7.26587337808822E-13,-5345.524036726463,0.0,-18390.679181609208,-8.124723747453846E-13,0.23564875604531482,81.76357263305351,155.7848849502491
1.7999999999999126,2.0925833900653247E7,2912.6723888609254,-3.071643664743394E-14,2.0925834102702744E7,165.9878007168947,-3.071643664743394E-14,208.48956641561696,1710.5718818459522,-3.949478782476159E-14,-3.650200819221238E-14,184.60695807460527,-208.72765931838563,187.77790106460452,4.5448130692715547E-4,6.2816571192164715E-18,32.19823140795074,90.00000000000036,55.20891493835672,1.895225228155174E-13,-2.319297050098701E-19,-0.03155248955895912,1.8854776920673898E-19,12523.659559103138,1115.7285430387112,0.0023638663186970484,2101.8995831898305,518.0003619162268,-1648.0396636795479,-1.3274545364003263E-12,-5990.105623680275,0.0,-21012.511924154514,4.68656907831692E-12,0.24974896565719681,91.77352234198908,165.09482667721792
1.8999999999999015,2.092585539355355E7,3084.2871930328092,-3.481502283891977E-14,2.0925855620034143E7,185.00603664542103,-3.481502283891977E-14,220.29160456906973,1720.9753076389484,-4.231950069065189E-14,-4.314933078508694E-14,195.0053633361626,-220.5452587793794,209.29539196193218,5.065534846661528E-4,7.119837453217554E-18,32.198165083488774,90.00000000000038,55.20596648277295,1.9508226592003563E-13,-2.319297050098701E-19,-0.036929239080520794,2.911749612196655E-19,13232.715526762764,1115.6459014317163,0.0023623764307023564,2100.263640419725,517.9236285616862,-1837.994451523027,6.829091663179701E-13,-6669.851062598496,0.0,-23847.537321907483,-8.535226523859781E-13,0.26387683501215714,102.37039684167245,174.42103675721643
1.9999999999998905,2.092587806786595E7,3256.9430487663844,-3.919113635596291E-14,2.0925878320319545E7,205.064838010702,-3.919113635596291E-14,232.11786217795247,1731.392848659667,-4.4999089894155974E-14,-4.334806717966112E-14,205.41758852071504,-232.38733657391185,231.9958643168211,5.61474627937701E-4,8.014773442842833E-18,32.198095112884864,90.00000000000041,55.20244777863012,2.117848855694857E-13,-2.319297050098701E-19,-0.04302364425262991,7.19017191048886E-19,13943.240194434711,1115.558709930478,0.002360805414300759,2098.538878744237,517.8426767578982,-2038.3942295490374,-2.136730183371525E-12,-7384.300013733169,0.0,-26901.36148215343,7.825513362251606E-12,0.27803258094546535,113.55504718334831,183.76353874064
2.0999999999998797,2.0925901926013097E7,3430.641370018809,-4.3834960168248403E-14,2.0925902206004597E7,226.16559253124112,-4.3834960168248403E-14,243.96835880513183,1741.8245457354033,-4.7731315280145225E-14,-5.041327697988412E-14,215.84367188951228,-244.25391428680936,255.8817667849362,6.192485177003604E-4,8.964457458787016E-18,32.19802148862711,90.00000000000041,55.19828427628498,2.17335447274574E-13,-2.319297050098701E-19,-0.0498917257623806,1.1225994272377621E-18,14655.234857208561,1115.4669580914895,0.0023591532254077416,2096.725291681477,517.7574978003686,-2249.2326390909616,5.482106431006494E-13,-8132.928247339861,0.0,-30179.25281898702,-7.573328505432593E-13,0.2922164245430347,125.3282048497712,193.12235813303064
2.1999999999998687,2.0925926970418815E7,3605.3835760285606,-4.87547529656246E-14,2.0925927279536135E7,248.30969313567348,-4.87547529656246E-14,255.84309860946433,1752.270462528446,-5.0435393683605284E-14,-5.1403385045778813E-14,226.28367453020581,-256.14499811148994,280.95554937049747,6.798789481653165E-4,9.970578442331826E-18,32.19794420320147,90.0000000000004,55.19339574628358,2.0616473315224973E-13,-2.319297050098701E-19,-0.05759104605699165,1.7251483246584477E-18,15368.699886689395,1115.3706354083413,0.0023574198266726526,2094.8228823752142,517.6680829812477,-2470.498437678758,6.143639125943112E-13,-8915.141356737813,0.0,-33686.09855741972,-8.891554533714497E-13,0.3064285914113956,137.69048156358,202.49752256278686
2.2999999999998577,2.092595320350638E7,3781.1710937021126,-5.3951289602658425E-14,2.0925953543360513E7,271.4985403496792,-5.3951289602658425E-14,267.7420690320126,1762.7306875051488,-5.3251615195330335E-14,-5.619656462104626E-14,236.7376823268526,-268.0605775377314,307.21966175734997,7.433697333262819E-4,1.1033294854914786E-17,32.19786324909684,90.00000000000036,55.187696129398326,1.8942156963728425E-13,-2.319297050098701E-19,-0.06618062314049666,2.186306534115475E-18,16083.634652263883,1115.2697313178162,0.002355605187629156,2092.831663763108,517.574423595411,-2702.175087568112,3.3143057797575243E-13,-9730.268011939483,0.0,-37426.35705501387,-5.014852812419406E-13,0.3206693119582409,150.642369191144,211.88906195596743
2.3999999999998467,2.0925980627696957E7,3958.00536020171,-5.942456999214732E-14,2.0925980999922E7,295.7335448840595,-5.942456999214732E-14,279.6652394279767,1773.2053359866022,-5.599080370791589E-14,-5.7053669195941E-14,247.20580801159676,-280.0006239853198,334.67655170336366,8.097247140401402E-4,1.2152606678702558E-17,32.19777861881005,90.00000000000037,55.18109339592232,2.0053078190043485E-13,-2.319297050098701E-19,-0.07572083148229153,2.9305966262997376E-18,16800.037439119187,1115.1642352054694,0.0023537092848353847,2090.7516587328655,517.4765109460614,-2944.24028780961,7.228463357493818E-13,-10577.552752554828,0.0,-41404.00571876281,-1.141307715947876E-12,0.3349388216835126,164.1842397439025,221.29700871793352
2.4999999999998357,2.0926009245407548E7,4135.887825742411,-6.517167547998402E-14,2.0926009651660748E7,321.0161304322236,-6.517167547998402E-14,291.6125596440645,1783.6945522806004,-5.87715193798168E-14,-5.988291083669715E-14,257.6881932977559,-291.9650893832975,363.32866302505136,8.78947765680928E-4,1.3327917035074032E-17,32.19769030485206,90.0000000000004,55.17348941556838,2.0606176317833815E-13,-2.319297050098701E-19,-0.0862732887970281,3.6676963422219375E-18,17517.905362997848,1115.054136413123,0.0023517321020474925,2088.582900314245,517.3743363521127,-3196.665442146573,7.804821339024609E-13,-11456.148322427307,0.0,-45622.48430777329,-1.283676586879223E-12,0.3492373614799679,178.31634548311047,230.7213979215801
2.5999999999998247,2.0926039059049103E7,4314.819956606453,-7.119212808488947E-14,2.092603950101092E7,347.3477366850625,-7.119212808488947E-14,303.58395854119067,1794.1985118941031,-6.149215255296393E-14,-5.716963185427965E-14,268.18501109347756,-303.9539046947144,393.178433701396,9.510428063889643E-4,1.4559128174588452E-17,32.19759829975389,90.0000000000004,55.164779839451136,2.0044873079422158E-13,-2.319297050098701E-19,-0.09790072738961117,4.828806147355231E-18,18237.234281682864,1114.939424245504,0.0023496736303765197,2086.325431851892,517.2678911547747,-3459.415053926025,-3.841994605318824E-12,-12365.107551972433,0.0,-50084.63342630025,1.5591935637855107E-11,0.363565177943476,193.03881912801012,240.16226750181903
2.6999999999998137,2.092607007102419E7,4494.803238382944,-7.749020022197998E-14,2.0926070550398324E7,374.729822571326,-7.749020022197998E-14,315.5793424625943,1804.7174238248779,-6.433009086017912E-14,-5.98434195111422E-14,278.69646779469616,-315.9669783869794,424.2282935231924,0.0010260138059373731,1.584711382642019E-17,32.19750259607382,90.00000000000038,55.154853995763766,2.059654829711523E-13,-2.319297050098701E-19,-0.11066684869660864,5.6742188020925546E-18,18958.018703218764,1114.8200879789151,0.002347533868480414,2083.979307215847,517.1571667260253,-3732.4460382336047,-4.258747554532196E-12,-13303.374799007253,0.0,-54792.6280329428,1.7564446556999733E-11,0.37792252369162427,208.35167417382257,249.61965845595023
2.7999999999998026,2.0926102283724807E7,4675.839179440661,-8.406809753574723E-14,2.0926102802238252E7,403.16386973116613,-8.406809753574723E-14,327.598593647681,1815.2515329304035,-6.704959295740238E-14,-6.831222875311772E-14,289.2228056554337,-328.0041948481248,456.4806619435549,0.0011038647952369403,1.719232505533899E-17,32.19740318640399,90.00000000000043,55.14359480090075,2.2260255815605487E-13,-2.319297050098701E-19,-0.12463615959729239,7.19813732575838E-18,19680.25169088749,1114.6961168691346,0.0023453128227406903,2081.5445909942505,517.0421544763644,-4015.706940151149,4.944377390431356E-13,-14269.776963248489,0.0,-59747.9058140125,-9.10836735696441E-13,0.39230965769073695,224.25480531843266,259.0936150494371
2.8999999999997916,2.0926135699529793E7,4857.929314641569,-9.092507594329125E-14,2.0926136258932877E7,432.65138623058925,-9.092507594329125E-14,339.64156859216075,1825.801122371486,-6.989704080258212E-14,-7.121241095933505E-14,299.76430523293806,-340.06541274956965,489.93794544413686,0.0011845998765005288,1.85946096928593E-17,32.19730006337863,90.00000000000043,55.130878687923435,2.336582349541122E-13,-2.319297050098701E-19,-0.13987378901502695,8.31780683872939E-18,20403.924764974177,1114.5675001608936,0.0023430105074657014,2079.021358714248,516.9228458640303,-4309.1370468957575,5.256165134637972E-13,-15263.014095536666,0.0,-64951.09030001165,-1.0028664926309538E-12,0.40672684558976047,240.74798900315193,268.58418502656474
2.9999999999997806,2.0926170320802264E7,5041.075209302301,-9.805940557736851E-14,2.0926170922868717E7,463.19391052397646,-9.805940557736851E-14,351.70809635532595,1836.3665161272538,-7.262634957103097E-14,-7.399586041315161E-14,310.32128790430056,-352.15046335622543,524.6025350391865,0.0012682232340866185,2.0053613972917362E-17,32.19719321968168,90.00000000000043,55.116575554414815,2.335745624572506E-13,-2.319297050098701E-19,-0.15644528328425353,1.0208249906902437E-17,21129.027801373526,1114.434227097244,0.002340626945090066,2076.4096970576256,516.7992324041071,-4612.665380158804,5.594384728659953E-13,-16281.649628440704,0.0,-70401.90863722158,-1.1042173754831508E-12,0.42117436006052145,257.8308840667224,278.09141982530656
3.0999999999997696,2.092620614988661E7,5225.278463410606,-1.0547123907132667E-13,2.0926206796413604E7,494.7930156717802,-1.0547123907132667E-13,363.79797681565793,1846.948081577375,-7.538568981608261E-14,-7.681091548272456E-14,320.89411845042315,-364.25914878514254,560.4768032096326,0.0013547391460414558,2.1569369109757392E-17,32.19708264805631,90.00000000000047,55.100548731924164,2.5015810170514365E-13,-2.319297050098701E-19,-0.17441637872133306,1.2250134542016948E-17,21855.548927108553,1114.2962869307066,0.0023381621664039657,2073.7097041080815,516.6713056792821,-4926.209553676357,1.2162651613134806E-14,-17324.100261868956,0.0,-76099.10396858104,-2.4807071653109657E-14,0.4356524811425112,275.50303251705793,287.6153747956413
3.1999999999997586,2.0926243189105585E7,5410.540716103102,-1.1315915618090745E-13,2.0926243881913804E7,527.4503138196446,-1.1315915618090745E-13,375.9109788763047,1857.546232146486,-7.813800296616083E-14,-7.962069952576748E-14,331.48320770230924,-376.39124021425533,597.5631010495126,0.001444151996356876,2.314158465668603E-17,32.19696834131368,90.0000000000005,55.08265497936279,2.667159160569105E-13,-2.319297050098701E-19,-0.1938527498108012,1.463294492625753E-17,22583.47441285532,1114.1536689340116,0.002335616210772836,2070.9214895868045,516.5390573502152,-5249.674479507169,9.348549277008818E-15,-18388.625544096827,0.0,-82040.34242336571,-1.9682669312866852E-14,0.4501614965916175,293.76386041744564,297.15610942044015
3.2999999999997476,2.0926281440757234E7,5596.863650410344,-1.21123383152182E-13,2.092628218169091E7,561.167460944993,-1.21123383152182E-13,388.04683862239614,1868.1614300047331,-8.095965236213762E-14,-8.250177241885146E-14,342.0890152435754,-388.5464760431842,635.8637551516294,0.0015364662879603472,2.4770306882098916E-17,32.19685029234257,90.00000000000054,55.06274450286618,2.8324467498454205E-13,-2.319297050098701E-19,-0.21481973140381364,1.6789977692512418E-17,23312.788562591053,1114.0063624114628,0.0023329891263658303,2068.0451750964507,516.4024791664805,-5582.950905154536,5.386837635495263E-15,-19473.317196838216,0.0,-88222.1147707752,-1.1696114519109126E-14,0.46470170223087015,312.61267888849346,306.7136875378889
3.3999999999997366,2.0926320907111257E7,5784.248998274363,-1.2936986395837663E-13,2.0926321698038246E7,595.9461618763397,-1.2936986395837663E-13,400.20525743261106,1878.7941888173118,-8.375474616116428E-14,-8.535845389281764E-14,352.7120521621293,-400.72456000853316,675.3810640126467,0.001631686656451652,2.6456751356739566E-17,32.19672849412048,90.00000000000061,55.04066100480515,3.163930360931471E-13,-2.319297050098701E-19,-0.23738201332509978,1.9430762544696077E-17,24043.47360051199,1113.854356712502,0.002330280970420902,2065.080894403934,516.2615629795397,-5925.913762310786,1.6732247793003462E-15,-20576.088241771613,0.0,-94639.63285541243,-3.743094046118322E-15,0.4792734023007871,332.0486852288768,316.28817756431823
3.4999999999997256,2.0926361590405628E7,5972.698545843168,-1.3789351339655424E-13,2.0926362433217473E7,631.7881755897528,-1.3789351339655424E-13,412.38590004794565,1889.445076534646,-8.653139929904098E-14,-8.077055914094318E-14,363.35288384257086,-412.9251592566169,716.1172946356237,0.0017298178845982551,2.819987813246558E-17,32.19660293972407,90.00000000000054,55.01624176478111,2.884634423523763E-13,-2.319297050098701E-19,-0.261603305800589,2.2518563396648444E-17,24775.509555397013,1113.6976412442577,0.002327491809488756,2062.028793698716,516.1163007547584,-6278.420306473071,-8.075517488441983E-12,-21694.661994494552,0.0,-101286.72099954396,3.757693515600758E-11,0.4938769098085369,352.0709641459291,325.8796527160979
3.5999999999997145,2.092640349284279E7,6162.214139045757,-1.4669677809638215E-13,2.092640438945479E7,668.6953207860062,-1.4669677809638215E-13,424.5883926011882,1900.1147182135924,-8.933214328268165E-14,-9.106644440524006E-14,374.01213278977355,-425.1479023771414,758.0746787413955,0.0018308649175990854,3.0000187556659174E-17,32.19647362234094,90.00000000000058,54.9893177556038,3.1044450566860897E-13,-2.319297050098701E-19,-0.28754597415209393,2.5728569214840793E-17,25508.874142628483,1113.5362054857767,0.002324621719703818,2058.889031879259,515.9666845849765,-6640.308025715868,-1.3252403873345532E-13,-22826.561002790044,0.0,-108155.7026398166,6.254336564328792E-13,0.508512546872636,372.67848909930007,335.4881912291693
3.6999999999997035,2.0926446616585553E7,6352.797689450162,-1.557768240140246E-13,2.0926447568936817E7,706.6694817509789,-1.557768240140246E-13,436.81232061125075,1910.8037988586461,-9.20905456113894E-14,-9.389435559076254E-14,384.69048147261645,-437.39237740199576,801.2554086484015,0.001934832879123716,3.185710005390147E-17,32.19634053528221,90.00000000000058,54.95971379740101,3.1021572820485996E-13,-2.319297050098701E-19,-0.3152706412615412,2.973382074947515E-17,26243.542644119745,1113.3700390034387,0.0023216707870726805,2055.661780857092,515.8127067051539,-7011.39229578457,-2.10670902032467E-13,-23969.096016427935,0.0,-115237.2825525245,1.008192877835729E-12,0.5231806450608241,393.8701237533615,345.1138765745904
3.7999999999996925,2.0926490963753205E7,6544.451180405903,-1.6513279319833654E-13,2.0926491973806754E7,745.7126145006503,-1.6513279319833654E-13,449.0572269472115,1921.51306627064,-9.481596508344756E-14,-9.988950683218953E-14,395.3886751753005,-449.6581297739885,845.6616334356368,0.002041727088130571,3.37704401691102E-17,32.196203671994446,90.00000000000055,54.927248753151396,3.044302277928423E-13,-2.319297050098701E-19,-0.3448357563866811,3.4385674294554706E-17,26979.48778643931,1113.199131465493,0.002318639107743401,2052.3472258383613,515.6543595061919,-7391.463757846267,-1.321364931614955E-12,-25119.35508689449,0.0,-122520.42511790816,6.411115677422313E-12,0.5378815457192838,415.64462352740975,354.75679766829194
3.8999999999996815,2.0926536536416832E7,6737.1766734707835,-1.7477077942209068E-13,2.0926537606159657E7,785.8267532108221,-1.7477077942209068E-13,461.3226097676997,1932.2433338888452,-9.768998082282502E-14,-1.0292335361423179E-13,406.10752484226055,-461.944660291185,891.2954542152584,0.0021515530764646086,3.57414541077473E-17,32.19606302607423,90.00000000000063,54.89173576907572,3.318128408768219E-13,-2.319297050098701E-19,-0.37629712901731,3.798119832038064E-17,27716.6796174711,1113.0234726597016,0.0023155267883259415,2048.945565659661,515.4916355516104,-7780.2853951837,-1.5043114644818827E-12,-26274.192908793473,0.0,-129992.22918751572,7.398470454060031E-12,0.5526156002884448,438.0006372490424,364.4170490731444
3.9999999999996705,2.092658333659499E7,6930.976315120636,-1.846854792949469E-13,2.0926584468038153E7,827.0140169298635,-1.846854792949469E-13,473.60792044210996,1942.995483610672,-1.0050976001992558E-13,-1.0254231470690819E-13,416.84790990077266,-474.2514230333234,938.1589198559523,0.00226431660722968,3.7769057301310595E-17,32.195918591281306,90.00000000000063,54.85298256344078,3.20444192057786E-13,-2.319297050098702E-19,-0.4097074265974672,4.2375006783862404E-17,28455.085381999404,1112.8430525096076,0.0023123339461840237,2045.4570130908687,515.3245275929356,-8177.589284783512,-5.154390192188238E-13,-27430.220526028806,0.0,-137637.80023022307,2.5692040307128885E-12,0.5673831706041093,460.93670889019785,374.09473119118695
4.099999999999704,2.0926631366248753E7,7125.852343738835,-1.9487867869136305E-13,2.092663256142746E7,869.2766165716423,-1.9487867869136305E-13,485.9125614610844,1953.7704685714004,-1.031762611956648E-13,-1.052928387738802E-13,427.6107810437538,-486.5778232777315,986.2540220059454,0.002380023693927887,3.985361496960509E-17,32.195770361553926,90.0000000000006,54.81079176744003,3.090712122020682E-13,-2.319297050098703E-19,-0.44511563510935215,4.923002696371645E-17,29194.669396663892,1112.6578610933414,0.0023090607097673373,2041.881795180276,515.1530285874113,-8583.073000914295,-5.654866422525772E-13,-28583.795541051608,0.0,-145440.12056983908,2.856187284891204E-12,0.5821846291785953,484.45127938901635,383.78995044377865
4.199999999999737,2.092668062727682E7,7321.807096880474,-2.0534954625493336E-13,2.0926681888250522E7,912.6168621832727,-2.0534954625493336E-13,498.23588434471765,1964.5693158644826,-1.0601463340467379E-13,-1.082196817019847E-13,438.39716295325775,-498.92321541321513,1035.5826902240515,0.002498680620351158,4.1994957096298984E-17,32.1956183310239,90.00000000000047,54.764961321908686,2.425665833811813E-13,-2.3192970500987024E-19,-0.48256648172111843,5.4407354825060906E-17,29935.392924792908,1112.4678886620763,0.00230570721893273,2038.2201535857648,514.9771317153652,-8996.395648834872,-6.874386280576095E-13,-29731.012978322782,0.0,-153379.91866186267,3.5177845408943605E-12,0.5970203594595058,508.54268853826153,393.5028194372417
4.299999999999771,2.092673112151022E7,7518.843018804293,-2.1610143043977286E-13,2.092673245036273E7,957.0371704809774,-2.1610143043977286E-13,510.5771875580915,1975.3931291809913,-1.0882673519250482E-13,-1.1112506375835367E-13,449.20815694326143,-511.2869008614978,1086.1467867046595,0.00262029396120671,4.419376845615541E-17,32.19546249403289,90.00000000000048,54.71528493369488,2.532815344024649E-13,-2.319297050098701E-19,-0.5220998189474589,6.045498886382628E-17,30677.21405168987,1112.2731256600493,0.002302273625287812,2034.472344928479,514.7968303989941,-9417.173509343149,-8.012632577882082E-13,-30867.696968809112,0.0,-161435.53851368857,4.15347322529184E-12,0.6118907560612132,533.2091769350212,403.23345711143486
4.399999999999804,2.0926782850707263E7,7716.962667343439,-2.2713228232029193E-13,2.0926784249546845E7,1002.5400717249474,-2.2713228232029193E-13,522.9357315501767,1986.2430508094255,-1.1163743374910795E-13,-1.1403423037784807E-13,460.0449029566442,-523.6681431072342,1137.9481012001634,0.0027448706009324856,4.644963003416412E-17,32.19530284514792,90.00000000000038,54.66155245407004,1.924592362900161E-13,-2.3192970500987014E-19,-0.5637562231998157,6.6963304017936E-17,31420.088586434053,1112.0735627439508,0.0022987600925179663,2030.6386411263036,514.6121183205381,-9850.631762954918,-9.169972724206027E-13,-32014.947427706516,0.0,-169656.77087435662,4.814283169947633E-12,0.6267962124507604,558.4488656690337,412.98198062253095
4.4999999999998375,2.0926835816552207E7,7916.168712380856,-2.384475256228217E-13,2.092683728751168E7,1049.1282081978063,-2.384475256228217E-13,535.310759625182,1997.1202095108883,-1.1444091159911445E-13,-1.2071979790721775E-13,470.9085274344035,-536.0661885522028,1190.9883497282863,0.002872417729523275,4.876365100810872E-17,32.19513937916551,90.00000000000038,54.60354896888643,2.0865793510115236E-13,-2.3192970500987014E-19,-0.6075853440736902,7.413429775627225E-17,32163.971313132166,1111.8691907876191,0.0022951667964494654,2026.7193294374442,514.4229894268251,-10294.359643553287,-2.494689457816885E-12,-33158.92192892481,0.0,-177994.7946105338,1.3262899221496209E-11,0.641737104206152,584.2597250322025,422.7484943130042
4.599999999999871,2.0926890020648178E7,8116.463946310975,-2.500416976522526E-13,2.0926891565885063E7,1096.8043446713677,-2.500416976522526E-13,547.7014134268012,2008.0259179390914,-1.1724242337317461E-13,-1.2371321853754428E-13,481.80034076953035,-548.4801820774168,1245.2691675014794,0.0030029428711804184,5.113471423090541E-17,32.19497209113339,90.00000000000043,54.541055701410585,2.302686066764264E-13,-2.3192970500987E-19,-0.6536153590070656,8.190861803090668E-17,32908.810924645004,1111.6600009091512,0.0022914939255021818,2022.714712927168,514.2294379545363,-10745.573263077249,-2.676424668187115E-12,-34284.251383932504,0.0,-186391.9096979642,1.440689864386097E-11,0.6567138492735539,610.6396826998143,432.53312941710084
4.699999999999904,2.0926945464508995E7,8317.85129790451,-2.61914921821089E-13,2.0926947086205624E7,1145.5713822771984,-2.61914921821089E-13,560.106770504526,2018.9615810237553,-1.2004951134387113E-13,-1.2277687370971098E-13,492.72174568060007,-560.9092045841404,1300.7921007424593,0.0031364539222806243,5.356284494099724E-17,32.19480097637573,90.00000000000045,54.473851511995456,2.408373120439254E-13,-2.3192970500986985E-19,-0.7018661978699275,9.01671639792704E-17,33654.55227504842,1111.4459845022195,0.002287741681208825,2018.6251110045043,514.0314584593223,-11203.82032553021,-1.2686517709283354E-12,-35386.12891018664,0.0,-194818.37047799843,6.913344461649592E-12,0.6717268790969991,637.586576841758,442.3360250334118
4.799999999999938,2.092700214955297E7,8520.3338409139,-2.7406443529916363E-13,2.0927003849916615E7,1195.432367117482,-2.7406443529916363E-13,572.5258457661498,2029.9286898310436,-1.227944729237722E-13,-1.1530654777525475E-13,503.6742310749468,-573.3522744502666,1357.558600500226,0.0032729591749435846,5.604747812649857E-17,32.194626030512254,90.00000000000051,54.401713651008656,2.622693326149586E-13,-2.319297050098698E-19,-0.7523500098713265,1.0007496564308654E-16,34401.136467016,1111.2271332598577,0.0022839102785942797,2014.4508598037633,513.8290458379057,-11668.589650548762,-1.6501850084171672E-11,-36459.47463845988,0.0,-203241.62429293126,9.102215324319232E-11,0.6867766361389135,665.0981536270938,452.15732649182075
4.899999999999971,2.0927060077096514E7,8723.914802771927,-2.8649256211124403E-13,2.092706185835955E7,1246.3904989693885,-2.8649256211124403E-13,584.9575896129497,2040.9288232315398,-1.2562085658650881E-13,-1.286022145687006E-13,514.659373720714,-585.8083456723903,1415.5700163021684,0.003412467340855317,5.85890890615076E-17,32.194447249477705,90.00000000000043,54.32441857603983,2.2905423171983035E-13,-2.3192970500986995E-19,-0.8050703757233628,1.0911602722631043E-16,35148.500740343414,1111.0034391988788,0.002279999946558709,2010.192312567603,513.6221953507252,-12139.304832135535,-1.4950819641392155E-12,-37498.93488865646,0.0,-211626.21207806084,8.346187664607498E-12,0.701863573827472,693.1720690051816,461.99718532087326
5.000000000000004,2.092711924834766E7,8928.597573443425,-2.9920304013084023E-13,2.0927121112767693E7,1298.4491401428631,-2.9920304013084023E-13,597.4008861684023,2051.963649306828,-1.2837258895748872E-13,-1.3149239936939542E-13,525.6788396575953,-598.2763061015148,1474.827589634806,0.00355498757551128,6.118844215890246E-17,32.194264629542,90.00000000000044,54.24174284950304,2.340377544310126E-13,-2.319297050098698E-19,-0.8600214879504665,1.2033873793740462E-16,35896.57836609089,1110.7748946849306,0.0022760109282641203,2005.8498400312467,513.4109026451237,-12615.317480844858,-1.5936634738492598E-12,-38498.883309807454,0.0,-219933.67931141824,9.002640695857716E-12,0.7169881564467412,721.8058904215392,471.85575917870096
5.100000000000038,2.0927179664399207E7,9134.38571440211,-3.121943649566832E-13,2.092718161425928E7,1351.6118244639617,-3.121943649566832E-13,609.8545516205875,2063.0349264594793,-1.3125841560623766E-13,-1.2348541317885726E-13,536.7343853110925,-610.7549757925307,1535.332447167486,0.0037005295028029474,6.384522976148161E-17,32.19407816733107,90.00000000000043,54.15346411969898,2.172449812878606E-13,-2.319297050098694E-19,-0.9171873018940112,1.2943058384566805E-16,36645.29854755184,1110.5414924586933,0.002271943481532788,2001.4238308168776,513.1951637795449,-13095.900079502115,-1.883575787201583E-11,-39453.42422733826,0.0,-228122.49960206938,1.0765878740012427E-10,0.7321508589650927,750.9970984504962,481.73321174486045
5.200000000000071,2.092724132622199E7,9341.28296770096,-3.254727149160736E-13,2.0927243363830697E7,1405.8822663519636,-3.254727149160736E-13,622.3173327004599,2074.1445041893544,-1.3407400203799982E-13,-1.3749602852285603E-13,547.8278582731167,-623.2431054895746,1597.085593946278,0.003849103239860814,6.656071536650932E-17,32.19388785984788,90.00000000000044,54.05936218810961,2.2759014916116987E-13,-2.3192970500986985E-19,-0.9765406606053243,1.407409793210611E-16,37394.58632937448,1110.3032256621611,0.002267797879238644,1996.914691817554,512.9749752477546,-13580.238497142633,-1.8944266952274184E-12,-40356.39845109196,0.0,-236148.0133898863,1.0954223702021016E-11,0.7473521667985065,780.7430883176562,491.6297125705445
5.300000000000105,2.092730423465787E7,9549.293265100692,-3.3903294680155077E-13,2.092730636234959E7,1461.264369955013,-3.3903294680155077E-13,634.787905320308,2085.2943234974273,-1.3694784426634933E-13,-1.4053462316198537E-13,558.9611977101918,-635.7393752715917,1660.0879065096378,0.0040007194220573325,6.933384716364276E-17,32.193693704493526,90.00000000000047,53.959220165352434,2.432604834979189E-13,-2.319297050098702E-19,-1.0380423975236972,1.5140246770587498E-16,38144.3625162955,1110.0600878654118,0.00226357440969836,1992.32284857789,512.7503340034579,-14067.424223067432,-2.0605165333265347E-12,-41201.39180749803,0.0,-243962.38442618257,1.2052107516718394E-11,0.762592575504919,811.0411712924407,501.54543688491776
5.400000000000138,2.0927368390412476E7,9758.42073721706,-3.528796602102546E-13,2.0927370610547524E7,1517.7622383049581,-3.528796602102546E-13,647.2648733989922,2096.4864168766544,-1.39796515616959E-13,-1.4355781351957964E-13,570.1364343587302,-648.2423933846158,1724.3401255458593,0.004155389228062149,7.216556579233342E-17,32.19349569908997,90.00000000000038,53.852825717785734,1.887213019032405E-13,-2.3192970500987024E-19,-1.1016404216005273,1.633768270194587E-16,38894.54360307695,1109.812073095004,0.0022592733770814837,1987.6487456924704,512.5212374863642,-14556.446402500309,-2.2159856289321654E-12,-41981.746667089246,0.0,-251514.57689604786,1.3109432799374258E-11,0.7778725904055145,841.8885759364293,511.4805653555374
5.500000000000171,2.0927433794047967E7,9968.669722643557,-3.6701436380385436E-13,2.0927436109012835E7,1575.3801824479337,-3.6701436380385436E-13,659.7467679029103,2107.7229078480345,-1.4268968605545613E-13,-1.3463648567807892E-13,581.3556900654884,-660.7506952896578,1789.8428487442434,0.004313124404830572,7.505617978105491E-17,32.19329384190199,90.00000000000038,53.739972406253024,1.9896925902672004E-13,-2.3192970500987057E-19,-1.1672687903543872,1.7502134441220037E-16,39645.04171737946,1109.559175861878,0.0022548951018022925,1982.8928471812847,512.2876836477315,-15046.183776959255,-2.2210903395496782E-11,-42690.57674289876,0.0,-258750.35622015328,1.3288056894873072E-10,0.7931927261315993,873.2824491742132,521.4352838011766
5.600000000000205,2.0927500445975818E7,10180.044777001678,-3.814349986348203E-13,2.0927502858183358E7,1634.1227305027828,-3.814349986348203E-13,672.2320461341243,2119.006009998827,-1.455412385002798E-13,-1.4968290773779367E-13,592.6211768301661,-673.2627429576272,1856.5965235419571,0.00447393729239414,7.800526806526272E-17,32.19308813165952,90.00000000000034,53.62046111786642,1.8231855090058703E-13,-2.319297050098706E-19,-1.2348467772256069,1.8850814279311258E-16,40395.76457745763,1109.3013911896542,0.002250439920908585,1978.0556368587002,512.0496709762141,-15535.396657184172,-2.5596304801546054E-12,-43320.78543877013,0.0,-265612.31675017223,1.5484609279592035E-11,0.8085535060944097,905.2198571715409,531.409782855832
5.700000000000238,2.0927568346449386E7,10392.550681866884,-3.961452526904048E-13,2.0927570858339056E7,1693.9946365956037,-3.961452526904048E-13,684.7190912996097,2130.338025478877,-1.4846008186315432E-13,-1.5280862091968507E-13,603.93519530605,-685.7769244451202,1924.60143975541,0.004637840848311743,8.101358485585843E-17,32.19287856758035,90.00000000000036,53.49410159103606,1.8177484031786927E-13,-2.319297050098703E-19,-1.3042779405378448,2.0092304245247353E-16,41146.61546670721,1109.0387146434477,0.0022459081884691275,1973.1376186977552,511.8071985241209,-16022.71908319588,-2.761300301810614E-12,-43865.088025649144,0.0,-272039.93972531485,1.688942746700469E-11,0.8239554618763012,937.697786002964,541.404257583104
5.800000000000272,2.0927637495556403E7,10606.192453513573,-4.111424211016466E-13,2.09276401095945E7,1755.0008896136496,-4.111424211016466E-13,697.2062123982068,2141.721342910534,-1.512502605431227E-13,-1.430759193347385E-13,615.3001327141743,-698.29155378765,1993.8577220626175,0.0048048486716258465,8.408057699429827E-17,32.19266514939326,90.00000000000031,53.360714033183086,1.652166423165972E-13,-2.31929705009871E-19,-1.3754492023674136,2.1781407799748016E-16,41897.493227258994,1108.771142359275,0.0022413002759606375,1968.1393171906548,511.5602659341489,-16506.65135507638,-2.48710605836704E-11,-44316.03791944535,0.0,-277969.6849909957,1.537891164523078E-10,0.8393991325427698,970.7131420934788,551.4189070408
5.900000000000305,2.0927707893211674E7,10820.975351418267,-4.26421943988561E-13,2.092771061189158E7,1817.1467217176978,-4.26421943988561E-13,709.6916444644762,2153.1584346672703,-1.5412118149586308E-13,-1.4592555050967263E-13,626.7184601260211,-710.8048712493921,2064.3653227239847,0.0049749750261570864,8.720531196347755E-17,32.192447877360436,90.00000000000028,53.220130829682994,1.3811356246679877E-13,-2.319297050098702E-19,-1.4482299466594435,2.3306226753128003E-16,42648.292274963525,1108.4986710727287,0.002236616572631206,1963.0612776803594,511.30887346537156,-16985.553148797113,-2.579216091416813E-11,-44666.057324533846,0.0,-283335.1200827226,1.6121364779783167E-10,0.8548850638766347,1004.2627524103937,561.4539337961476
6.000000000000338,2.0927779539149653E7,11036.90488645553,-4.4198990316173367E-13,2.0927782364992104E7,1880.437616547506,-4.4198990316173367E-13,722.1735492112805,2164.6518534764646,-1.5705907336820664E-13,-1.571454443963143E-13,638.1927290702251,-723.3150439712431,2136.1240141913295,0.005148234862958297,9.038903352253414E-17,32.19222675230019,90.00000000000033,53.072198341606224,1.746951971277946E-13,-2.3192970500986956E-19,-1.5224711470093175,2.47002461708947E-16,43398.90263827459,1108.221298148123,0.002231857485860599,1957.9040666854137,511.0530220195835,-17457.637464168904,-7.030948292334143E-13,-44907.47249392911,0.0,-288067.0903554011,4.441856816855778E-12,0.8704138075351197,1038.34336440263,571.5095433928275
6.100000000000372,2.0927852432917215E7,11253.986828716706,-4.578477945796387E-13,2.0927855368470583E7,1944.879317050336,-4.578477945796387E-13,734.650016115503,2176.204228302366,-1.5987916182711368E-13,-1.6517805596659196E-13,649.7255674192271,-735.8201670614902,2209.133381895721,0.005324643841736234,9.363204760207798E-17,32.19200177560922,90.00000000000031,52.91677878872057,1.6351804689502094E-13,-2.3192970500987043E-19,-1.598004535638312,2.657545180564052E-16,44149.21002368941,1107.9390216069694,0.002227023441497601,1952.6682721964823,510.79271316695207,-17920.96568508498,-3.4494396026561146E-12,-45032.55383666979,0.0,-292093.9338632013,2.2023713749823835E-11,0.8859859201333712,1072.9516456714878,581.5859437717379
6.200000000000405,2.0927926573866457E7,11472.227214877552,-4.739919610866546E-13,2.0927929621707015E7,2010.477832858668,-4.739919610866546E-13,747.1190639937728,2187.818259466579,-1.6278740268409784E-13,-1.6325514423739626E-13,661.3196745131457,-748.318265175863,2283.392817031592,0.005504218351038797,9.693360629642233E-17,32.191772949284754,90.00000000000034,52.75375221301076,1.7867048978486386E-13,-2.3192970500987105E-19,-1.6746418262216323,2.8225564078266176E-16,44899.095910551776,1107.6518401565802,0.002222114884187938,1947.3545039592439,510.5279491717065,-18373.44406611461,-8.945336080784248E-13,-45033.561077788494,0.0,-295341.74468097166,5.7714608487826985E-12,0.901601962257846,1108.0841833755915,591.6833446482885
6.300000000000439,2.092800196114787E7,11691.632355036067,-4.904237053365374E-13,2.092800512388012E7,2077.23944713827,-4.904237053365374E-13,759.5786431173839,2199.496712965207,-1.6559389882657954E-13,-1.7144833213282904E-13,672.9778154799673,-760.8072946361044,2358.9015098251402,0.005686975526991817,1.0029397600444456E-16,32.19154027594524,90.00000000000033,52.58301851665308,1.6750471207304973E-13,-2.319297050098695E-19,-1.7521740043634724,3.0305569706828026E-16,45648.437678166265,1107.3597532169856,0.002217132277661507,1941.9633937098104,510.2587330161916,-18812.82199214842,-3.81009005654235E-12,-44902.79364258887,0.0,-297734.688277075,2.4838653291691626E-11,0.9172624974164683,1143.7374833566087,601.8019568499368
6.400000000000472,2.0928078593701113E7,11912.208837740678,-5.071377498784233E-13,2.0928081873958077E7,2145.1707216280297,-5.071377498784233E-13,772.026492961967,2211.2423384229255,-1.6847829965294693E-13,-1.603361675836018E-13,684.7027392749956,-773.2850011394006,2435.658440243453,0.00587293326708581,1.0371207746238856E-16,32.191303758859036,90.00000000000028,52.40449966369453,1.459728262922202E-13,-2.3192970500986903E-19,-1.8303645860280986,3.2235660592172776E-16,46397.10006836404,1107.06276095761,0.002212076105173847,1936.495595573492,509.9850684338305,-19368.454445152103,-3.0580980846002807E-11,-44609.16728031603,0.0,-299096.4959410483,2.0140656652581207E-10,0.9329679476891226,1179.9076068039635,611.9418976703047
6.500000000000505,2.09281564701905E7,12133.963505122008,-5.24137401883186E-13,2.0928159870634053E7,2214.278471809972,-5.24137401883186E-13,784.4594367552802,2223.057491101912,-1.7127784940397954E-13,-1.7243056393391908E-13,696.4968011159955,-785.7482140861553,2513.662313569337,0.006062110162203041,1.0718858700239864E-16,32.19106340214276,90.00000000000036,52.21814433978016,1.8169946737379617E-13,-2.31929705009869E-19,-1.9089179531060347,3.4530077294431764E-16,47144.892845169314,1106.7608645477833,0.002206946873562873,1930.9517903659803,509.70696013894775,-20069.998096336374,-1.126814409742929E-12,-44138.40414262465,0.0,-299314.9032978519,7.495950861487814E-12,0.948717891023229,1216.5883469072223,622.1027303705754
6.600000000000539,2.0928235588987697E7,12356.903451488892,-5.414251073556363E-13,2.092823911230888E7,2284.5697655236386,-5.414251073556363E-13,796.8749398645426,2234.944930842691,-1.7427936704211728E-13,-1.6085433737183565E-13,708.3627605544391,-798.1944054201468,2592.9115430526435,0.006254525492819657,1.1072400484407096E-16,32.19081921081477,90.00000000000036,52.02393085057274,1.809094295699175E-13,-2.3192970500986715E-19,-1.9875434266288312,3.616083745267989E-16,47891.66432520881,1106.45406622516,0.002201745114161846,1925.3326864823923,509.42441388848744,-20778.694436110498,-2.9506856613812254E-11,-43506.961297521775,0.0,-298407.8368195229,1.98247352127089E-10,0.9645125941973892,1253.7750686972286,632.2844699518735
6.700000000000572,2.092831594822173E7,12581.036055773478,-5.590110778812232E-13,2.0928319597141076E7,2356.0519553974336,-5.590110778812232E-13,809.2705773642972,2246.907532945358,-1.7720968735946993E-13,-1.8435256394243588E-13,720.3034926386274,-810.621157050063,2673.4042999595404,0.006450199317769385,1.143204193051088E-16,32.190571190640924,90.0000000000004,51.82186716647167,1.9038815599580014E-13,-2.319297050098665E-19,-2.065933874323287,3.8131379075202853E-16,48637.269423003774,1106.1423691033613,0.002196471379281731,1919.6390159978657,509.1374363035028,-21492.771985656233,-4.6884656232877054E-12,-42707.50169463473,0.0,-296293.2236231306,3.1811495027388346E-11,0.9803524812060722,1291.4634301451415,642.4872340689111
6.800000000000606,2.0928397545776393E7,12806.368985336941,-5.768821265454369E-13,2.0928401323044326E7,2428.7326826645312,-5.768821265454369E-13,821.6438727399595,2258.948190485092,-1.8001805266256026E-13,-1.875219087066416E-13,732.3218903227194,-823.025999502579,2755.138511057943,0.00664915248467847,1.1797513359889067E-16,32.19031934814215,90.00000000000037,51.61199314708224,1.8438481412877027E-13,-2.3192970500986465E-19,-2.143758652039259,4.0733152502022213E-16,49381.55997015474,1105.825777183099,0.002191126242158494,1913.8715345156388,508.8460348781471,-22210.274681284896,-4.855260314697927E-12,-41733.07303179907,0.0,-292889.53976657504,3.326551959101176E-11,0.9962379668119402,1329.6489674124832,652.7111338706666
6.900000000000639,2.092848037928548E7,13032.910197147521,-5.950296621884624E-13,2.092848428768265E7,2502.6198783519544,-5.950296621884624E-13,833.9923050133847,2271.069802804756,-1.8280531108870376E-13,-1.6942226699236037E-13,744.4208529585653,-835.4064190445724,2838.1118537932634,0.006851406633209735,1.2168639079244827E-16,32.19006369060935,90.00000000000044,51.39438289167259,2.191882198574437E-13,-2.3192970500986364E-19,-2.2206636507593815,4.348885203863048E-16,50124.38514267435,1105.5042953722211,0.002185710297040909,1908.031021164132,508.55021799680395,-22929.06715662691,-3.227674853493112E-11,-40577.19755124235,0.0,-288116.54510477907,2.2328539247545715E-10,1.0121694555417757,1368.3270927366157,662.9562733939467
7.000000000000672,2.0928564446128864E7,13260.667937757147,-6.134604688522256E-13,2.0928568488466524E7,2577.721763268617,-6.134604688522256E-13,846.3133168943805,2283.2752630296727,-1.85620892184127E-13,-1.722787286209306E-13,756.60327380869,-847.759865829885,2922.321752436459,0.007056984195018359,1.2545557825456242E-16,32.1898042261152,90.00000000000041,51.16914707484448,1.978261673466196E-13,-2.319297050098635E-19,-2.2962715491028947,4.621640147914125E-16,50865.5919497931,1105.1779295021256,0.0021802241592057516,1902.1182785127744,508.2499949477883,-23646.844230659874,-3.320138453216159E-11,-39233.96768285597,0.0,-281896.0948056145,2.3188703977967368E-10,1.0281473407693476,1407.4930924673824,673.2227490147479
7.100000000000706,2.092864974342923E7,13489.650741979409,-6.32179092353665E-13,2.092865392254965E7,2654.046846694117,-6.32179092353665E-13,858.6043240159087,2295.567444609022,-1.8855118902019776E-13,-1.9723484106253836E-13,768.8720265846913,-860.083763128175,3007.76537482813,0.007265908390150725,1.2928362562637798E-16,32.18954096352412,90.00000000000034,50.93643524571488,1.7159936052494943E-13,-2.3192970500986364E-19,-2.370182294339002,4.852148942296694E-16,51605.025787690494,1104.8466863418778,0.002174668464923648,1896.1341324319571,507.9453759348546,-24361.14509228086,-5.444146255799968E-12,-37698.14718321156,0.0,-274153.0280693731,3.838499669213242E-11,1.0441720039057198,1447.1421253486174,683.5106489713867
7.200000000000739,2.092873626804998E7,13719.867430172026,-6.511888332812682E-13,2.092874058682684E7,2731.6039236716942,-6.511888332812682E-13,870.8627253066487,2307.949186898089,-1.9141480169719956E-13,-1.9473920337540294E-13,781.2299510252069,-872.3755176895357,3094.4396303109825,0.007478203219621755,1.3317120789391013E-16,32.189273912498564,90.00000000000038,50.69643806659706,1.8578329552201474E-13,-2.3192970500986325E-19,-2.441973835270551,5.125299831553112E-16,52342.531061372145,1104.5105736079745,0.002169043871341801,1890.0794318610008,507.63637208462484,-25069.372640690963,-1.9328903569446555E-12,-35965.277295100575,0.0,-264816.1335766689,1.3756651589749729E-11,1.0602438137212498,1487.2692211093408,693.8200529737385
7.3000000000007725,2.092882401659408E7,13951.327104029366,-6.704816514200156E-13,2.092882847793285E7,2810.402070810799,-6.704816514200156E-13,883.0859145490246,2320.423279806007,-1.9427338655732106E-13,-1.811347499423769E-13,793.6798375379394,-884.6325312928294,3182.341168548912,0.007693893453912057,1.3711668079501683E-16,32.18900308350257,90.0000000000003,50.44938946481834,1.4984720428826115E-13,-2.319297050098623E-19,-2.511203130412551,5.407831240089612E-16,53077.951877569765,1104.1695999704893,0.002163351056296988,1883.9550484989281,507.3229954506149,-25768.818391286557,-3.6170945028932353E-11,-34031.7873206184,0.0,-253819.1900379796,2.5983769670739764E-10,1.0763631258208857,1527.8692794616002,704.1510319127776
7.400000000000806,2.09289129854043E7,14184.039140793437,-6.900617051577647E-13,2.0928917592242703E7,2890.4506405074217,-6.900617051577647E-13,895.2712931636279,2332.992447545138,-1.970828805691672E-13,-2.011809102975813E-13,806.2244109417268,-896.8522135185906,3271.4663798585534,0.007913004617133292,1.4112089473975666E-16,32.18872848780075,90.00000000000031,50.19556866898255,1.5898572268480484E-13,-2.3192970500986114E-19,-2.5774074546238745,5.727386699419887E-16,53811.132811115436,1103.8237750536766,0.002157590718027932,1877.7618763852176,507.0052590121063,-26456.693284699784,-2.1253311037882776E-12,-31895.10885901036,0.0,-241102.07891025985,1.540881645824105E-11,1.0925302822965182,1568.9370695749544,714.5036476843028
7.500000000000839,2.0929003170564737E7,14418.013185661524,-7.099295503030396E-13,2.092900792587312E7,2971.759253360417,-7.099295503030396E-13,907.4162984909035,2345.659315743118,-2.000119613483615E-13,-2.0452211634260208E-13,818.8662975598245,-909.0320100064455,3361.8113966733217,0.008135562966254834,1.4518396339361153E-16,32.18845013745362,90.0000000000003,49.93530205315674,1.4330112469289216E-13,-2.3192970500986012E-19,-2.6401113759669372,5.997000509555177E-16,54541.92060038673,1103.4731094320698,0.002151763574805867,1871.5008313912556,506.6831766688196,-27129.085255389757,-2.2927155625981677E-12,-29585.50290579154,0.0,-226768.45039354434,1.6774803025376493E-11,1.1087456115748802,1610.4672301262312,724.8779531390205
7.600000000000873,2.0929094567917794E7,14653.259127110985,-7.300874712079545E-13,2.092909947469957E7,3054.337773496263,-7.300874712079545E-13,919.5186983699873,2358.4260845897693,-2.029079406376815E-13,-1.9009121744305844E-13,831.6076981594139,-921.1696967995787,3453.372110582888,0.008361595423534639,1.493063539174335E-16,32.18816804526508,90.0000000000003,49.66895956573795,1.4251495257117102E-13,-2.319297050098593E-19,-2.698934826327724,6.28856279357462E-16,55270.18180797472,1103.1176145662641,0.002145870363560619,1865.1728496325507,506.3567631801665,-27781.490048856725,-3.9214071177119574E-11,-27168.098294016345,0.0,-211106.50227423914,2.895199544426391E-10,1.125009428392485,1652.4542688785436,735.2739920764543
7.700000000000906,2.0929187173082888E7,14889.787070390412,-7.505364312106503E-13,2.0929192234374944E7,3138.196282058571,-7.505364312106503E-13,931.5761507332062,2371.2950182385957,-2.0581174859914008E-13,-1.9312737157179052E-13,844.4508776484932,-933.2629402632675,3546.144191004336,0.008591129503926017,1.5348826331844597E-16,32.18788222472483,90.00000000000033,49.39695066052157,1.5638516071067524E-13,-2.319297050098559E-19,-2.753426159233228,6.591157274392206E-16,55995.77641579605,1102.7573027321125,0.0021399118384070196,1858.7788857773228,506.02603409851434,-28414.556848264383,-4.02655758578437E-11,-24554.399944664856,0.0,-193645.88961514801,2.9996121152503193E-10,1.1413220340896215,1694.8925630844044,745.691799440199
7.8000000000009395,2.092928098143974E7,15127.607350078482,-7.712614444060142E-13,2.092928620031285E7,3223.3450897845196,-7.712614444060142E-13,943.5862622284164,2384.2683793940864,-2.085963817216084E-13,-1.96056187737408E-13,857.3980996286523,-945.3093556674869,3640.1230685152113,0.008824193349504088,1.577266269079084E-16,32.187592690059596,90.0000000000003,49.119733834411896,1.3607057622460962E-13,-2.3192970500985555E-19,-2.8030785760420955,6.967529851998686E-16,56718.561340049215,1102.392187087454,0.002133888771448808,1852.3199138006094,505.69100582870897,-29025.680593965128,-4.123891676416875E-11,-21746.557095720334,0.0,-174361.49226758047,3.0995515743292565E-10,1.1576837173729804,1737.7763635966248,756.1314019101085
7.900000000000973,2.0929375988133185E7,15366.730519152225,-7.922807452223704E-13,2.092938136769244E7,3309.794726079116,-7.922807452223704E-13,955.5467241093412,2397.348279792689,-2.1168708633602502E-13,-2.2427326826559077E-13,870.4514767803701,-957.3066429686874,3735.3039396740496,0.009060815699544306,1.6202517371298016E-16,32.18729945621827,90.00000000000026,48.837818712136084,1.3530313266506458E-13,-2.3192970500985777E-19,-2.8473768450816244,7.142014750974008E-16,57438.39857812124,1102.0222816552018,0.0021278019521860634,1845.7969262367974,505.35169561071353,-29612.40503533667,4.655342576519363E-11,-18748.19981758201,0.0,-153239.90714304266,-3.9009917089322297E-10,1.1740947551010594,1781.0997980759903,766.5928184550309
8.000000000001005,2.092947218808249E7,15607.16733288565,-8.1365438197554E-13,2.0929477731467746E7,3397.555922916928,-8.1365438197554E-13,967.4553317267172,2410.5366608314685,-2.1573019553583772E-13,-2.0389108607842113E-13,883.6129514734533,-969.2526062785807,3831.6817763596773,0.009301025846439489,1.663961838993232E-16,32.18700253884302,90.00000000000023,48.55176672874744,1.1531703066706987E-13,-2.3192970500985362E-19,-2.8858005820202415,6.547342641867195E-16,58155.15637671485,1101.6476012890835,0.00212165218663696,1839.210933126761,505.0081214863246,-30172.48470115408,6.363679611954731E-11,-15564.545377776893,0.0,-130280.7721309925,-4.867359532818096E-10,1.1905554132980531,1824.8568748396435,777.076061021375
