time,eiPosition_ft_X,eiPosition_ft_Y,eiPosition_ft_Z,gePosition_ft_X,gePosition_ft_Y,gePosition_ft_Z,eiVelocity_ft_s_X,eiVelocity_ft_s_Y,eiVelocity_ft_s_Z,feVelocity_ft_s_X,feVelocity_ft_s_Y,feVelocity_ft_s_Z,altitudeMsl_ft,longitude_deg,latitude_deg,localGravity_ft_s2,eulerAngle_deg_Yaw,eulerAngle_deg_Pitch,eulerAngle_deg_Roll,bodyAngularRateWrtEi_deg_s_Roll,bodyAngularRateWrtEi_deg_s_Pitch,bodyAngularRateWrtEi_deg_s_Yaw,altitudeRateWrtMsl_ft_min,speedOfSound_ft_s,airDensity_slug_ft3,ambientPressure_lbf_ft2,ambientTemperature_dgR,aero_bodyForce_lbf_X,aero_bodyForce_lbf_Y,aero_bodyForce_lbf_Z,aero_bodyMoment_ftlbf_L,aero_bodyMoment_ftlbf_M,aero_bodyMoment_ftlbf_N,mach,dynamicPressure_lbf_ft2,trueAirspeed_nmi_h,feVelocity_ft_s_Z
0.0,4194654.423716988,-1.6425671671266142E7,1.2243132354871515E7,4194654.423716988,-1.6425671671266142E7,1.2243132354871515E7,1527.1397089346187,632.7597153499491,323.5281289205246,399.99999998614464,399.9999999861468,7.155591674745665E-9,10013.000000001863,-75.6744444444,36.01916666700001,32.188575449192165,45.000000000000156,2.6389261150480663,8.357819337950823E-15,0.002533320382709163,-0.003939291659912435,-0.003138617072930523,-4.293355004847399E-7,1077.3519651228748,0.0017548379458813387,1454.870029609319,482.9791755286174,-1420.326904051171,-0.028504245996912474,-20401.300545620466,-0.09976370046456123,-0.0018886980360548478,0.38802760616272963,0.5250701904296875,280.7740783691406,335.1594543457031,7.155591674745665E-9
0.10000000149011612,4194807.137511839,-1.6425608394612478E7,1.2243164707502129E7,4194687.359974953,-1.6425638983191816E7,1.224316470750213E7,1527.1361680718408,632.7733637458585,323.52449782972735,399.996068071282,400.00393186221527,1.8645835098141106E-8,10013.000000002794,-75.67430925478295,36.0192764918054,32.18857555693855,45.000010474247155,2.6389261050431956,-2.712313865093722E-5,0.0017389637576980983,-0.003939481361601616,-0.0028371989235117107,-1.1187501058884664E-6,1077.3519651228712,0.0017548379458812884,1454.8700296092672,482.9791755286141,-1420.3269090151912,-0.9457979474556233,-20401.300411751312,-2.486108467007605,-0.0015740720882604364,6.438692751247413,0.5250701904296875,280.7740783691406,335.1594543457031,1.8645835098141106E-8
0.20000000298023224,4194959.850946987,-1.6425545116592351E7,1.22431970597737E7,4194720.2965730075,-1.6425606295104804E7,1.2243197059773702E7,1527.1325174081603,632.7870438523883,323.5209462868194,399.99223450567695,400.0077653126944,4.854655344388448E-8,10013.000000000931,-75.67417406366647,36.01938631554296,32.18857566468405,45.00007647886424,2.6389260775617296,-1.912470357720148E-4,-1.511308665823863E-4,-0.003939629411799034,-0.0020471862470669657,-2.9127932066330686E-6,1077.3519651228787,0.0017548379458813906,1454.870029609372,482.9791755286208,-1420.3269172388293,-1.7163531335835918,-20401.300224151986,-3.8812364950464215,-0.001241327958268812,11.370489778914198,0.5250701904296875,280.7740783691406,335.1594543457031,4.854655344388448E-8
0.30000001192092896,4195112.564012203,-1.642548183720281E7,1.2243229411693646E7,4194753.233500933,-1.6425573607002158E7,1.2243229411693646E7,1527.1287723660234,632.8007512124926,323.51746309572707,399.9884854521679,400.01151417936995,1.035005539051781E-7,10012.999999995343,-75.67403887108158,36.019496138237955,32.18857577242866,45.000241315286466,2.638926036969612,-5.704852260804312E-4,-0.002562259382404053,-0.00393973788126281,-8.853471736789758E-4,-6.210033234310686E-6,1077.3519651229008,0.0017548379458816978,1454.8700296096865,482.9791755286406,-1420.3269259937745,-2.2693756829973544,-20401.300033543965,-4.357416068344242,-9.382000243931543E-4,14.74713965830285,0.5250701904296875,280.7740783691406,335.1594543457031,1.035005539051781E-7
0.4000000059604645,4195265.2766989935,-1.6425418556441398E7,1.2243261763268106E7,4194786.170750251,-1.6425540918881431E7,1.2243261763268108E7,1527.1249525968003,632.8144801422396,323.51403399542284,399.98480327974073,400.01519609744133,1.8421030745230382E-7,10012.999999981374,-75.67390367705394,36.0196059599112,32.18857588017241,45.00053509968148,2.638925988278293,-0.001189648701910697,-0.004989332888270885,-0.003939820368216739,5.0237512718723E-4,-1.105261844713823E-5,1077.3519651229565,0.001754837945882468,1454.8700296104753,482.97917552869046,-1420.3269333825028,-2.5622959715540987,-20401.29987368233,-4.037583195740969,-6.862038644612767E-4,16.327405119914513,0.5250701904296875,280.7740783691406,335.1594543457031,1.8421030745230382E-7
0.5,4195417.989001015,-1.642535527430629E7,1.2243294114501677E7,4194819.108314629,-1.6425508230740786E7,1.224329411450168E7,1527.1210810706648,632.8282239962533,323.51064231885624,399.98116738004734,400.01883167928116,2.8799854590033647E-7,10012.99999995716,-75.67376848160278,36.01971578057831,32.188575987915335,45.00097248620941,2.6389259368858586,-0.002028052801373023,-0.007017877988732325,-0.003939893749168547,0.001956149978944576,-1.7279912754020188E-5,1077.3519651230527,0.0017548379458838018,1454.870029611841,482.9791755287767,-1420.3269389540537,-2.583228834815821,-20401.299751087125,-3.0923616951548283,-4.775479683303274E-4,16.077452361077125,0.5250701904296875,280.7740783691406,335.1594543457031,2.8799854590033647E-7
0.6000000238418579,4195570.700914306,-1.642529199079634E7,1.2243326465397222E7,4194852.046190116,-1.642547554257908E7,1.2243326465397222E7,1527.1171820986233,632.8419757415289,323.50727042585385,399.97755594107224,400.02244273992113,4.116736533887888E-7,10012.9999999227,-75.67363328474008,36.01982560024899,32.188576095657425,45.001552190367306,2.6389258881422513,-0.003029813448325211,-0.008346812518964929,-0.003939969307588186,0.0033203557670286135,-2.470041920332733E-5,1077.3519651231895,0.0017548379458857,1454.8700296137845,482.9791755288995,-1420.326943509967,-2.3498740476564053,-20401.299649826276,-1.7254097275675753,-2.8775318060070276E-4,14.158676458509527,0.5250701904296875,280.7740783691406,335.1594543457031,4.116736533887888E-7
0.699999988079071,4195723.4124373095,-1.642522870591111E7,1.224335881595585E7,4194884.98437517,-1.6425442854395881E7,1.224335881595585E7,1527.1132791878558,632.8557285784372,323.5039012578604,399.97394787056623,400.02605037277533,5.531668705316406E-7,10012.999999877997,-75.6734980864705,36.01993541892696,32.188576203398696,45.00225824570873,2.6389258467154217,-0.004115860247591023,-0.008801178965699276,-0.0039400476968800315,0.004459806168939323,-3.3190012231898436E-5,1077.351965123367,0.001754837945888163,1454.8700296163063,482.97917552905875,-1420.3269483615604,-1.9054064264821573,-20401.29954591102,-0.15465075383731802,-9.438160486752167E-5,10.895996981171912,0.5250701904296875,280.7740783691406,335.1594543457031,5.531668705316406E-7
0.800000011920929,4195876.123570701,-1.6425165419650791E7,1.2243391166177062E7,4194917.922870477,-1.6425410166191373E7,1.2243391166177062E7,1527.1093930122745,632.8694765272501,323.50051981052115,399.9703246166869,400.02967312853735,7.114749962511269E-7,10012.999999812804,-75.67336288679199,36.020045236610656,32.18857631113919,45.00306272509714,2.638925815882336,-0.005196583970792583,-0.008333347945550407,-0.0039401195392049174,0.005272565119095734,-4.268849977506761E-5,1077.3519651236263,0.0017548379458917542,1454.8700296199831,482.979175529291,-1420.3269544716586,-1.3120104109161057,-20401.29942304068,1.4078869133306273,1.0806787759065628E-4,6.731408687240373,0.5250701904296875,280.7740783691406,335.1594543457031,7.114749962511269E-7
0.8999999761581421,4196028.834317004,-1.6425102132016122E7,1.2243423516059015E7,4194950.861678572,-1.64253774779663E7,1.2243423516059017E7,1527.105539736023,632.8832149118892,323.497114351431,399.9666716726706,400.03332551066245,8.853463384639326E-7,10012.999999733642,-75.67322768569683,36.020155053293756,32.18857641887886,45.0039295276121,2.638925796958885,-0.00618397487742813,-0.007012745279555761,-0.003940170704467318,0.005698273640547273,-5.312078030783596E-5,1077.3519651239408,0.0017548379458961158,1454.8700296244485,482.979175529573,-1420.326961884096,-0.6429097929687789,-20401.2992823207,2.775072874440677,3.0356512797879986E-4,2.168744647997385,0.5250701904296875,280.7740783691406,335.1594543457031,8.853463384639326E-7
1.0,4196181.544680085,-1.6425038843008226E7,1.2243455865598885E7,4194983.800803334,-1.6425344789721778E7,1.2243455865598885E7,1527.1017298640788,632.8969406912788,323.49367725593396,399.9629796090788,400.0370169438819,1.0716878477978753E-6,10012.999999632128,-75.67309248317325,36.02026486896659,32.18857652661773,45.00481874940994,2.638925789076374,-0.007002186697558551,-0.005005532660098562,-0.003940189427543572,0.005721460291879137,-6.430127086787252E-5,1077.3519651243441,0.0017548379459017083,1454.8700296301747,482.9791755299347,-1420.3269696613165,0.026158324652883227,-20401.299142442953,3.800358403341127,4.6119349644868635E-4,-2.283888562907914,0.5250701904296875,280.7740783691406,335.1594543457031,1.0716878477978753E-6
1.100000023841858,4196334.254664558,-1.6424975552628445E7,1.2243488214793315E7,4195016.74024939,-1.6425312101459157E7,1.2243488214793315E7,1527.097967719492,632.9106526101614,323.49020538787903,399.95924454395976,400.0407513052044,1.264677365497846E-6,10012.9999995213,-75.67295727920724,36.020374683617845,32.188576634355755,45.00569113494276,2.638925789412732,-0.007595664983531208,-0.002546749478800412,-0.0039401720072755764,0.00536987060647861,-7.588064192987076E-5,1077.3519651247846,0.0017548379459078139,1454.8700296364261,482.97917553032954,-1420.326976293518,0.6250928135126249,-20401.29903129339,4.388566801398836,5.489586983458139E-4,-6.167810194733923,0.5250701904296875,280.7740783691406,335.1594543457031,1.264677365497846E-6
1.2000000476837158,4196486.964275156,-1.6424912260878148E7,1.2243520563638851E7,4195049.680021483,-1.6425279413179806E7,1.2243520563638851E7,1527.09425156845,632.9243511635185,323.48670000930474,399.9554680315109,400.0445270364545,1.456153114531844E-6,10012.999999384396,-75.6728220737844,36.02048449723582,32.18857674209299,45.00651213154518,2.638925793840972,-0.007934257595829991,9.18746784785413E-5,-0.003940124819966191,0.0047083697106004435,-8.736918687191064E-5,1077.3519651253284,0.001754837945915356,1454.8700296441482,482.9791755308173,-1420.3269803571134,1.0963713899430445,-20401.298973638797,4.500876968135599,5.480881918629166E-4,-9.118232829504008,0.5250701904296875,280.7740783691406,335.1594543457031,1.456153114531844E-6
1.2999999523162842,4196639.673516162,-1.6424848967758588E7,1.2243552912132377E7,4195082.620123909,-1.642524672488497E7,1.2243552912132377E7,1527.0905743419219,632.9380383892321,323.48316625608527,399.95165641496953,400.0483377922937,1.6371977267226612E-6,10012.999999227002,-75.67268686689171,36.02059430980985,32.188576849829346,45.00725515324716,2.638925797827156,-0.008015080654345655,0.0026349445924109365,-0.0039400621623678295,0.0038293931262252615,-9.823186360335967E-5,1077.351965125954,0.0017548379459240272,1454.8700296530262,482.9791755313781,-1420.3269811098453,1.4001556965366533,-20401.298980446307,4.153827976827361,4.6167898472049274E-4,-10.89556676029191,0.5250701904296875,280.7740783691406,335.1594543457031,1.6371977267226612E-6
1.399999976158142,4196792.3823909415,-1.6424785673270741E7,1.2243585260271436E7,4195115.560560047,-1.6425214036575641E7,1.2243585260271437E7,1527.0869248410172,632.951717521094,323.47961226175096,399.94781974492594,400.0521735223103,1.8003048012360523E-6,10012.999999061227,-75.67255165851893,36.020704121331626,32.188576957564855,45.0079037647918,2.6389257973419085,-0.007861219142803,0.0048338887542451565,-0.003940001183031928,0.002841208667293147,-1.0801828807416314E-4,1077.3519651266126,0.0017548379459331603,1454.8700296623774,482.9791755319687,-1420.3269787852516,1.5171515809596454,-20401.299044271418,3.412791776380106,3.145265218336135E-4,-11.40120056293843,0.5250701904296875,280.7740783691406,335.1594543457031,1.8003048012360523E-6
1.5,4196945.090901591,-1.6424722377415217E7,1.2243617608054493E7,4195148.501332,-1.6425181348252414E7,1.2243617608054493E7,1527.0832892689702,632.9653925469779,323.47604804409764,399.9439704041474,400.05602184603873,1.941282533834965E-6,10012.999998869374,-75.67241644865965,36.02081393179592,32.188577065299526,45.00845264070634,2.638925789564354,-0.007517693061531038,0.006492012796914538,-0.003939956173531644,0.0018553896930616361,-1.1647695203009789E-4,1077.351965127375,0.0017548379459437294,1454.8700296731988,482.9791755326522,-1420.3269744908164,1.4491011713722384,-20401.29914206964,2.380984954893616,1.44863901368808E-4,-10.677321784125356,0.5250701904296875,280.7740783691406,335.1594543457031,1.941282533834965E-6
1.600000023841858,4197097.799048767,-1.6424659080192223E7,1.2243649955481062E7,4195181.442440444,-1.6425148659915507E7,1.2243649955481062E7,1527.0796529091958,632.9790677239445,323.4724842862248,399.9401216011531,400.05986955879473,2.0601824815003056E-6,10012.999998666346,-75.67228123731186,36.02092374120114,32.18857717303329,45.00890728959806,2.6389257732423523,-0.007045339654016505,0.007481990502547196,-0.00393993446875125,9.748715357877812E-4,-1.2361094889001834E-4,1077.3519651281817,0.0017548379459549144,1454.8700296846507,482.97917553337555,-1420.326969780561,1.2170314897810635,-20401.29924361988,1.1854560265296932,-8.141756552504376E-6,-8.891983430053214,0.5250701904296875,280.7740783691406,335.1594543457031,2.0601824815003056E-6
1.7000000476837158,4197250.506831682,-1.6424595781601533E7,1.2243682302551702E7,4195214.383884597,-1.6425115971564692E7,1.2243682302551702E7,1527.0760017652658,632.9927471034206,323.46893114603427,399.9362858980336,400.0637041030545,2.160953641805463E-6,10012.99999845773,-75.67214602447791,36.02103354954909,32.18857728076618,45.0092826600012,2.638925748686133,-0.006513424071318498,0.007754576141166249,-0.00393993530046716,2.838055144577336E-4,-1.296572185083278E-4,1077.3519651290108,0.001754837945966407,1454.8700296964175,482.9791755341188,-1420.3269661055865,0.8576034681155222,-20401.29932190648,-0.03830533125553265,-1.1606816406128928E-4,-6.312035604596656,0.5250701904296875,280.7740783691406,335.1594543457031,2.160953641805463E-6
1.7999999523162842,4197403.214248238,-1.642453248164255E7,1.2243714649267923E7,4195247.325662376,-1.642508328319937E7,1.2243714649267923E7,1527.072323995946,633.0064341149437,323.4653972153012,399.93247392239596,400.0675148557188,2.2500047691664804E-6,10012.999998237938,-75.67201081016411,36.021143356844895,32.18857738849821,45.00960086313762,2.6389257174766296,-0.00599187685441818,0.007338331554100648,-0.003939951637507542,-1.5985902671870466E-4,-1.3500028614998882E-4,1077.351965129884,0.0017548379459785162,1454.8700297088158,482.97917553490186,-1420.3269643571325,0.41809728237878757,-20401.299361287576,-1.1614120118398563,-1.6794017938082106E-4,-3.267741361512033,0.5250701904296875,280.7740783691406,335.1594543457031,2.2500047691664804E-6
1.899999976158142,4197555.921295314,-1.6424469180314379E7,1.2243746995631985E7,4195280.267770672,-1.6425050594818646E7,1.2243746995631987E7,1527.06861101194,633.0201312474929,323.46188872480144,399.9286933831321,400.07129411174094,2.334231595568781E-6,10012.99999801442,-75.67187559437991,36.02125316309626,32.18857749622935,45.009888314891306,2.6389256820253975,-0.005544006012065361,0.0063311073851365935,-0.003939973901383658,-3.28490642661169E-4,-1.4005389573412685E-4,1077.3519651307722,0.0017548379459908297,1454.8700297214232,482.9791755356982,-1420.3269646604424,-0.04934242024559875,-20401.299360717858,-2.074756953760301,-1.7020978702930734E-4,-0.11338011722935298,0.5250701904296875,280.7740783691406,335.1594543457031,2.334231595568781E-6
2.0,4197708.62796912,-1.6424405877615921E7,1.2243779341646625E7,4195313.210205705,-1.6425017906421423E7,1.2243779341646625E7,1527.0648581454652,633.0338398546024,323.4584090595304,399.9249484696815,400.07503768449726,2.4191944021367817E-6,10012.999997772276,-75.67174037713677,36.02136296831243,32.18857760395963,45.01017263923905,2.638925645122458,-0.005220423275115524,0.004884811399090935,-0.003939993892456889,-2.254028887672416E-4,-1.451516641282069E-4,1077.3519651317345,0.0017548379460041695,1454.8700297350813,482.97917553656083,-1420.326966464829,-0.49354340257601237,-20401.299331559076,-2.6990960588931014,-1.4101511987973936E-4,2.811735310693035,0.5250701904296875,280.7740783691406,335.1594543457031,2.4191944021367817E-6
2.0999999046325684,4197861.334265605,-1.642434257354602E7,1.2243811687314766E7,4195346.152963439,-1.6424985218006544E7,1.2243811687314767E7,1527.0610648554498,633.0475600943519,323.4549586105944,399.9212396680474,400.0787450896245,2.507970691567607E-6,10012.999997527339,-75.67160515844692,36.02147277250339,32.188577711689035,45.01047967828528,2.6389256095669764,-0.005054739480137163,0.0031855872179539974,-0.003940007431162564,1.1781173442526035E-4,-1.5047824149405642E-4,1077.3519651327078,0.0017548379460176637,1454.8700297488977,482.97917553743355,-1420.3269688489822,-0.8696018560079563,-20401.299291475905,-2.9912082596871428,-1.0169182132813148E-4,5.217739752191536,0.5250701904296875,280.7740783691406,335.1594543457031,2.507970691567607E-6
2.200000047683716,4198014.040180864,-1.6424279268103553E7,1.2243844032639232E7,4195379.096039979,-1.6424952529572882E7,1.2243844032639232E7,1527.0572344820387,633.0612910003734,323.4515349536094,399.91756398116877,400.0824193246402,2.600923011186751E-6,10012.999997269362,-75.67146993832219,36.021582575678686,32.188577819417624,45.01083091190669,2.6389255779107206,-0.005061347543027997,0.0014318401481823377,-0.003940014941853771,6.467155127175591E-4,-1.5605538067120506E-4,1077.3519651337328,0.001754837946031876,1454.870029763449,482.97917553835265,-1420.326970904189,-1.1431271299751737,-20401.299257352202,-2.9458012030223726,-6.907057104399428E-5,6.890945819344023,0.5250701904296875,280.7740783691406,335.1594543457031,2.600923011186751E-6
2.299999952316284,4198166.745711494,-1.6424215961287532E7,1.2243876377622483E7,4195412.039431936,-1.6424919841119453E7,1.2243876377622483E7,1527.0533736104135,633.0750306663675,323.44813331008345,399.91391549975117,400.0860662981668,2.6962513857142767E-6,10012.999997004867,-75.67133471677282,36.02169237784664,32.18857792714537,45.01124152990495,2.6389255522944066,-0.005235383935593452,-1.874135415881846E-4,-0.003940020120725144,0.0012914505181748416,-1.617750831428566E-4,1077.3519651347838,0.0017548379460464469,1454.8700297783678,482.97917553929494,-1420.3269720354108,-1.293062708321721,-20401.29923985225,-2.5932683138372528,-5.120499190525152E-5,7.710559908952713,0.5250701904296875,280.7740783691406,335.1594543457031,2.6962513857142767E-6
2.4000000953674316,4198319.450854873,-1.6424152653097212E7,1.224390872226641E7,4195444.9831367,-1.6424887152645513E7,1.224390872226641E7,1527.0494911405249,633.0887765158978,323.44474722191217,399.9102862369081,400.0896939953671,2.7909729567454633E-6,10012.999996729195,-75.67119949380674,36.02180217901371,32.188578034872286,45.01171930602065,2.6389255343318703,-0.005554698447544398,-0.0015116109632314395,-0.003940027549866302,0.0019752244733517014,-1.674583774047278E-4,1077.3519651358793,0.0017548379460616342,1454.8700297939174,482.9791755402771,-1420.3269720902476,-1.3129019846663974,-20401.299241408826,-1.9938750078615755,-4.742478995467536E-5,7.654433854336842,0.5250701904296875,280.7740783691406,335.1594543457031,2.7909729567454633E-6
2.5,4198472.155609343,-1.642408934353212E7,1.2243941066572199E7,4195477.927152623,-1.6424854464150589E7,1.2243941066572199E7,1527.045597182454,633.1025256225417,323.4413693524167,399.9066671192695,400.09331148694775,2.8819027875215397E-6,10012.999996446073,-75.67106426942897,36.02191197918388,32.18857814259839,45.01226434093136,2.638925525005376,-0.005983497761683083,-0.002423316809889864,-0.003940040392761689,0.0026228909012132417,-1.7291416725129238E-4,1077.3519651370043,0.001754837946077232,1454.8700298098875,482.97917554128577,-1420.326971295793,-1.2102744046787237,-20401.299257668034,-1.2291982544194386,-5.178523497306742E-5,6.793954734056088,0.5250701904296875,280.7740783691406,335.1594543457031,2.8819027875215397E-6
2.5999999046325684,4198624.859974268,-1.6424026032592079E7,1.2243973410540307E7,4195510.871479084,-1.6424821775634494E7,1.2243973410540307E7,1527.0417019069057,633.116275042738,323.4379923202131,399.9030490184547,400.0969278978743,2.966304720075641E-6,10012.999996153638,-75.67092904364137,36.02202177835874,32.18857825032363,45.01286961948966,2.638925524563518,-0.006477124652689288,-0.002857283525869859,-0.003940059092552365,0.003168713166656863,-1.7797828320453846E-4,1077.3519651381662,0.0017548379460933423,1454.8700298263823,482.97917554232765,-1420.3269700677843,-1.0050980567120738,-20401.299281191055,-0.39202273155329564,-5.782134394394234E-5,5.2796282361595654,0.5250701904296875,280.7740783691406,335.1594543457031,2.966304720075641E-6
2.700000047683716,4198777.563949988,-1.642396272027719E7,1.2244005754170472E7,4195543.816116433,-1.642478908709734E7,1.2244005754170472E7,1527.0378144749193,633.1300221254072,323.43460947597066,399.8994237116221,400.1005514471152,3.0421047085837927E-6,10012.999995853752,-75.67079381644288,36.02213157653732,32.18857835804807,45.01352228465622,2.638925532446576,-0.00698742625236563,-0.0028033667773056043,-0.003940081449093002,0.0035625605019131076,-1.8252628251502756E-4,1077.3519651393578,0.0017548379461098634,1454.8700298432977,482.9791755433961,-1420.3269687896652,-0.7265598721714405,-20401.29930547516,0.42425190062203455,-6.236788613023236E-5,3.319296949770762,0.5250701904296875,280.7740783691406,335.1594543457031,3.0421047085837927E-6
2.799999952316284,4198930.267537667,-1.6423899406587798E7,1.2244038097461833E7,4195576.761065847,-1.6424756398539469E7,1.2244038097461833E7,1527.033942153416,633.1437647676078,323.4312155446292,399.8957846754228,400.1041886541072,3.1077459539119445E-6,10012.999995543621,-75.67065858782995,36.0222413737168,32.18857846577166,45.01420542068373,2.638925547280826,-0.0074680722655366735,-0.0023034459581996606,-0.003940103838293687,0.003774001844322142,-1.8646475723471667E-4,1077.3519651405902,0.0017548379461269493,1454.8700298607912,482.97917554450095,-1420.3269676579305,-0.40936453017868046,-20401.299327617777,1.1354317516620571,-6.696931814076379E-5,1.1520748417537425,0.5250701904296875,280.7740783691406,335.1594543457031,3.1077459539119445E-6
2.9000000953674316,4199082.97073908,-1.6423836091524428E7,1.2244070440413099E7,4195609.706329112,-1.6424723709961403E7,1.2244070440413099E7,1527.0300896954077,633.1575015936029,323.4278070756945,399.8921276425682,400.1078437826865,3.161917703664585E-6,10012.999995233491,-75.67052335779712,36.0223511698927,32.18857857349443,45.01490013322605,2.6389255669785214,-0.00787928759983532,-0.001443121948733184,-0.003940122909299624,0.003794026409661916,-1.897150622198751E-4,1077.3519651418226,0.0017548379461440346,1454.8700298782844,482.97917554560587,-1420.3269666439166,-0.08967716563505133,-20401.29934873309,1.674675442329234,-7.664055738132447E-5,-0.9791021597927066,0.5250701904296875,280.7740783691406,335.1594543457031,3.161917703664585E-6
3.0,4199235.673556331,-1.642377277508769E7,1.224410278302272E7,4195642.6519083455,-1.6424691021363756E7,1.224410278302272E7,1527.0262590303046,633.1712320443477,323.42438266840804,399.8884508801258,400.11151856328786,3.203374973281825E-6,10012.999994911253,-75.67038812633803,36.02246096505983,32.18857868121635,45.01558768008912,2.6389255889575156,-0.008191539407849177,-3.394501335289851E-4,-0.003940136994312636,0.0036343869428369165,-1.922024983969095E-4,1077.351965143103,0.0017548379461617874,1454.8700298964607,482.97917554675394,-1420.3269655709166,0.19878104493439824,-20401.299372371763,1.998203647780115,-9.689497528597713E-5,-2.8532555374527626,0.5250701904296875,280.7740783691406,335.1594543457031,3.203374973281825E-6
3.0999999046325684,4199388.37599158,-1.642370945727822E7,1.2244135125289124E7,4195675.597805718,-1.6424658332747165E7,1.2244135125289124E7,1527.0224492735456,633.1849563748008,323.42094296494713,399.8847551811709,400.11521220168675,3.230994934710907E-6,10012.99999459181,-75.67025289344605,36.02257075921278,32.188578788937406,45.016251426932655,2.63892561045641,-0.008387874950781051,8.737071393268109E-4,-0.003940146685077288,0.0033248128147988203,-1.938596960826544E-4,1077.3519651443723,0.0017548379461793857,1454.8700299144791,482.97917554789205,-1420.3269642500113,0.4280894078395727,-20401.299401865213,2.088164699488338,-1.3056141688139178E-4,-4.292915212073041,0.5250701904296875,280.7740783691406,335.1594543457031,3.230994934710907E-6
3.200000047683716,4199541.078046767,-1.6423646138096584E7,1.224416746721089E7,4195708.544023182,-1.6424625644112194E7,1.224416746721089E7,1527.0186570306546,633.1986755662278,323.41749042966535,399.8810435920594,400.11892165193206,3.2440547954593058E-6,10012.999994270504,-75.67011765911526,36.02268055234674,32.188578896657546,45.01687843503465,2.6389256288928373,-0.008464759065984285,0.002060992476470038,-0.003940154436685185,0.0029085454074495418,-1.9464328772755835E-4,1077.351965145649,0.0017548379461970864,1454.8700299326024,482.97917554903677,-1420.3269626132712,0.5786233233757525,-20401.29943800902,1.9525633801857516,-1.7582156579010189E-4,-5.179485260816685,0.5250701904296875,280.7740783691406,335.1594543457031,3.2440547954593058E-6
3.299999952316284,4199693.77972339,-1.6423582817543224E7,1.2244199808786914E7,4195741.490562248,-1.6424592955459286E7,1.2244199808786914E7,1527.014876941818,633.2123911689746,323.4140289535597,399.87732092367617,400.1226421050667,3.242612876874773E-6,10012.999993938953,-75.66998242334112,36.02279034445797,32.18857900437687,45.01746054337811,2.638925642196607,-0.008431445987052791,0.003099876073513279,-0.00394016346634736,0.002436789084338698,-1.9455677261248638E-4,1077.3519651469664,0.0017548379462153526,1454.8700299513046,482.97917555021803,-1420.3269607797706,0.64049454937268,-20401.299478001885,1.6224879045622411,-2.2623643963015638E-4,-5.4612947546887165,0.5250701904296875,280.7740783691406,335.1594543457031,3.242612876874773E-6
3.4000000953674316,4199846.48102234,-1.6423519495618403E7,1.2244232150016543E7,4195774.437423819,-1.6424560266788712E7,1.2244232150016544E7,1527.0111023919835,633.2261050972672,323.4105633385395,399.8735931139974,400.1263676263031,3.227801556704435E-6,10012.999993618578,-75.66984718612085,36.0229001355442,32.188579112095276,45.017994867153654,2.6389256490550435,-0.008308050541202764,0.003892560813186094,-0.003940176460498121,0.001962741002627051,-1.936680934022661E-4,1077.3519651482395,0.001754837946233002,1454.870029969375,482.9791755513594,-1420.326959032723,0.6138594018428246,-20401.299516027742,1.1471141069324784,-2.7263823722023517E-4,-5.15400575888032,0.5250701904296875,280.7740783691406,335.1594543457031,3.227801556704435E-6
3.5,4199999.181943818,-1.6423456172322188E7,1.2244264490899617E7,4195807.384608106,-1.6424527578100525E7,1.2244264490899617E7,1527.007326299406,633.2398194011272,323.40709872482904,399.86986652016583,400.13009186250997,3.2018831461755326E-6,10012.99999329634,-75.66971194745383,36.023009925604974,32.18857921981281,45.01848370647115,2.6389256490314583,-0.008122626537827714,0.004374397000245429,-0.003940194614358436,0.001535859423415973,-1.9211298877053196E-4,1077.3519651495199,0.0017548379462507546,1454.8700299875513,482.97917555250746,-1420.3269577281274,0.5081520982952593,-20401.299545194197,0.587194296400193,-3.0602936385548674E-4,-4.333940416260915,0.5250701904296875,280.7740783691406,335.1594543457031,3.2018831461755326E-6
3.5999999046325684,4200151.882487324,-1.6423392847654441E7,1.2244296831436483E7,4195840.332114622,-1.6424494889394594E7,1.2244296831436483E7,1527.0035418942746,633.2535360409371,323.40364002574904,399.866147219462,400.1338087407156,3.1680069980666303E-6,10012.999992975034,-75.66957670734153,36.02311971464136,32.18857932752946,45.018933916413275,2.6389256425482563,-0.007907628059168649,0.004518190457597774,-0.003940217331280885,0.0011969524057370922,-1.9008041988399782E-4,1077.3519651507968,0.0017548379462684561,1454.8700300056755,482.9791755536522,-1420.3269571686521,0.34039926307611484,-20401.29955984538,0.007809908079356236,-3.2032417220762E-4,-3.1255241693826323,0.5250701904296875,280.7740783691406,335.1594543457031,3.1680069980666303E-6
3.700000047683716,4200304.582651729,-1.6423329521614846E7,1.2244329171627954E7,4195873.279942251,-1.6424462200670606E7,1.2244329171627954E7,1526.999743406342,633.2672566881664,323.40019142872353,399.862440391974,400.1375130849121,3.1297169016397675E-6,10012.999992660247,-75.66944146578734,36.02322950265617,32.188579435245195,45.01935584707755,2.6389256307563174,-0.0076961754970173045,0.004334256017056159,-0.003940242611838252,9.745420153115438E-4,-1.8778301409838605E-4,1077.3519651520476,0.0017548379462857984,1454.8700300234316,482.97917555477375,-1420.3269575012291,0.1328653896768758,-20401.299557425482,-0.5287822132323754,-3.1395246332976967E-4,-1.6846312931079526,0.5250701904296875,280.7740783691406,335.1594543457031,3.1297169016397675E-6
3.799999952316284,4200457.282435399,-1.6423266194202933E7,1.2244361511475205E7,4195906.22808937,-1.6424429511928087E7,1.2244361511475205E7,1526.9959265961145,633.2809825712974,323.39675600996236,399.85874984373316,400.1412010924722,3.0903523509095976E-6,10012.999992351048,-75.66930622279618,36.02333928965341,32.18857954296005,45.01976199609847,2.638925615329753,-0.007518529548063135,0.0038665285563857102,-0.003940267894606335,8.82790505390011E-4,-1.8542114105457586E-4,1077.3519651532763,0.0017548379463028323,1454.8700300408718,482.9791755558753,-1420.3269586724941,-0.08967535310681193,-20401.299539199987,-0.9694712374767659,-2.898824168369174E-4,-0.17987539315314732,0.5250701904296875,280.7740783691406,335.1594543457031,3.0903523509095976E-6
3.9000000953674316,4200609.981836364,-1.6423202865418136E7,1.224439385097965E7,4195939.176554023,-1.6424396823166477E7,1.2244393850979652E7,1526.9920890857434,633.2947143797551,323.3933354945467,399.85507770967024,400.1448706308726,3.0525081058385695E-6,10012.999992046505,-75.66917097837398,36.02344907563781,32.18857965067402,45.020165535993705,2.6389255982299873,-0.0073991299272608245,0.0031854382355096015,-0.003940290972080105,9.210880670776511E-4,-1.8315048635031417E-4,1077.3519651544864,0.00175483794631961,1454.87003005805,482.9791755569603,-1420.326960452534,-0.3027275938669532,-20401.299509679324,-1.2751848231458538,-2.542554102547001E-4,1.2260441999214073,0.5250701904296875,280.7740783691406,335.1594543457031,3.0525081058385695E-6
4.0,4200762.6808525175,-1.6423139535259854E7,1.2244426190142807E7,4195972.125334113,-1.642436413438516E7,1.2244426190142807E7,1526.988230469761,633.3084522316734,323.38993017623574,399.8514243541934,400.14852133693483,3.0176830705386237E-6,10012.999991734512,-75.66903573252709,36.02355886061455,32.188579758387164,45.02057888168826,2.6389255814767054,-0.0073544664314300935,0.0023785374002267532,-0.003940310632469535,0.0010752218938934767,-1.8106098423231742E-4,1077.351965155726,0.0017548379463367977,1454.8700300756482,482.97917555807186,-1420.326962512395,-0.48462395299139227,-20401.29947511255,-1.4239376324036275,-2.1429986009025015E-4,2.392970359026446,0.5250701904296875,280.7740783691406,335.1594543457031,3.0176830705386237E-6
4.099999904632568,4200915.379481809,-1.6423076203727502E7,1.2244458528966153E7,4196005.074427605,-1.6424331445583567E7,1.2244458528966153E7,1526.984352210454,633.3221957041369,323.38653899346116,399.84778846507226,400.1521545229023,2.9861935786357208E-6,10012.999991438352,-75.6689004852617,36.02366864458867,32.18857986609938,45.02101244328259,2.6389255669479272,-0.007391939623014771,0.0015400303073348062,-0.003940326835578944,0.0013198858489822452,-1.7917161471814325E-4,1077.351965156903,0.0017548379463531141,1454.8700300923538,482.979175559127,-1420.3269645185458,-0.6185894214399957,-20401.299441649324,-1.4118659553456712,-1.7634937466937117E-4,3.2163242023775487,0.5250701904296875,280.7740783691406,335.1594543457031,2.9861935786357208E-6
4.199999809265137,4201068.077722413,-1.6423012870820556E7,1.2244490867451001E7,4196038.0238326825,-1.6424298756761163E7,1.2244490867451001E7,1526.9804573450513,633.3359439180086,323.38315974178715,399.8441673162222,400.1557729137319,2.957316837637336E-6,10012.99999114126,-75.66876523658331,36.023778427564594,32.18857997381075,45.02147368577057,2.638925556219885,-0.007509773014522792,7.603902309138018E-4,-0.003940340438826436,0.00162216594527669,-1.7743901025824016E-4,1077.3519651580834,0.0017548379463694812,1454.8700301091114,482.97917556018547,-1420.32696621689,-0.6941314715143072,-20401.299413933968,-1.2522648305031967,-1.4460490274359472E-4,3.635389506114486,0.5250701904296875,280.7740783691406,335.1594543457031,2.957316837637336E-6
4.300000190734863,4201220.775572869,-1.6422949536538603E7,1.2244523205598395E7,4196070.973547899,-1.6424266067917537E7,1.2244523205598395E7,1526.976550049454,633.3496956643359,323.3797893904228,399.84055715925615,400.15938025571825,2.9295845536125853E-6,10012.999990844168,-75.6686299864963,36.02388820954587,32.188580081521266,45.02196656287292,2.6389255504472264,-0.007697875112475451,1.1714259512135997E-4,-0.003940352659031264,0.0019455640893592753,-1.7577507321675512E-4,1077.351965159264,0.0017548379463858481,1454.870030125869,482.9791755612439,-1420.3269674707476,-0.7076772854507966,-20401.299394390917,-0.9729269711216227,-1.2089887604815885E-4,3.6364437702543078,0.5250701904296875,280.7740783691406,335.1594543457031,2.9295845536125853E-6
4.400000095367432,4201373.47303217,-1.642288620088135E7,1.2244555543409057E7,4196103.923572259,-1.6424233379052397E7,1.2244555543409057E7,1526.972635115062,633.3634495559028,323.3764244618082,399.8369536930591,400.1629808471734,2.9011211211127375E-6,10012.999990548007,-75.66849473500368,36.023997990534944,32.188580189230926,45.02249136637556,2.6389255502833593,-0.007939527252416928,-3.323036961044619E-4,-0.003940364526659228,0.002254097251187822,-1.7406726726676425E-4,1077.3519651604406,0.0017548379464021632,1454.8700301425736,482.979175562299,-1420.3269682567009,-0.6624278857589097,-20401.299383395493,-0.6121312220825414,-1.0529161227168515E-4,3.2506614080062946,0.5250701904296875,280.7740783691406,335.1594543457031,2.9011211211127375E-6
4.5,4201526.1700997995,-1.6422822863848666E7,1.224458788088335E7,4196136.873905259,-1.6424200690165613E7,1.224458788088335E7,1526.9687174002272,633.3772041860759,323.373061429675,399.8333525561761,400.16657904634894,2.8699346614757815E-6,10012.999990264885,-75.668359482107,36.02410777053303,32.188580296939705,45.02304497072282,2.6389255558419813,-0.008213634788521268,-5.551751080441577E-4,-0.003940376548445421,0.002516035114668544,-1.721960796885469E-4,1077.3519651615657,0.0017548379464177614,1454.8700301585438,482.9791755633077,-1420.326968625942,-0.5675133351952469,-20401.2993800074,-0.21383500103246847,-9.705213233246468E-5,2.5474692694300085,0.5250701904296875,280.7740783691406,335.1594543457031,2.8699346614757815E-6
4.599999904632568,4201678.866775706,-1.6422759525440536E7,1.2244620218021298E7,4196169.8245468605,-1.6424168001257166E7,1.2244620218021298E7,1526.9648013157512,633.3909582777361,323.3696970924837,399.8297497886955,400.1701788099025,2.8341194138192805E-6,10012.999989980832,-75.66822422780635,36.0242175495402,32.18858040464764,45.02362141461651,2.638925566702926,-0.00849726519656831,-5.449293226904765E-4,-0.0039403886751183574,0.0027069117900754484,-1.7004716482915683E-4,1077.3519651626943,0.0017548379464334104,1454.8700301745664,482.97917556431975,-1420.3269686567298,-0.4365948276375422,-20401.299382895224,0.1773518104174551,-9.551908078719862E-5,1.624424406459923,0.5250701904296875,280.7740783691406,335.1594543457031,2.8341194138192805E-6
4.699999809265137,4201831.563060237,-1.6422696185657065E7,1.2244652554822639E7,4196202.77549742,-1.6424135312327165E7,1.224465255482264E7,1526.9608903958278,633.4047108074402,323.36632888492255,399.82614221748537,400.1737833080185,2.791967347093305E-6,10012.999989700504,-75.66808897210068,36.024327327555625,32.1885805123547,45.02421274029511,2.638925581967888,-0.008768194269535325,-3.199796759634619E-4,-0.0039404005315639605,0.002811550181779629,-1.675180408255983E-4,1077.3519651638082,0.0017548379464488542,1454.8700301903787,482.9791755653185,-1420.326968414272,-0.2860893698466506,-20401.299390968183,0.5209054659775648,-1.0048663534689695E-4,0.5948535980828509,0.5250701904296875,280.7740783691406,335.1594543457031,2.791967347093305E-6
4.800000190734863,4201984.258954037,-1.6422632844498446E7,1.2244684891286887E7,4196235.726757595,-1.6424102623375798E7,1.2244684891286887E7,1526.9569869930722,633.4184610936688,323.36295509936986,399.8225277300745,400.177394650855,2.742032592095711E-6,10012.999989421107,-75.66795371498795,36.024437104577565,32.18858062006091,45.024809977433925,2.638925600365573,-0.0090071847453013,8.010393117010556E-5,-0.003940411766167398,0.0028249600830199434,-1.6452195552574267E-4,1077.3519651649185,0.0017548379464642461,1454.870030206138,482.97917556631387,-1420.3269679373507,-0.1332418324722479,-20401.299403603036,0.7843322251230392,-1.1204385737073608E-4,-0.42521218836184554,0.5250701904296875,280.7740783691406,335.1594543457031,2.742032592095711E-6
4.900000095367432,4202136.95445792,-1.6422569501964929E7,1.224471722741345E7,4196268.678328213,-1.642406993440332E7,1.224471722741345E7,1526.9530921203861,633.4322088426043,323.359575000763,399.8189054167292,400.1810137467252,2.6831810089333885E-6,10012.999989151955,-75.66781845646568,36.02454688060409,32.18858072776625,45.02540416056214,2.6389256203999643,-0.0091997829410608,6.003310443140164E-4,-0.003940422347904543,0.002752099732826475,-1.609908605360033E-4,1077.351965165988,0.0017548379464790746,1454.8700302213203,482.9791755672728,-1420.3269672471724,0.005747231623122415,-20401.299420406547,0.9459788460674099,-1.3004416905459948E-4,-1.3294201965858288,0.5250701904296875,280.7740783691406,335.1594543457031,2.6831810089333885E-6
5.0,4202289.649572735,-1.6422506158056756E7,1.2244749563201686E7,4196301.630210135,-1.6424037245409977E7,1.2244749563201688E7,1526.949205445307,633.4459541498229,323.3561888307401,399.8152755756313,400.18464029708275,2.6146582570163446E-6,10012.999988885596,-75.66768319653129,36.02465665563296,32.18858083547072,45.02598726989015,2.6389256405245605,-0.009337476607865618,0.001177215677430939,-0.003940432684914108,0.002606611180811483,-1.5687949542098067E-4,1077.3519651670465,0.001754837946493748,1454.8700302363438,482.97917556822176,-1420.3269663723438,0.11734397358383439,-20401.29944078102,0.9964948344536719,-1.5353208073065616E-4,-2.031535331268871,0.5250701904296875,280.7740783691406,335.1594543457031,2.6146582570163446E-6
5.099999904632568,4202442.344299231,-1.642244281277416E7,1.224478189865105E7,4196334.58240412,-1.6424004556395985E7,1.224478189865105E7,1526.9453254259147,633.459697461051,323.3527977089621,399.8116395909363,400.1882729184919,2.5361680968671863E-6,10012.999988622032,-75.66754793518241,36.02476642966231,32.18858094317431,45.02655300205656,2.6389256593210186,-0.009418144498883277,0.0017460751586845802,-0.003940443528695728,0.0024087387538995397,-1.5217008581203118E-4,1077.3519651680938,0.0017548379465082682,1454.8700302512107,482.97917556916076,-1420.326965370393,0.19190179065402432,-20401.2994635105,0.9388921603621778,-1.8044317766907625E-4,-2.472983212445377,0.5250701904296875,280.7740783691406,335.1594543457031,2.5361680968671863E-6
5.199999809265137,4202595.038637958,-1.6422379466117306E7,1.2244814233761122E7,4196367.534910732,-1.6423971867361527E7,1.2244814233761122E7,1526.9414495635324,633.4734394991232,323.3494034496114,399.807999705938,400.19190936936553,2.447938584282383E-6,10012.999988372438,-75.66741267241737,36.02487620269073,32.188581050877026,45.02709730350419,2.638925675655828,-0.009445801032848578,0.00224790858197522,-0.003940455720727223,0.002182710311813458,-1.4687631505694299E-4,1077.3519651690856,0.0017548379465220192,1454.8700302652899,482.9791755700501,-1420.3269643366318,0.2243832624291403,-20401.29948663568,0.7873050777282441,-2.07744276849553E-4,-2.62693041438377,0.5250701904296875,280.7740783691406,335.1594543457031,2.447938584282383E-6
5.300000190734863,4202747.732589179,-1.6422316118086271E7,1.2244846568531709E7,4196400.487730245,-1.6423939178306676E7,1.2244846568531709E7,1526.9375747368467,633.4871811673523,323.34600831876884,399.8043587230948,400.1955468497239,2.3507402318045933E-6,10012.999988132156,-75.66727740823535,36.024985974717545,32.188581158578835,45.02761862722194,2.6389256887942873,-0.009429714935251517,0.0026351627113380773,-0.003940469896688197,0.001953896875941169,-1.410444139082756E-4,1077.3519651700403,0.001754837946535256,1454.8700302788427,482.9791755709061,-1420.3269633953407,0.21454325406916433,-20401.29950770735,0.5646729603429687,-2.319859959243331E-4,-2.4987211049804725,0.5250701904296875,280.7740783691406,335.1594543457031,2.3507402318045933E-6
5.400000095367432,4202900.426152828,-1.6422252768681051E7,1.224487890296284E7,4196433.440862606,-1.6423906489231428E7,1.2244878902962841E7,1526.9336975764584,633.50092344114,323.3426147624622,399.80071966772965,400.1991823371927,2.2458209230080683E-6,10012.999987908639,-75.66714214263648,36.025095745742846,32.18858126627975,45.02811790834164,2.6389256984576903,-0.009383044995722019,0.0028758673627807354,-0.003940486268328815,0.0017460640883916474,-1.347492553804841E-4,1077.3519651709285,0.0017548379465475701,1454.8700302914506,482.9791755717024,-1420.326962673154,0.1665974236050212,-20401.29952427598,0.29967748664941285,-2.500641749065835E-4,-2.1229175107027607,0.5250701904296875,280.7740783691406,335.1594543457031,2.2458209230080683E-6
5.5,4203053.119328509,-1.6422189417901535E7,1.2244911237054791E7,4196466.394307429,-1.6423873800135663E7,1.2244911237054791E7,1526.9298148374492,633.5146672601047,323.339225136191,399.797085453495,400.2028129211968,2.1347632923607307E-6,10012.999987685122,-75.66700687562195,36.025205515767624,32.18858137397979,45.028598280013156,2.638925704820201,-0.009321166882355476,0.0029558252937935004,-0.003940504560194264,0.0015789978875985202,-1.2808579754164384E-4,1077.3519651718166,0.0017548379465598836,1454.870030304058,482.9791755724987,-1420.3269622695627,0.08844539830587032,-20401.299534505397,0.023300665384616046,-2.599231120257173E-4,-1.5574822093246903,0.5250701904296875,280.7740783691406,335.1594543457031,2.1347632923607307E-6
5.599999904632568,4203205.812115518,-1.642212606574752E7,1.2244943570808066E7,4196499.348064025,-1.6423841111019189E7,1.2244943570808066E7,1526.9259237309757,633.5284134320192,323.3358414642417,399.7934585846202,400.20643610037655,2.0192746319480648E-6,10012.999987477437,-75.66687160719385,36.02531528479346,32.18858148167894,45.029064579556504,2.6389257084521405,-0.009259893547919267,0.002878772050022542,-0.003940524110704554,0.0014667257972402752,-1.2115647791688389E-4,1077.351965172642,0.0017548379465713256,1454.8700303157732,482.9791755732387,-1420.3269622294545,-0.009434961198067892,-20401.299537587794,-0.23460178663580705,-2.609633083920926E-4,-0.8759372367240282,0.5250701904296875,280.7740783691406,335.1594543457031,2.0192746319480648E-6
5.699999809265137,4203358.50451291,-1.6422062712218747E7,1.2244975904223332E7,4196532.302131458,-1.6423808421881739E7,1.2244975904223332E7,1526.9220221831606,633.5421625577691,323.3324652518081,399.78984092343586,400.2100500147712,1.9009572724826285E-6,10012.999987279996,-75.66673633735499,36.02542505282279,32.18858158937719,45.02952271432047,2.638925710223723,-0.009213783396718795,0.002664641708188041,-0.003940544084414443,0.0014164757685919953,-1.1405743634895771E-4,1077.3519651734264,0.001754837946582203,1454.8700303269102,482.97917557394214,-1420.3269625351911,-0.11527838800262691,-20401.299533941037,-0.4483440523284246,-2.540489185776096E-4,-0.1584954033905077,0.5250701904296875,280.7740783691406,335.1594543457031,1.9009572724826285E-6
5.800000190734863,4203511.19651957,-1.6421999357314898E7,1.2245008237301392E7,4196565.25650863,-1.6423775732723003E7,1.2245008237301392E7,1526.91810899969,633.5559149836075,323.3290973655699,399.786233542559,400.21365359341615,1.7811087218433386E-6,10012.999987097457,-75.66660106610875,36.0255348198582,32.18858169707455,45.02997896113666,2.6389257111849935,-0.009194706044768549,0.0023462637597455862,-0.003940563708314133,0.0014284259893197495,-1.0686652331060031E-4,1077.3519651741517,0.0017548379465922588,1454.870030337206,482.97917557459243,-1420.3269631123392,-0.21736427995138005,-20401.299525024875,-0.598797397588788,-2.4115255655488E-4,0.5168653206137324,0.5250701904296875,280.7740783691406,335.1594543457031,1.7811087218433386E-6
5.900000095367432,4203663.888134316,-1.6421936001035636E7,1.2245040570043093E7,4196598.211194365,-1.6423743043542635E7,1.2245040570043093E7,1526.9141839256854,633.5696707837523,323.32573799028205,399.7826366711081,400.21724660800544,1.6605769417310512E-6,10012.9999869233,-75.66646579345866,36.025644585902626,32.188581804771026,45.03043927995609,2.6389257124404732,-0.009210797300854544,0.001964952366427395,-0.003940582448714915,0.0014962137521131857,-9.963461650386307E-5,1077.3519651748438,0.0017548379466018533,1454.8700303470293,482.97917557521293,-1420.3269638515305,-0.3052434811102829,-20401.29951294358,-0.6749070439737404,-2.2479280232801102E-4,1.0824186583011484,0.5250701904296875,280.7740783691406,335.1594543457031,1.6605769417310512E-6
6.0,4203816.579355984,-1.6421872643380634E7,1.2245072902449261E7,4196631.1661875155,-1.642371035434031E7,1.2245072902449261E7,1526.91024760254,633.5834297728425,323.32238666013336,399.77904973343084,400.22082963413783,1.539708335940304E-6,10012.999986767769,-75.66633051940819,36.02575435095877,32.18858191246662,45.03090871230244,2.6389257150300414,-0.0092658857542632,0.0015655355934778826,-0.003940600079666975,0.0016080925954382853,-9.238250015641825E-5,1077.3519651754618,0.0017548379466104222,1454.8700303558026,482.97917557576704,-1420.3269646339256,-0.3707393829546547,-20401.299499923603,-0.6742470250821326,-2.0746397058246657E-4,1.487028139798639,0.5250701904296875,280.7740783691406,335.1594543457031,1.539708335940304E-6
6.099999904632568,4203969.270183513,-1.6421809284349592E7,1.2245105234520657E7,4196664.121487034,-1.6423677665115733E7,1.2245105234520659E7,1526.9063014339106,633.5971915447266,323.319042356022,399.7754714693949,400.2244039310902,1.4183730741024192E-6,10012.99998662714,-75.66619524396054,36.02586411502931,32.18858202016131,45.03139092093379,2.638925719828446,-0.009359412622217126,0.0011913882410218182,-0.003940616641906071,0.0017485677145662455,-8.510238444614515E-5,1077.3519651760207,0.0017548379466181695,1454.870030363735,482.97917557626806,-1420.3269653563195,-0.40863607325063017,-20401.29948789873,-0.6026295458169593,-1.9122375306324102E-4,1.7002729862870005,0.5250701904296875,280.7740783691406,335.1594543457031,1.4183730741024192E-6
6.199999809265137,4204121.960616011,-1.6421745923942253E7,1.2245137566257918E7,4196697.077092036,-1.6423644975868633E7,1.2245137566257918E7,1526.902347381699,633.6109555315362,323.31570365363814,399.77190011754567,400.2279712588027,1.2960509536696918E-6,10012.999986481853,-75.66605996711839,36.02597387811642,32.18858212785517,45.031887908033596,2.6389257274682514,-0.009486817294603335,8.799873899863718E-4,-0.003940632331348907,0.001900302882139841,-7.776305722018151E-5,1077.351965176598,0.0017548379466261737,1454.87003037193,482.9791755767857,-1420.3269659459033,-0.4170053403245992,-20401.299478252124,-0.47288148922897777,-1.775115706550423E-4,1.7140981864504938,0.5250701904296875,280.7740783691406,335.1594543457031,1.2960509536696918E-6
6.300000190734863,4204274.650652803,-1.6421682562158434E7,1.2245169897661518E7,4196730.033001862,-1.642361228659884E7,1.224516989766152E7,1526.8983877187443,633.6247210752977,323.3123689029686,399.7683336371428,400.2315336560428,1.171953584844232E-6,10012.999986363575,-75.66592468888372,36.02608364022162,32.18858223554813,45.03239993018437,2.638925738291222,-0.009640317740497813,6.594209118529006E-4,-0.003940647374769349,0.002046077551672197,-7.031721509065392E-5,1077.351965177068,0.0017548379466326897,1454.8700303786018,482.9791755772071,-1420.3269663607762,-0.3971615089548582,-20401.299471721548,-0.30296894361474824,-1.6717945618438534E-4,1.541976165895639,0.5250701904296875,280.7740783691406,335.1594543457031,1.171953584844232E-6
6.400000095367432,4204427.340293446,-1.642161919899801E7,1.2245202228731774E7,4196762.989216078,-1.642357959730622E7,1.2245202228731774E7,1526.8944247673596,633.63848750364,323.3090364180902,399.7647699429253,400.2350932058847,1.0451474281580886E-6,10012.99998624716,-75.66578940925787,36.02619340134607,32.18858234324021,45.032925601605776,2.6389257523301994,-0.009809966857796735,5.461417804582888E-4,-0.003940661943574493,0.002170585597546456,-6.270884568948532E-5,1077.3519651775305,0.0017548379466391024,1454.8700303851676,482.97917557762185,-1420.3269665893588,-0.35328181487541516,-20401.299468576195,-0.11372975219960645,-1.6064396186266094E-4,1.2158882949214787,0.5250701904296875,280.7740783691406,335.1594543457031,1.0451474281580886E-6
6.5,4204580.029537718,-1.6421555834460922E7,1.2245234559468828E7,4196795.9457344785,-1.642354690799072E7,1.2245234559468828E7,1526.8904606522547,633.652254201328,323.30570465653483,399.7612071269741,400.2386518140919,9.146683339622541E-7,10012.999986150302,-75.66565412824143,36.02630316149018,32.18858245093143,45.03346216261797,2.638925769321467,-0.009984858760695804,5.441118936087876E-4,-0.0039406761307355575,0.002261898468756494,-5.4880100037735247E-5,1077.3519651779154,0.001754837946644439,1454.8700303906314,482.97917557796694,-1420.326966636348,-0.2917536068396296,-20401.299468727284,0.073528852668289,-1.5804804206709377E-4,0.7815823035970719,0.5250701904296875,280.7740783691406,335.1594543457031,9.146683339622541E-7
6.599999904632568,4204732.718385595,-1.6421492468547177E7,1.2245266889872687E7,4196828.902557051,-1.6423514218652347E7,1.2245266889872689E7,1526.8864970927139,633.6660206704312,323.3023723701787,399.75764364535314,400.24221102272173,7.796128045356454E-7,10012.99998607114,-75.66551884583447,36.026412920653954,32.18858255862172,45.034005872214436,2.6389257887462616,-0.010154345081036555,6.453210592966116E-4,-0.003940689984834113,0.002312464320094567,-4.6776768272138725E-5,1077.3519651782299,0.0017548379466488006,1454.8700303950968,482.97917557824894,-1420.3269665168034,-0.22033846692041695,-20401.29947191998,0.23930196683079583,-1.5935092596919276E-4,0.2927399604597672,0.5250701904296875,280.7740783691406,335.1594543457031,7.796128045356454E-7
6.699999809265137,4204885.406837195,-1.642142910125681E7,1.2245299219943257E7,4196861.8596839225,-1.6423481529291129E7,1.2245299219943257E7,1526.882535252813,633.6797865736937,323.29903871399785,399.7540784526402,400.24577187579325,6.39211435782272E-7,10012.999985999428,-75.6653835620366,36.02652267883721,32.18858266631118,45.034552473868466,2.6389258098977613,-0.010309133217995184,8.315228881288329E-4,-0.0039407035716648555,0.002319573301988933,-3.835268614693632E-5,1077.351965178515,0.001754837946652751,1454.8700303991418,482.97917557850445,-1420.326966250843,-0.14725527111856243,-20401.29947780303,0.36779807600024667,-1.6432445772807114E-4,-0.19524743897104882,0.5250701904296875,280.7740783691406,335.1594543457031,6.39211435782272E-7
6.800000190734863,4205038.094892721,-1.6421365732589884E7,1.224533154968037E7,4196894.81711531,-1.6423448839907136E7,1.2245331549680373E7,1526.8785756611778,633.6935517577816,323.29570330433984,399.75051107402624,400.24933484733833,4.92889796532836E-7,10012.999985941686,-75.66524827684715,36.0266324360392,32.18858277399974,45.0350976812313,2.6389258319650426,-0.010442160669408892,0.0010769158903819892,-0.003940717026261232,0.002285279636031832,-2.9573387791970163E-5,1077.3519651787444,0.0017548379466559318,1454.8700304023985,482.97917557871017,-1420.326965862389,-0.0802827663273794,-20401.29948590681,0.4483203394083582,-1.724842077237554E-4,-0.6312245439323292,0.5250701904296875,280.7740783691406,335.1594543457031,4.92889796532836E-7
6.900000095367432,4205190.782552397,-1.642130236254648E7,1.224536387908386E7,4196927.774851449,-1.642341615050044E7,1.224536387908386E7,1526.8746182033897,633.7073162555102,323.2923662244412,399.746941612172,400.2528998346116,3.4030665574391605E-7,10012.999985894188,-75.6651129902654,36.02674219225943,32.18858288168743,45.035637629966615,2.6389258541266054,-0.010549168356333027,0.0013514166768300033,-0.003940730567258864,0.002215829564609101,-2.0418399344634963E-5,1077.3519651789331,0.001754837946658549,1454.870030405078,482.9791755788794,-1420.3269653827945,-0.025976693010110633,-20401.299495613832,0.47600627469661666,-1.8302459648111835E-4,-0.9733199403077513,0.5250701904296875,280.7740783691406,335.1594543457031,3.4030665574391605E-7
7.0,4205343.469816408,-1.642123899112665E7,1.2245396208153578E7,4196960.7328925375,-1.6423383461071102E7,1.2245396208153578E7,1526.8706621824763,633.7210802683712,323.28902798049984,399.7433706929213,400.2564662123768,1.8138834434466844E-7,10012.999985871837,-75.66497770229076,36.026851947497406,32.18858298937422,45.036169251942034,2.6389258756403526,-0.010628938807063877,0.001624137284122336,-0.003940744465565272,0.0021206922939351926,-1.0883300660680106E-5,1077.351965179022,0.0017548379466597803,1454.8700304063389,482.97917557895903,-1420.3269648515638,0.010927078275603542,-20401.299506110485,0.4519027403079932,-1.9482253264868632E-4,-1.192648269281771,0.5250701904296875,280.7740783691406,335.1594543457031,1.8138834434466844E-7
7.099999904632568,4205496.156684843,-1.6421175618330428E7,1.2245428536889447E7,4196993.691238675,-1.6423350771619152E7,1.2245428536889447E7,1526.866706435996,633.7348441326724,323.28568941665065,399.7397993601768,400.2600329379445,1.633449642213236E-8,10012.999985856004,-75.66484241292292,36.02696170175284,32.18858309706014,45.03669053779276,2.6389258959208903,-0.010683196403040909,0.0018666874255936845,-0.003940758980038219,0.0020113249596999017,-9.800697853279416E-7,1077.3519651790848,0.001754837946660652,1454.8700304072313,482.9791755790154,-1420.3269643177796,0.027873565565735118,-20401.29951644916,0.3824142110033146,-2.0653907267842442E-4,-1.27537111445702,0.5250701904296875,280.7740783691406,335.1594543457031,1.633449642213236E-8
7.199999809265137,4205648.8431576565,-1.6421112244157812E7,1.2245460865291486E7,4197026.649889831,-1.6423318082144594E7,1.2245460865291487E7,1526.8627494932239,633.7486082740617,323.2823516008224,399.7362289347534,400.2635986921737,-1.5440019751622458E-7,10012.999985869043,-75.664707122162,36.02707145502577,32.18858320474513,45.037200668439795,2.6389259145940307,-0.01071620575757817,0.002055967289858297,-0.00394077428616824,0.0018998214280683528,9.264011850973475E-6,1077.351965179033,0.0017548379466599344,1454.8700304064964,482.979175578969,-1420.3269638319416,0.024593277040257166,-20401.29952560406,0.2782285929271959,-2.168090686609503E-4,-1.2230210473254937,0.5250701904296875,280.7740783691406,335.1594543457031,-1.5440019751622458E-7
7.300000190734863,4205801.52923465,-1.642104886860875E7,1.224549319335983E7,4197059.608845817,-1.6423285392647363E7,1.224549319335983E7,1526.8587897529178,633.7623731560759,323.2790156956556,399.7326608547358,400.26716203892204,-3.3015575695571897E-7,10012.999985891394,-75.66457183000854,36.02718120731666,32.188583312429245,45.03770001232384,2.638925931524476,-0.010734134630715627,0.002176195943743187,-0.003940790425539493,0.0017975954367205533,1.9809345417343138E-5,1077.351965178944,0.001754837946658703,1454.8700304052356,482.97917557888934,-1420.3269634417234,0.0029600154520239585,-20401.29953268148,0.1528766681639333,-2.2446948423748836E-4,-1.0511942258489673,0.5250701904296875,280.7740783691406,335.1594543457031,-3.3015575695571897E-7
7.400000095367432,4205954.214915465,-1.6420985491683146E7,1.2245525521094726E7,4197092.568106286,-1.6423252703127373E7,1.2245525521094726E7,1526.8548256614915,633.7761392285532,323.2756828291368,399.7290965154637,400.2707215848508,-5.10142484699827E-7,10012.99998593703,-75.6644365364636,36.027290958626395,32.188583420112444,45.03818999752164,2.6389259468136794,-0.010744263641070005,0.002220020049756918,-0.003940807293836388,0.001714233566039058,3.060854908198962E-5,1077.3519651787628,0.0017548379466561885,1454.870030402661,482.9791755787267,-1420.3269631801345,-0.03336687916112205,-20401.299537033658,0.021097035997405957,-2.287577881361358E-4,-0.7868563741487199,0.5250701904296875,280.7740783691406,335.1594543457031,-5.10142484699827E-7
7.5,4206106.900199594,-1.6420922113380857E7,1.2245557848496528E7,4197125.527670745,-1.6423220013584474E7,1.2245557848496528E7,1526.8508558728695,633.7899068813339,323.27235397854173,399.7255371259597,400.274276122791,-6.935322858225845E-7,10012.999985997565,-75.66430124152868,36.02740070895611,32.18858352779478,45.03867288308045,2.638925960771731,-0.010754139533293832,0.0021886553288459525,-0.0039408246699768204,0.0016566257340572188,4.161193714935507E-5,1077.3519651785223,0.0017548379466528535,1454.8700303992468,482.9791755785111,-1420.326963061529,-0.07945937614007637,-20401.2995384125,-0.10279880154701208,-2.2942679788684472E-4,-0.4646673482052281,0.5250701904296875,280.7740783691406,335.1594543457031,-6.935322858225845E-7
7.599999904632568,4206259.585086416,-1.6420858733701712E7,1.2245590175565679E7,4197158.4875385845,-1.64231873240185E7,1.2245590175565679E7,1526.8468793745667,633.8036764077269,323.2690298789086,399.7219835956853,400.27782474480733,-8.795572625786008E-7,10012.999986076728,-75.66416594520562,36.02751045830735,32.18858363547621,45.0391514595424,2.638925973868378,-0.010770762695520242,0.00209111749030149,-0.0039408422736352524,0.0016284439533072541,5.277343575471605E-5,1077.3519651782078,0.0017548379466484924,1454.8700303947815,482.97917557822905,-1420.3269630778163,-0.1297333475369054,-20401.299536982635,-0.2063977401164469,-2.2674607316730544E-4,-0.12276477114045642,0.5250701904296875,280.7740783691406,335.1594543457031,-8.795572625786008E-7
7.699999809265137,4206412.269575226,-1.6420795352645513E7,1.2245622502302676E7,4197191.44770911,-1.6423154634429254E7,1.2245622502302678E7,1526.842895569367,633.8174479808337,323.26571096375295,399.7184364611725,400.28136691543676,-1.0675897783585242E-6,10012.999986179173,-75.66403064749655,36.02762020668175,32.18858374315673,45.0396287163648,2.6389259866704964,-0.010799893915366832,0.0019426927474271087,-0.003940859830666258,0.0016299976023912933,6.405538670151145E-5,1077.3519651778006,0.001754837946642849,1454.8700303890032,482.97917557786405,-1420.3269632013532,-0.17858366216040442,-20401.299533276084,-0.2803457947795388,-2.214023406850174E-4,0.20149841936755575,0.5250701904296875,280.7740783691406,335.1594543457031,-1.0675897783585242E-6
7.800000190734863,4206564.953665282,-1.642073197021205E7,1.2245654828708047E7,4197224.408181592,-1.6423121944816515E7,1.2245654828708047E7,1526.8389043072777,633.8312216442665,323.2623973418818,399.71489585730654,400.2849025003301,-1.257203990689959E-6,10012.999986295588,-75.66389534840363,36.027729954081124,32.18858385083638,45.04010751342361,2.638925999774711,-0.010845541568914638,0.0017628641180386043,-0.003940877125641105,0.001658452616961483,7.543223944139754E-5,1077.351965177338,0.0017548379466364352,1454.8700303824364,482.97917557744927,-1420.3269633918935,-0.22097394373126097,-20401.299528078307,-0.31910057363374295,-2.14334053453058E-4,0.47541495065364003,0.5250701904296875,280.7740783691406,335.1594543457031,-1.257203990689959E-6
