time,eiPosition_ft_X,eiPosition_ft_Y,eiPosition_ft_Z,eiVelocity_ft_s_X,eiVelocity_ft_s_Y,eiVelocity_ft_s_Z,feVelocity_ft_s_X,feVelocity_ft_s_Y,feVelocity_ft_s_Z,altitudeMsl_ft,longitude_deg,latitude_deg,localGravity_ft_s2,eulerAngle_deg_Yaw,eulerAngle_deg_Pitch,eulerAngle_deg_Roll,bodyAngularRateWrtEi_deg_s_Roll,bodyAngularRateWrtEi_deg_s_Pitch,bodyAngularRateWrtEi_deg_s_Yaw,speedOfSound_ft_s,airDensity_slug_ft3,ambientPressure_lbf_ft2,ambientTemperature_dgR,aero_bodyForce_lbf_X,aero_bodyForce_lbf_Y,aero_bodyForce_lbf_Z,aero_bodyMoment_ftlbf_L,aero_bodyMoment_ftlbf_M,aero_bodyMoment_ftlbf_N,mach,dynamicPressure_lbf_ft2
0.0,4194654.42372,-1.64256716713E7,1.22431323548E7,1527.14819503,632.768137531,323.536464734,400.010306117,400.010306117,-2.84217094304E-14,10013.0,-75.6744444444,36.0191666667,32.188575449212834,45.0,2.63872639635,5.76291450338E-13,0.00250011334537,-0.00394714404607,-0.0023443260021,1077.35273281,0.00175483349468,1454.88339281,482.979175529,-1420.44198427,4.44998745201E-11,-20401.3025899,-7.01484256089E-16,8.36735125631E-11,1.5633486196E-15,0.525083366639,280.787827751
0.1,4194807.13836,-1.64256083938E7,1.22431647083E7,1527.14466506,632.781783143,323.532825408,400.006364254,400.014247972,2.93701617693E-7,10013.0,-75.6743092513,36.0192764943,32.18857555692848,45.0000880696,2.63872561462,-2.31092637549E-5,0.00180810820091,-0.00394715266359,-0.00209097126374,1077.35273281,0.00175483349468,1454.88339281,482.979175529,-1420.44215561,-0.791147998978,-20401.2988428,-2.0546587979,-1.83063093573E-8,5.22010698704,0.525083366659,280.787827773
0.2,4194959.85265,-1.6425545115E7,1.22431970614E7,1527.14104086,632.795456386,323.529253971,400.002506719,400.018105484,1.14523029993E-6,10012.9999999,-75.6741740567,36.0193863209,32.18857566469499,45.0002247754,2.63872483218,-1.68452785701E-4,1.02622899473E-4,-0.00394715594158,-0.00138912740484,1077.35273281,0.00175483349468,1454.88339282,482.979175529,-1420.44231392,-1.45323871072,-20401.2953864,-3.21271114525,-1.78697519004E-8,9.45078117432,0.525083366718,280.787827836
0.3,4195112.56657,-1.64254818347E7,1.22432294141E7,1527.13733548,632.809153453,323.525740996,399.998721823,400.021890344,2.51091651648E-6,10012.9999997,-75.6740388607,36.0194961464,32.18857577241612,45.0004494328,2.63872404986,-5.08517894117E-4,-0.00208199436913,-0.00394715481548,-3.56164869498E-4,1077.35273281,0.00175483349469,1454.88339283,482.97917553,-1420.44245927,-1.92208134188,-20401.2922205,-3.54627402087,-1.76914909389E-8,12.2994819417,0.525083366815,280.787827941
0.4,4195265.28012,-1.64254185531E7,1.22432617665E7,1527.13356612,632.822869335,323.522274021,399.994994128,400.025617994,4.34805733107E-6,10012.9999994,-75.6739036631,36.0196059709,32.18857588016434,45.0007881499,2.63872326931,-0.00106556957487,-0.00426940008562,-0.00394715620461,8.64429271805E-4,1077.35273281,0.00175483349471,1454.88339285,482.979175531,-1420.44259193,-2.16140204357,-20401.2893379,-3.18301812605,-1.75787135959E-8,13.5660647836,0.525083366949,280.787828088
0.5,4195417.99328,-1.64253552702E7,1.22432941186E7,1527.12975267,632.836598251,323.518838644,399.9913058,400.029306269,6.61602359742E-6,10012.9999989,-75.6737684641,36.0197157943,32.18857598795743,45.0012521278,2.63872249289,-0.00181919471055,-0.00607333957196,-0.00394716885401,0.00212134891012,1077.35273281,0.00175483349474,1454.88339288,482.979175533,-1420.44271285,-2.16410276993,-20401.2867165,-2.2940119981,-1.70439307112E-8,13.2461987127,0.525083367121,280.787828278
0.6,4195570.70607,-1.64252919858E7,1.22433264703E7,1527.12591584,632.850334186,323.515419871,399.987638272,400.032973739,9.27768061842E-6,10012.9999981,-75.6736332637,36.0198256168,32.18857609569914,45.0018377658,2.63872172321,-0.00271654118055,-0.00722054751006,-0.00394719839533,0.00327292905992,1077.35273281,0.00175483349479,1454.88339292,482.979175535,-1420.44282357,-1.95023386148,-20401.2843209,-1.07618868099,-1.6294507077E-8,11.5131395053,0.525083367332,280.787828513
0.7,4195723.41846,-1.64252287001E7,1.22433588216E7,1527.12207522,632.864071447,323.512003497,399.983973961,400.036637987,1.23002029966E-5,10012.999997,-75.6734980619,36.0199354382,32.188576203409276,45.0025283958,2.63872096233,-0.00368419799936,-0.00756188380242,-0.00394724420907,0.00420192681747,1077.35273282,0.00175483349485,1454.88339298,482.979175539,-1420.44292593,-1.56219406824,-20401.2821114,0.267723289029,-1.54286681209E-8,8.68178997246,0.525083367583,280.787828793
0.8,4195876.13048,-1.6425165413E7,1.22433911727E7,1527.1182476,632.877805162,323.508577368,399.980297815,400.040314064,1.56548674113E-5,10012.9999956,-75.6733628586,36.0200452586,32.18857631120117,45.0032973014,2.63872021104,-0.00464049995339,-0.0070708759839,-0.00394729935649,0.00482624395565,1077.35273282,0.00175483349492,1454.88339306,482.979175544,-1420.44302155,-1.05793282081,-20401.2800555,1.54904550205,-1.47156242747E-8,5.16058491289,0.525083367875,280.78782912
0.9,4196028.84212,-1.64251021245E7,1.22434235234E7,1527.11444558,632.891531662,323.505132345,399.976598518,400.044013283,1.93160107358E-5,10012.9999939,-75.6732276539,36.020155078,32.18857641896149,45.004111572,2.63871946841,-0.00550704558358,-0.00583046888298,-0.00394735326915,0.00510478453846,1077.35273283,0.00175483349502,1454.88339316,482.979175551,-1420.44311149,-0.503080700906,-20401.2781345,2.6103671456,-1.43227225635E-8,1.39758383947,0.525083368207,280.787829494
1.0,4196181.55337,-1.64250388347E7,1.22434558737E7,1527.11067681,632.905248722,323.501662902,399.97286922,400.047742489,2.32597051593E-5,10012.9999917,-75.6730924478,36.0202648964,32.18857652661178,45.0049362884,2.63871873193,-0.00621837018679,-0.00401013374129,-0.00394739573131,0.00503825016469,1077.35273284,0.00175483349514,1454.88339328,482.979175558,-1420.44319615,0.0370311530042,-20401.276344,3.33829763831,-1.41480995808E-8,-2.17278350258,0.525083368578,280.787829915
1.1,4196334.26425,-1.64249755435E7,1.22434882237E7,1527.10694369,632.918955627,323.498167302,399.969107757,400.051503845,2.74627654733E-5,10012.9999892,-75.6729572402,36.0203747138,32.18857663442831,45.0057385486,2.63871799802,-0.00672898189455,-0.0018364489409,-0.00394742035699,0.00466525080466,1077.35273285,0.00175483349528,1454.88339342,482.979175567,-1420.44327544,0.504576615198,-20401.2746892,3.67062198355,-1.41953933053E-8,-5.17652986344,0.525083368988,280.78783038
1.2,4196486.97476,-1.64249122509E7,1.22435205733E7,1527.10324374,632.932653077,323.494647363,399.965316358,400.055295117,3.1902457124E-5,10012.9999862,-75.6728220311,36.0204845301,32.18857674213483,45.0064909043,2.63871726292,-0.00701730640535,4.39229587377E-4,-0.00394742623832,0.0040545903289,1077.35273286,0.00175483349544,1454.88339359,482.979175578,-1420.44334911,0.854944749476,-20401.2731764,3.59748017342,-1.43554643728E-8,-7.33592788588,0.525083369435,280.787830891
1.3,4196639.6849,-1.6424848957E7,1.22435529226E7,1527.09957039,632.94634296,323.491107874,399.96150093,400.059110399,3.6556923078E-5,10012.9999828,-75.6726868206,36.0205943454,32.18857684989225,45.0071738821,2.63871652349,-0.00708644887127,0.00257234680415,-0.0039474173861,0.00329492832388,1077.35273287,0.00175483349563,1454.88339378,482.97917559,-1420.44341707,1.06046436253,-20401.2718062,3.15691033016,-1.42717908602E-8,-8.49140380556,0.52508336992,280.787831447
1.4,4196792.39468,-1.64247856616E7,1.22435852716E7,1527.09591413,632.960028011,323.48755575,399.957670007,400.062941157,4.14060178571E-5,10012.9999789,-75.6725516086,36.0207041596,32.18857695760234,45.0077773964,2.63871577783,-0.00696202592209,0.00435269166066,-0.00394740052665,0.00248319857683,1077.35273289,0.00175483349584,1454.883394,482.979175604,-1420.44347958,1.1119159311,-20401.2705698,2.42570423433,-1.40280462801E-8,-8.60837894946,0.525083370442,280.787832047
1.5,4196945.10408,-1.6424722365E7,1.22436176201E7,1527.09226388,632.973711419,323.483999042,399.953833531,400.066777451,4.64320921765E-5,10012.9999745,-75.6724163951,36.0208139728,32.18857706542203,45.0083009985,2.63871502544,-0.00668760942628,0.00562533527518,-0.00394738237515,0.00171317496934,1077.35273291,0.00175483349608,1454.88339425,482.979175619,-1420.44353724,1.01786815034,-20401.2694503,1.50696789969,-1.35187292472E-8,-7.76969054481,0.525083371,280.787832692
1.6,4197097.81313,-1.64246590669E7,1.22436499684E7,1527.08860841,632.987396425,323.480445921,399.950001592,400.070609193,5.16203548386E-5,10012.9999696,-75.6722811801,36.0209237849,32.18857717313572,45.0087530419,2.6387142671,-0.00631852878479,0.00630333445868,-0.00394736751476,0.00106543171918,1077.35273293,0.00175483349635,1454.88339453,482.979175637,-1420.44359085,0.802112376849,-20401.2684272,0.516026211551,-1.28711690195E-8,-6.15575303357,0.525083371596,280.787833383
1.7,4197250.52181,-1.64245957675E7,1.22436823162E7,1527.08493758,633.001085951,323.476903746,399.946183282,400.074427295,5.69586366623E-5,10012.9999642,-75.6721459636,36.021033596,32.18857728088056,45.0091489542,2.6387135045,-0.00591488469379,0.00637160990851,-0.00394735756382,5.99676911843E-4,1077.35273295,0.00175483349665,1454.88339483,482.979175656,-1420.44364116,0.499652597395,-20401.2674817,-0.433648827446,-1.22054188978E-8,-4.01577285795,0.525083372228,280.787834118
1.8,4197403.23011,-1.64245324667E7,1.22437146637E7,1527.08124343,633.014782294,323.473378316,399.942385763,400.078224598,6.24366582542E-5,10012.9999582,-75.6720107457,36.021143406,32.18857738867431,45.0095088879,2.63871273973,-0.00553463128536,0.00588242165179,-0.0039473516735,3.50086967967E-4,1077.35273297,0.00175483349698,1454.88339517,482.979175677,-1420.44368873,0.151825643989,-20401.266601,-1.24295697044,-1.16597220767E-8,-1.63401114316,0.525083372898,280.787834899
1.9,4197555.93805,-1.64244691645E7,1.22437470109E7,1527.07752082,633.028486931,323.469873362,399.938613641,400.081996499,6.80450774553E-5,10012.9999517,-75.6718755263,36.021253215,32.18857749642076,45.0098550666,2.63871197498,-0.00522749390099,0.00494374145013,-0.00394734785828,3.23881436999E-4,1077.352733,0.00175483349734,1454.88339554,482.979175701,-1420.4437338,-0.198830552907,-20401.2657798,-1.83691297591,-1.12813722808E-8,0.70473220896,0.525083373604,280.787835726
2.0,4197708.64562,-1.6424405861E7,1.22437793577E7,1527.07376778,633.042200425,323.466390318,399.934868682,400.085741233,7.37746389632E-5,10012.9999446,-75.6717403054,36.0213630229,32.18857760413568,45.0102091455,2.63871121225,-0.00503032464502,0.00370247789318,-0.00394734442437,5.02998456768E-4,1077.35273303,0.00175483349773,1454.88339594,482.979175726,-1420.44377637,-0.51337180669,-20401.2650188,-2.17080583194,-1.11685949378E-8,2.74653657368,0.525083374347,280.787836597
2.1,4197861.35281,-1.64243425561E7,1.22438117042E7,1527.06998546,633.055922438,323.462928366,399.931149869,400.089459817,7.9615673684E-5,10012.9999369,-75.6716050831,36.0214728298,32.18857771187976,45.0105898769,2.63871045328,-0.00496428219714,0.00232489217546,-0.00394734086823,8.48402295509E-4,1077.35273306,0.00175483349815,1454.88339637,482.979175753,-1420.44381632,-0.760407889174,-20401.264321,-2.23243188026,-1.09903339762E-8,4.29350125716,0.525083375125,280.787837513
2.2,4198014.05961,-1.64242792498E7,1.22438440503E7,1527.06617768,633.069651854,323.459484733,399.927453764,400.09315569,8.55580236134E-5,10012.9999287,-75.6714698594,36.0215826357,32.18857781964898,45.0110113095,2.63870969953,-0.00503398436796,9.7663356718E-4,-0.00394733796313,0.00130630724894,1077.35273309,0.00175483349861,1454.88339683,482.979175783,-1420.44385355,-0.918868016689,-20401.263689,-2.04052171689,-1.08739186544E-8,5.220412526,0.525083375939,280.787838473
2.3,4198166.76604,-1.64242159422E7,1.22438763961E7,1527.06235032,633.083386968,323.456055165,399.923775102,400.096834114,9.15913088591E-5,10012.9999198,-75.6713346342,36.0216924406,32.18857792744535,45.0114816712,2.63870895212,-0.00522854970811,-1.9536033251E-4,-0.00394733715119,0.00181545653917,1077.35273312,0.0017548334991,1454.88339733,482.979175814,-1420.44388808,-0.97937619361,-20401.263122,-1.6398876716,-1.07320374809E-8,5.48187599076,0.525083376789,280.787839479
2.4,4198319.47208,-1.64241526331E7,1.22439087415E7,1527.05851044,633.097125726,323.452634537,399.920107537,400.100501436,9.77053532552E-5,10012.9999104,-75.6711994076,36.0218022445,32.18857803520821,45.0120029951,2.63870821181,-0.00552424309072,-0.00107726714388,-0.00394733963683,0.00231455750241,1077.35273316,0.00175483349962,1454.88339787,482.979175848,-1420.44392013,-0.944212118125,-20401.2626159,-1.0941306201,-1.06592779048E-8,5.11000136164,0.525083377674,280.787840528
2.5,4198472.17774,-1.64240893227E7,1.22439410866E7,1527.05466544,633.110865984,323.449217487,399.916444435,400.104164286,1.0389057033E-4,10012.9999003,-75.6710641795,36.0219120473,32.18857814291978,45.0125714635,2.6387074789,-0.00588828887635,-0.00159783261666,-0.00394734564178,0.00274903945239,1077.3527332,0.00175483350017,1454.88339844,482.979175884,-1420.44395001,-0.825991472454,-20401.2621638,-0.476936128782,-1.0561052477E-8,4.20375986345,0.525083378595,280.787841623
2.6,4198624.88302,-1.6424026011E7,1.22439734314E7,1527.05082219,633.124605748,323.445799034,399.912779631,400.107828826,1.10138186045E-4,10012.9998896,-75.6709289501,36.0220218492,32.18857825073296,45.0131783642,2.63870675312,-0.00628332607663,-0.00173228035483,-0.00394735414142,0.00307645160715,1077.35273324,0.00175483350076,1454.88339904,482.979175922,-1420.44397808,-0.645328291211,-20401.2617588,0.136949656927,-1.0484654922E-8,2.91194966978,0.525083379552,280.787842763
2.7,4198777.58791,-1.64239626978E7,1.22440057758E7,1527.04698634,633.13834338,323.442375089,399.909108061,400.111500118,1.16440266567E-4,10012.9998783,-75.6707937192,36.02213165,32.18857835843418,45.0138114988,2.63870603368,-0.00667195695195,-0.00150075201178,-0.0039473631507,0.00327003085688,1077.35273329,0.00175483350139,1454.88339968,482.979175962,-1420.44400464,-0.42783022512,-20401.2613953,0.680039058312,-1.03973434307E-8,1.41223189326,0.525083380544,280.787843948
2.8,4198930.29241,-1.64238993833E7,1.22440381198E7,1527.04316178,633.152077745,323.438942821,399.905426221,400.115181662,1.22789611908E-4,10012.9998663,-75.6706584869,36.0222414498,32.188578466241026,45.0144568469,2.63870531924,-0.00702088014708,-9.61948400902E-4,-0.00394737038746,0.0033202139014,1077.35273334,0.00175483350205,1454.88340035,482.979176005,-1420.44402992,-0.200818895385,-20401.2610697,1.0988635419,-1.03245838545E-8,-0.111092898021,0.525083381572,280.787845177
2.9,4199082.99654,-1.64238360674E7,1.22440704635E7,1527.03935042,633.16580829,323.435500856,399.901732407,400.11887516,1.29179619051E-4,10012.9998537,-75.6705232531,36.0223512487,32.188578573996594,45.0151002773,2.63870460819,-0.00730419165309,-2.03110003272E-4,-0.00394737400884,0.00323411546162,1077.35273339,0.00175483350274,1454.88340106,482.97917605,-1420.44405401,0.00983809318306,-20401.2607808,1.35857291035,-1.04591890704E-8,-1.48800343094,0.525083382634,280.78784645
3.0,4199235.70029,-1.64237727501E7,1.22441028069E7,1527.03555211,633.179535048,323.432049294,399.898026738,400.122580494,1.35604201489E-4,10012.9998405,-75.6703880179,36.0224610465,32.188578681777344,45.015729116,2.63870389882,-0.00750556659559,6.72225097996E-4,-0.00394737312923,0.00303321640878,1077.35273344,0.00175483350347,1454.88340181,482.979176097,-1420.44407696,0.182444626722,-20401.2605279,1.44506354474,-1.03573256638E-8,-2.58018620452,0.525083383731,280.787847767
3.1,4199388.40365,-1.64237094315E7,1.224413515E7,1527.03176491,633.193258582,323.428589561,399.894310974,400.126295902,1.42057803885E-4,10012.9998266,-75.6702527813,36.0225708432,32.1885787895266,45.0163334088,2.63870318962,-0.00761918434677,0.0015571342969,-0.00394736795597,0.00274968057443,1077.3527335,0.00175483350423,1454.88340259,482.979176146,-1420.44409879,0.301484874218,-20401.2603104,1.36462703885,-1.04810169432E-8,-3.29337296455,0.525083384862,280.787849128
3.2,4199541.10664,-1.64236461115E7,1.22441674926E7,1527.02798541,633.206979872,323.425124132,399.890588171,400.13001833,1.48535484755E-4,10012.999812,-75.6701175432,36.022680639,32.18857889730306,45.0169067696,2.63870247947,-0.00764941044057,0.00235341093249,-0.00394735955204,0.00242183175281,1077.35273355,0.00175483350504,1454.88340341,482.979176198,-1420.44411958,0.358766970559,-20401.2601261,1.14138473,-1.02954800241E-8,-3.58369409489,0.525083386027,280.787850533
3.3,4199693.80925,-1.64235827901E7,1.2244199835E7,1527.02420927,633.220700172,323.421656162,399.886862226,400.133743881,1.55033015517E-4,10012.9997969,-75.6699823037,36.0227904337,32.18857900510671,45.0174467568,2.63870176776,-0.00760938446032,0.00298159378869,-0.00394734937506,0.00208936625521,1077.35273361,0.00175483350587,1454.88340427,482.979176252,-1420.44413945,0.353654825286,-20401.2599715,0.812993387385,-1.02554622572E-8,-3.45789607714,0.525083387226,280.78785198
3.4,4199846.51148,-1.64235194673E7,1.2244232177E7,1527.02043177,633.234420841,323.418189075,399.88313737,400.137468328,1.61546916871E-4,10012.999781,-75.6698470627,36.0229002274,32.18857911280043,45.0179547816,2.63870105447,-0.00751876990514,0.00338801061204,-0.00394733879889,0.00178885280549,1077.35273368,0.00175483350674,1454.88340516,482.979176309,-1420.44415855,0.292446057181,-20401.2598421,0.425253438781,-1.01244950201E-8,-2.96796121433,0.525083388459,280.787853471
3.5,4199999.21333,-1.64234561432E7,1.22442645186E7,1527.01664839,633.248143187,323.41472616,399.879417669,400.141187607,1.68074390473E-4,10012.9997646,-75.6697118203,36.0230100201,32.18857922060181,45.0184355987,2.63870034004,-0.00740099089283,0.0035483333905,-0.00394732879032,0.00154998935011,1077.35273374,0.00175483350765,1454.88340609,482.979176367,-1420.44417704,0.187042836112,-20401.2597335,0.0263142704446,-9.97533788905E-9,-2.20123536715,0.525083389725,280.787855004
3.6,4200151.91481,-1.64233928177E7,1.22442968599E7,1527.01285526,633.261868326,323.411270226,399.875706593,400.14489825,1.74613155707E-4,10012.9997474,-75.6695765764,36.0231198118,32.188579328428396,45.0188964771,2.63869962527,-0.00728030731498,0.00346757345589,-0.0039473198181,0.001392959926,1077.35273381,0.0017548335086,1454.88340706,482.979176429,-1420.44419507,0.0531268829973,-20401.2596421,-0.33884805764,-9.76433511823E-9,-1.26756313469,0.525083391024,280.78785658
3.7,4200304.61591,-1.64233294908E7,1.22443292009E7,1527.00904955,633.275597076,323.407823329,399.872006684,400.148597717,1.81161217768E-4,10012.9997296,-75.6694413311,36.0232296024,32.18857943614506,45.019346168,2.6386989112,-0.00717906562344,0.00317684331468,-0.00394731196468,0.0013270820707,1077.35273388,0.00175483350958,1454.88340806,482.979176492,-1420.44421271,-0.0919148352246,-20401.2595656,-0.633097196535,-9.59698809311E-9,-0.285122309958,0.525083392356,280.787858198
3.8,4200457.31662,-1.64232661626E7,1.22443615415E7,1527.00522967,633.289329892,323.404386623,399.868319366,400.152284586,1.87716639687E-4,10012.9997112,-75.6693060844,36.023339392,32.18857954388894,45.019793805,2.63869819893,-0.0071154121668,0.00272753840794,-0.0039473051378,0.00135077559474,1077.35273395,0.00175483351059,1454.8834091,482.979176558,-1420.44423,-0.231062293324,-20401.2595032,-0.830511259002,-9.58971213549E-9,0.633362224997,0.525083393721,280.787859859
3.9,4200610.01695,-1.6423202833E7,1.22443938818E7,1527.00139536,633.303066853,323.400960306,399.864644885,400.155958611,1.94277366177E-4,10012.9996921,-75.6691708362,36.0234491807,32.18857965173648,45.0202478627,2.63869748954,-0.00710167872432,0.00218381643658,-0.00394729926248,0.00145273510279,1077.35273403,0.00175483351164,1454.88341018,482.979176626,-1420.44424693,-0.349504322469,-20401.2594552,-0.918212434143,-9.46965883486E-9,1.39254073486,0.525083395119,280.787861562
4.0,4200762.7169,-1.6423139502E7,1.22444262217E7,1526.99754755,633.316807682,323.397543694,399.86098239,400.159620642,2.00841142657E-4,10012.9996723,-75.6690355866,36.0235589683,32.18857975947212,45.0207152831,2.63869678395,-0.00714355659473,0.00161435905811,-0.00394729437038,0.00161406677631,1077.35273411,0.00175483351273,1454.88341129,482.979176696,-1420.44426347,-0.436068375537,-20401.259422,-0.896591448714,-9.48421075009E-9,1.92335396647,0.525083396549,280.787863306
4.1,4200915.41646,-1.64230761696E7,1.22444585613E7,1526.99368821,633.330551814,323.394135372,399.857330133,400.163272429,2.07405519831E-4,10012.9996519,-75.6689003356,36.0236687549,32.188579867232974,45.0212008511,2.63869608291,-0.00724007803306,0.00108438959659,-0.00394729056745,0.00181106561288,1077.35273419,0.00175483351386,1454.88341245,482.979176769,-1420.44427962,-0.484118345638,-20401.2594039,-0.778049224257,-9.29867383093E-9,2.18823461373,0.525083398011,280.787865093
4.2,4201068.11564,-1.64230128359E7,1.22444909005E7,1526.98981997,633.34429848,323.390733417,399.853685733,400.166916348,2.13967928886E-4,10012.9996309,-75.6687650832,36.0237785404,32.18857997501905,45.021706865,2.63869538689,-0.00738433313499,6.48802981624E-4,-0.00394728792082,0.00201826840591,1077.35273427,0.00175483351502,1454.88341363,482.979176844,-1420.4442954,-0.491870233853,-20401.2594005,-0.584530261671,-9.39326127991E-9,2.18236196328,0.525083399506,280.787866921
4.3,4201220.81442,-1.64229495007E7,1.22445232394E7,1526.98594584,633.358046811,323.387335659,399.850046505,400.170555083,2.2052578592E-4,10012.9996091,-75.6686298293,36.023888325,32.18858008275191,45.0222331108,2.63869469607,-0.00756477580739,3.47063114969E-4,-0.00394728633722,0.00221142077581,1077.35273436,0.00175483351621,1454.88341486,482.979176921,-1420.44431087,-0.462144214859,-20401.2594111,-0.344230282131,-9.40417521633E-9,1.93119305423,0.525083401033,280.78786879
4.4,4201373.51282,-1.64228861642E7,1.2244555578E7,1526.98206878,633.371795947,323.38393994,399.84640978,400.174191303,2.27076590534E-4,10012.9995867,-75.668494574,36.0239981086,32.18858019058644,45.0227771166,2.63869401034,-0.00776692095268,2.00268063956E-4,-0.00394728549982,0.00237003917092,1077.35273445,0.00175483351745,1454.88341612,482.979177001,-1420.44432608,-0.401632053976,-20401.2594344,-0.0879165889814,-9.35324351303E-9,1.48488352104,0.525083402592,280.787870701
4.5,4201526.21084,-1.64228228264E7,1.22445879162E7,1526.97819142,633.385545125,323.380544353,399.842773196,400.177827365,2.33617998873E-4,10012.9995637,-75.6683593173,36.0241078912,32.18858029838753,45.0233346311,2.63869332931,-0.00797521001147,2.10507904994E-4,-0.00394728489623,0.00247932262161,1077.35273454,0.00175483351872,1454.88341742,482.979177083,-1420.44434112,-0.319805004709,-20401.2594692,0.154697874092,-9.42964106798E-9,0.910497874817,0.525083404183,280.787872653
4.6,4201678.90846,-1.64227594871E7,1.22446202541E7,1526.9743158,633.399293756,323.377147424,399.839134932,400.181465091,2.40147863877E-4,10012.99954,-75.6682240592,36.0242176728,32.188580406133404,45.0239002557,2.63869265237,-0.00817482386879,3.6237595932E-4,-0.00394728392735,0.00253126315049,1077.35273463,0.00175483352002,1454.88341876,482.979177167,-1420.44435603,-0.227615468944,-20401.2595147,0.358132115397,-9.36051947065E-9,0.283070136231,0.525083405805,280.787874646
4.7,4201831.6057,-1.64226961465E7,1.22446525916E7,1526.97044318,633.413041474,323.373748241,399.835493857,400.185105608,2.4666425918E-4,10012.9995157,-75.6680887997,36.0243274534,32.18858051390452,45.0244681445,2.63869197875,-0.00835324817515,6.26269619011E-4,-0.00394728205272,0.00252490589025,1077.35273473,0.00175483352136,1454.88342013,482.979177254,-1420.44437087,-0.136154386766,-20401.2595701,0.503557246874,-9.42236511037E-9,-0.32339476718,0.525083407458,280.787876679
4.8,4201984.30255,-1.64226328045E7,1.22446849288E7,1526.96657397,633.426788157,323.370346499,399.831849593,400.188749295,2.53165486527E-4,10012.9994907,-75.6679535387,36.024437233,32.188580621700886,45.0250326892,2.63869130763,-0.00850144127483,9.62953082242E-4,-0.00394727891783,0.00246580814374,1077.35273483,0.00175483352274,1454.88342154,482.979177343,-1420.44438567,-0.0554163616609,-20401.2596349,0.580261892981,-9.37143340707E-9,-0.843981804463,0.525083409143,280.787878753
4.9,4202136.99902,-1.64225694612E7,1.22447172657E7,1526.96270779,633.440533914,323.366942478,399.828202486,400.192395805,2.5965008868E-4,10012.9994651,-75.6678182764,36.0245470116,32.18858072946382,45.0255891158,2.63869063825,-0.00861451245012,0.00132876360026,-0.00394727442062,0.00236483038366,1077.35273493,0.00175483352415,1454.88342299,482.979177434,-1420.44440044,0.0067012699453,-20401.2597086,0.586088836991,-9.50967660174E-9,-1.22918648745,0.525083410859,280.787880867
5.0,4202289.69509,-1.64225061164E7,1.22447496022E7,1526.95884356,633.454279055,323.363536959,399.8245535,400.196044173,2.66116859848E-4,10012.9994388,-75.6676830126,36.0246567891,32.18858083725,45.0261339342,2.63868996999,-0.00869188060399,0.0016808285765,-0.0039472687025,0.00223645362327,1077.35273504,0.0017548335256,1454.88342447,482.979177528,-1420.44441521,0.0450765586686,-20401.2597907,0.526889035182,-9.37870936468E-9,-1.44895827146,0.525083412606,280.787883021
5.1,4202442.39078,-1.64224427703E7,1.22447819384E7,1526.9549797,633.468024038,323.360131094,399.820904058,400.19969298,2.72564848814E-4,10012.9994118,-75.6675477474,36.0247665657,32.188580945061446,45.0266652048,2.63868930243,-0.0087369434962,0.00198171762238,-0.00394726207762,0.00209685196871,1077.35273514,0.00175483352708,1454.88342599,482.979177624,-1420.44443001,0.0576730987142,-20401.2598801,0.415143183641,-9.42600308917E-9,-1.49422976616,0.525083414383,280.787885215
5.2,4202595.08609,-1.64223794228E7,1.22448142742E7,1526.95111435,633.481769402,323.35672624,399.817255838,400.203340548,2.78993349923E-4,10012.9993843,-75.6674124808,36.0248763413,32.18858105281971,45.0271826109,2.63868863541,-0.00875633882331,0.00220306869882,-0.00394725493354,0.00196195517963,1077.35273525,0.0017548335286,1454.88342754,482.979177722,-1420.44444487,0.0454817542186,-20401.2599758,0.267979000787,-9.36051947065E-9,-1.37599358313,0.52508341619,280.787887448
5.3,4202747.78101,-1.6422316074E7,1.22448466097E7,1526.94724557,633.495515704,323.353323793,399.813610567,400.20698515,2.85401868126E-4,10012.999356,-75.6672772127,36.0249861159,32.18858116068167,45.0276873446,2.63868796901,-0.00875891596145,0.00232788274602,-0.00394724763963,0.00184571565218,1077.35273537,0.00175483353016,1454.88342914,482.979177823,-1420.44445984,0.0121341297956,-20401.2600766,0.104858072199,-9.29503585212E-9,-1.1222532157,0.525083418027,280.787889721
5.4,4202900.47554,-1.64222527237E7,1.22448789449E7,1526.94337161,633.509263451,323.349925033,399.809969826,400.210625209,2.91790063187E-4,10012.9993272,-75.6671419432,36.0250958894,32.18858126842978,45.0281818371,2.63868730351,-0.00875455819114,0.00235135592855,-0.00394724048845,0.00175875206887,1077.35273548,0.00175483353175,1454.88343076,482.979177926,-1420.44447493,-0.0367395475181,-20401.2601817,-0.0547825684459,-9.28775989451E-9,-0.773378722716,0.525083419895,280.787892032
5.5,4203053.16968,-1.64221893721E7,1.22449112797E7,1526.93949106,633.523013054,323.346530989,399.806334887,400.214259452,2.98157679225E-4,10012.9992977,-75.6670066724,36.025205662,32.18858137620316,45.0286693777,2.63868663934,-0.00875299888874,0.00228029176125,-0.00394723367774,0.00170748467211,1077.3527356,0.00175483353337,1454.88343243,482.979178031,-1420.44449017,-0.0943139604259,-20401.2602901,-0.193670087,-9.22227627598E-9,-0.376525145125,0.525083421792,280.787894382
5.6,4203205.86344,-1.64221260191E7,1.22449436142E7,1526.93560295,633.536764787,323.343142351,399.802706603,400.217887028,3.04504470392E-4,10012.9992675,-75.6668714001,36.0253154335,32.188581484078256,45.0291536726,2.63868597702,-0.00876276268862,0.00213128800129,-0.00394722732364,0.00169381241169,1077.35273572,0.00175483353503,1454.88343413,482.979178138,-1420.44450557,-0.153430313583,-20401.2604017,-0.298400986875,-9.21500031836E-9,0.020185408343,0.525083423719,280.787896771
5.7,4203358.5568,-1.64220626648E7,1.22449759484E7,1526.93170687,633.55051877,323.339759422,399.79908535,400.221507561,3.10830138943E-4,10012.9992368,-75.6667361264,36.0254252041,32.188581591841505,45.0296383982,2.63868531711,-0.00879033684806,0.00192801035338,-0.00394722148688,0.00171531790027,1077.35273584,0.00175483353673,1454.88343586,482.979178248,-1420.44452114,-0.20741575831,-20401.2605162,-0.360563644599,-9.21500031836E-9,0.373055241435,0.525083425675,280.787899198
5.8,4203511.24978,-1.6421999309E7,1.22450082822E7,1526.92780294,633.564274972,323.336382125,399.795471031,400.225121149,3.17134296722E-4,10012.9992054,-75.6666008512,36.0255349737,32.188581699608264,45.0301267989,2.63868466012,-0.00883964303765,0.00169793707761,-0.00394721619411,0.0017659292368,1077.35273596,0.00175483353846,1454.88343763,482.97917836,-1420.44453685,-0.250774196697,-20401.2606337,-0.377207917296,-9.1313268058E-9,0.647221059504,0.525083427661,280.787901664
5.9,4203663.94236,-1.64219359519E7,1.22450406156E7,1526.92389172,633.578033225,323.333010041,399.791863127,400.228728309,3.2341644885E-4,10012.9991734,-75.6664655747,36.0256447423,32.188581807418075,45.0306213694,2.63868400649,-0.00891184024083,0.00146898170501,-0.00394721144488,0.00183692391212,1077.35273609,0.00175483354022,1454.88343944,482.979178474,-1420.44455271,-0.279684125254,-20401.2607545,-0.350669892781,-9.21136233956E-9,0.819686426404,0.525083429675,280.787904167
6.0,4203816.63455,-1.64218725934E7,1.22450729488E7,1526.91997417,633.591793256,323.329642487,399.788260796,400.232329884,3.29676004498E-4,10012.9991407,-75.6663302968,36.0257545099,32.18858191525116,45.031123648,2.6386833565,-0.00900545014839,0.00126637719317,-0.00394720720492,0.00191813283015,1077.35273622,0.00175483354202,1454.88344128,482.97917859,-1420.44456872,-0.292266334467,-20401.2608786,-0.287830169709,-9.12041286938E-9,0.880768718283,0.525083431719,280.787906708
6.1,4203969.32636,-1.64218092335E7,1.22451052816E7,1526.91605143,633.605554729,323.326278619,399.784662992,400.235926919,3.35912305871E-4,10012.9991074,-75.6661950174,36.0258642765,32.1885820230291,45.0316341353,2.63868271032,-0.00911676168522,0.00111014092539,-0.00394720339456,0.00199919343279,1077.35273635,0.00175483354385,1454.88344316,482.979178709,-1420.44458488,-0.288613050052,-20401.2610059,-0.198939301985,-9.09494701773E-9,0.833946385457,0.525083433791,280.787909287
6.2,4204122.01777,-1.64217458723E7,1.2245137614E7,1526.91212475,633.619317283,323.322917535,399.781068599,400.239520526,3.42124664456E-4,10012.9990735,-75.6660597367,36.0259740421,32.18858213077164,45.0321523337,2.63868206794,-0.00924044451899,0.00101334668805,-0.00394719988328,0.00207070933988,1077.35273649,0.00175483354572,1454.88344507,482.979178829,-1420.44460119,-0.270597158636,-20401.2611365,-0.0961794892359,-9.15679265745E-9,0.694269899119,0.525083435893,280.787911903
6.3,4204274.70878,-1.64216825097E7,1.22451699462E7,1526.90819532,633.633080578,323.319558382,399.777476562,400.243111761,3.48312396994E-4,10012.999039,-75.6659244545,36.0260838067,32.18858223859616,45.0326768942,2.63868142922,-0.00937028479925,9.81320117868E-4,-0.00394719649802,0.00212519728075,1077.35273662,0.00175483354762,1454.88344702,482.979178952,-1420.44461768,-0.241502689452,-20401.26127,0.00785482157375,-9.1313268058E-9,0.48564308807,0.525083438022,280.787914557
6.4,4204427.3994,-1.64216191457E7,1.22452022779E7,1526.90426411,633.646844328,323.316200444,399.773885995,400.246701508,3.54474860586E-4,10012.9990038,-75.665789171,36.0261935703,32.18858234638329,45.0332058426,2.6386807939,-0.00949995085298,0.00101176167533,-0.00394719304637,0.00215773645584,1077.35273676,0.00175483354956,1454.883449,482.979179078,-1420.44463436,-0.205533645653,-20401.2614065,0.101582566507,-9.12768882699E-9,0.237377930961,0.52508344018,280.787917247
6.5,4204580.08963,-1.64215557803E7,1.22452346094E7,1526.90033183,633.660608329,323.312843209,399.770296265,400.250290399,3.60611478754E-4,10012.9989681,-75.6656538861,36.026303333,32.188582454254416,45.0337368549,2.63868016162,-0.00962370171529,0.00109569861873,-0.00394718934856,0.00216627603269,1077.35273691,0.00175483355153,1454.88345102,482.979179205,-1420.44465123,-0.167266455817,-20401.2615456,0.175619416083,-9.11313691176E-9,-0.0195309803868,0.525083442366,280.787919974
6.6,4204732.77947,-1.64214924136E7,1.22452669405E7,1526.89639885,633.674372472,323.309486405,399.766707036,400.25387877,3.66721762219E-4,10012.9989317,-75.6655185997,36.0264130946,32.18858256208816,45.0342675448,2.638679532,-0.00973696565494,0.00121908512707,-0.00394718526898,0.0021515982109,1077.35273705,0.00175483355353,1454.88345307,482.979179335,-1420.44466831,-0.131111548496,-20401.2616872,0.223610643179,-9.22955223359E-9,-0.255976085053,0.52508344458,280.787922738
6.7,4204885.46891,-1.64214290454E7,1.22452992713E7,1526.89246521,633.688136747,323.306130011,399.763118281,400.257466648,3.72805320438E-4,10012.9988947,-75.665383312,36.0265228553,32.188582669806074,45.0347957333,2.63867890464,-0.00983673685322,0.00136481486439,-0.00394718073766,0.00211697248086,1077.3527372,0.00175483355557,1454.88345516,482.979179466,-1420.44468561,-0.100842546902,-20401.2618311,0.242653836612,-9.26229404286E-9,-0.447771522196,0.525083446822,280.787925538
6.8,4205038.15796,-1.64213656759E7,1.22453316017E7,1526.88853062,633.701901236,323.302774233,399.759530253,400.261053778,3.78861869052E-4,10012.9988572,-75.6652480228,36.026632615,32.18858277760799,45.035319669,2.63867827923,-0.00992176318383,0.00151488642263,-0.00394717575642,0.00206756746681,1077.35273735,0.00175483355764,1454.88345728,482.9791796,-1420.44470313,-0.0792387692442,-20401.2619771,0.233302456641,-9.20044840313E-9,-0.577867430879,0.525083449091,280.787928375
6.9,4205190.84662,-1.64213023051E7,1.22453639318E7,1526.88459454,633.715666095,323.299419459,399.755943435,400.26463968,3.84891228919E-4,10012.998819,-75.6651127323,36.0267423737,32.18858288543122,45.0358381827,2.63867765551,-0.00999252353877,0.00165246901395,-0.00394717038965,0.00200970737535,1077.3527375,0.00175483355974,1454.88345943,482.979179736,-1420.44472089,-0.0678700499531,-20401.2621249,0.199188239534,-9.16406861506E-9,-0.637575026891,0.525083451388,280.787931247
7.0,4205343.53488,-1.64212389328E7,1.22453962616E7,1526.88065628,633.729431527,323.296066204,399.752358462,400.268223718,3.90893316364E-4,10012.9987802,-75.6649774403,36.0268521314,32.188582993219086,45.0363507624,2.63867703335,-0.0100510164792,0.00176364991805,-0.00394716474416,0.00195006922268,1077.35273765,0.00175483356188,1454.88346162,482.979179875,-1420.44473889,-0.0670345551122,-20401.2622741,0.146338980301,-9.17498255149E-9,-0.626758084471,0.525083453712,280.787934155
7.1,4205496.22275,-1.64211755592E7,1.22454285911E7,1526.87671503,633.743197759,323.292715039,399.748776039,400.271805188,3.96868129513E-4,10012.9987408,-75.664842147,36.0269618881,32.188583101028264,45.0368575499,2.6386764127,-0.0101004007874,0.0018387002791,-0.00394715894529,0.0018949147286,1077.35273781,0.00175483356405,1454.88346384,482.979180015,-1420.44475714,-0.0758424281801,-20401.2624245,0.0822947785599,-9.19681042433E-9,-0.553064414119,0.525083456063,280.787937098
7.2,4205648.91023,-1.64211121842E7,1.22454609202E7,1526.87277003,633.756965014,323.289366521,399.745196855,400.275383401,4.02815721458E-4,10012.9987008,-75.6647068522,36.0270716438,32.18858320886077,45.0373592651,2.63867579366,-0.0101445410958,0.00187276389053,-0.00394715311555,0.00184943834386,1077.35273797,0.00175483356625,1454.88346609,482.979180157,-1420.44477565,-0.092422688189,-20401.2625758,0.01513859903,-9.12041286938E-9,-0.430369976523,0.525083458441,280.787940076
7.3,4205801.5973,-1.64210488078E7,1.22454932489E7,1526.86882063,633.770733484,323.286021133,399.74162151,400.27895776,4.08736175842E-4,10012.9986602,-75.6645715561,36.0271813986,32.188583316636155,45.037857074,2.63867517639,-0.0101875173618,0.00186594592934,-0.00394714736005,0.00181729261657,1077.35273813,0.00175483356849,1454.88346838,482.979180302,-1420.44479441,-0.114219290006,-20401.2627277,-0.0474441769978,-9.14587872103E-9,-0.276679214648,0.525083460846,280.78794309
7.4,4205954.28399,-1.642098543E7,1.22455255774E7,1526.8648663,633.784503314,323.282679242,399.738050454,400.282527813,4.14629576824E-4,10012.9986191,-75.6644362586,36.0272911523,32.188583424513325,45.0383524192,2.63867456112,-0.0102331555526,0.00182284683448,-0.00394714175921,0.0018003269537,1077.35273829,0.00175483357076,1454.88347071,482.979180449,-1420.44481344,-0.138335552501,-20401.26288,-0.0989762283301,-9.2331902124E-9,-0.111762803786,0.525083463277,280.787946138
7.5,4206106.97028,-1.64209220509E7,1.22455579055E7,1526.86090677,633.798274591,323.279341062,399.734483955,400.286093294,4.20495985139E-4,10012.9985773,-75.6643009596,36.0274009051,32.188583532335386,45.0388468357,2.63867394811,-0.0102846293149,0.00175164352643,-0.00394713636735,0.0017985490154,1077.35273846,0.00175483357306,1454.88347306,482.979180597,-1420.44483273,-0.161884569496,-20401.2630328,-0.134791396626,-9.07675712369E-9,0.0451828180722,0.525083465735,280.787949221
7.6,4206259.65617,-1.64208586704E7,1.22455902332E7,1526.85694194,633.812047335,323.27600665,399.73092208,400.289654135,4.26335419661E-4,10012.998535,-75.6641656593,36.0275106569,32.18858364011809,45.0393417732,2.63867333762,-0.0103441700207,0.00166286068463,-0.003947131214,0.00181029260001,1077.35273863,0.00175483357539,1454.88347545,482.979180748,-1420.44485227,-0.182306441054,-20401.263186,-0.152382953012,-9.07311914489E-9,0.177598221543,0.525083468218,280.787952338
7.7,4206412.34167,-1.64207952885E7,1.22456225607E7,1526.85297196,633.825821509,323.272675909,399.727364713,400.293210453,4.32147847846E-4,10012.998492,-75.6640303576,36.0276204078,32.18858374798282,45.0398384446,2.63867272986,-0.010412907212,0.00156799587804,-0.00394712630585,0.00183255460212,1077.3527388,0.00175483357776,1454.88347787,482.979180901,-1420.44487207,-0.19762040681,-20401.2633398,-0.151481996372,-9.1313268058E-9,0.273144188102,0.525083470728,280.78795549
7.8,4206565.02676,-1.64207319052E7,1.22456548878E7,1526.84899713,633.839597024,323.269348616,399.723811576,400.296762525,4.37933184855E-4,10012.9984485,-75.6638950545,36.0277301576,32.18858385573177,45.0403377135,2.63867212503,-0.0104908450806,0.00147816344411,-0.00394712162804,0.00186144842257,1077.35273897,0.00175483358015,1454.88348032,482.979181056,-1420.44489212,-0.206590061516,-20401.2634941,-0.133882069446,-9.15315467864E-9,0.324674818443,0.525083473264,280.787958675
7.9,4206717.71147,-1.64206685205E7,1.22456872145E7,1526.84501788,633.853373754,323.266024456,399.72026228,400.300310739,4.4369129958E-4,10012.9984045,-75.66375975,36.0278399065,32.1885839635805,45.0408400317,2.63867152323,-0.0105769651128,0.00140290483812,-0.00394711714553,0.00189271319757,1077.35273915,0.00175483358258,1454.88348281,482.979181213,-1420.44491241,-0.208791409092,-20401.263649,-0.103052568078,-9.07311914489E-9,0.33054920417,0.525083475825,280.787961895
8.0,4206870.39577,-1.64206051345E7,1.2245719541E7,1526.84103471,633.867151555,323.262703068,399.716716377,400.303855542,4.4942203067E-4,10012.9983598,-75.6636244441,36.0279496544,32.188584071372134,45.0413454266,2.63867092448,-0.0106694320283,0.00134928129675,-0.00394711280559,0.00192221761807,1077.35273932,0.00175483358504,1454.88348533,482.979181372,-1420.44493295,-0.20458515758,-20401.2638046,-0.0636028949849,-9.07675712369E-9,0.294307916986,0.525083478412,280.787965148
8.1,4207023.07967,-1.64205417471E7,1.22457518671E7,1526.83704814,633.880930279,323.259384082,399.713173413,400.30739739,4.5512519975E-4,10012.9983146,-75.6634891369,36.0280594013,32.18858417918513,45.0418535376,2.63867032877,-0.0107658708571,0.00132132293779,-0.00394710854266,0.00194640331574,1077.3527395,0.00175483358753,1454.88348788,482.979181533,-1420.44495374,-0.195005080581,-20401.2639609,-0.0206700795899,-9.06220520847E-9,0.223808154705,0.525083481025,280.787968434
8.2,4207175.76318,-1.64204783583E7,1.22457841929E7,1526.8330586,633.894709794,323.256067169,399.709632977,400.31093669,4.60800631146E-4,10012.9982688,-75.6633538282,36.0281691472,32.188584287019474,45.0423636911,2.63866973597,-0.0108636781043,0.00131986234845,-0.00394710428575,0.00196262449262,1077.35273969,0.00175483359006,1454.88349046,482.979181697,-1420.44497477,-0.18158243675,-20401.2641178,0.0206956426529,-9.13860276341E-9,0.129962442059,0.525083483662,280.787971754
8.3,4207328.44628,-1.64204149682E7,1.22458165183E7,1526.82906647,633.908489997,323.252752065,399.706094745,400.314473766,4.66448164161E-4,10012.9982224,-75.6632185182,36.0282788922,32.18858439481447,45.0428750038,2.63866914594,-0.0109603295908,0.00134273577532,-0.00394709996751,0.00196935587405,1077.35273987,0.00175483359261,1454.88349308,482.979181862,-1420.44499605,-0.166131654259,-20401.2642755,0.0560793959854,-9.09494701773E-9,0.0252562007618,0.525083486325,280.787975106
8.4,4207481.12899,-1.64203515766E7,1.22458488434E7,1526.82507198,633.922270818,323.249438601,399.702558507,400.318008829,4.72067669591E-4,10012.9981755,-75.6630832068,36.0283886362,32.18858450269153,45.0433864987,2.6386685585,-0.0110536513503,0.00138529606921,-0.00394709553326,0.00196625813242,1077.35274006,0.00175483359519,1454.88349573,482.979182029,-1420.44501759,-0.150524444705,-20401.2644337,0.0821299608884,-9.08403308131E-9,-0.077772200648,0.525083489013,280.787978491
8.5,4207633.8113,-1.64202881837E7,1.22458811682E7,1526.82107523,633.936052231,323.246126707,399.699024176,400.321541964,4.77659054923E-4,10012.998128,-75.662947894,36.0284983792,32.18858461050951,45.0438972221,2.63866797347,-0.0111420271171,0.001441152298,-0.00394709094791,0.00195410663019,1077.35274024,0.00175483359781,1454.8834984,482.979182198,-1420.44503938,-0.136478299649,-20401.2645925,0.0968316194739,-9.12768882699E-9,-0.167917977874,0.525083491725,280.787981909
8.6,4207786.49321,-1.64202247894E7,1.22459134926E7,1526.81707617,633.949834247,323.242816414,399.695491791,400.325073134,4.83222273715E-4,10012.99808,-75.6628125798,36.0286081213,32.18858471829017,45.044406346,2.63866739066,-0.0112245253479,0.00150303375944,-0.00394708619939,0.00193460385605,1077.35274044,0.00175483360046,1454.88350111,482.979182369,-1420.44506143,-0.12538135714,-20401.2647518,0.0996039320763,-9.17134457268E-9,-0.236422488079,0.525083494462,280.78798536
8.7,4207939.17471,-1.64201613937E7,1.22459458167E7,1526.81307464,633.963616912,323.239507838,399.691961497,400.328602192,4.88757324518E-4,10012.9980314,-75.6626772643,36.0287178624,32.188584826090185,45.0449132484,2.63866680995,-0.011300939153,0.00156367178597,-0.00394708129806,0.00191010687868,1077.35274063,0.00175483360314,1454.88350386,482.979182542,-1420.44508373,-0.118169608135,-20401.2649114,0.0912342053257,-9.17862053029E-9,-0.277714294232,0.525083497224,280.787988842
8.8,4208091.85582,-1.64200979967E7,1.22459781405E7,1526.80907039,633.977400299,323.236201164,399.688433519,400.332128914,4.94264246868E-4,10012.9979822,-75.6625419474,36.0288276025,32.18858493397027,45.0454175626,2.63866623124,-0.0113717427147,0.00161660053944,-0.00394707627262,0.00188330763708,1077.35274082,0.00175483360584,1454.88350663,482.979182718,-1420.4451063,-0.115265175714,-20401.2650714,0.0736654318758,-9.13496478461E-9,-0.289731130988,0.525083500009,280.787992356
8.9,4208244.53653,-1.64200345983E7,1.2246010464E7,1526.80506311,633.991184498,323.232896613,399.684908134,400.335653024,4.99743115341E-4,10012.9979325,-75.662406629,36.0289373416,32.18858504181304,45.0459191944,2.63866565448,-0.0114379766469,0.00165679597356,-0.00394707116386,0.00185690561917,1077.35274102,0.00175483360858,1454.88350943,482.979182895,-1420.44512912,-0.116576876511,-20401.2652315,0.0496763010744,-9.20772436075E-9,-0.273825666961,0.525083502819,280.787995902
9.0,4208397.21683,-1.64199711985E7,1.22460427871E7,1526.80105248,634.0049696,323.229594419,399.681385629,400.339174234,5.0519403112E-4,10012.9978823,-75.6622713094,36.0290470798,32.18858514959876,45.0464183077,2.63866507969,-0.0115010814386,0.00168109737751,-0.00394706601772,0.00183330969583,1077.35274122,0.00175483361135,1454.88351227,482.979183074,-1420.44515221,-0.121557294641,-20401.2653916,0.0224984364067,-9.20044840313E-9,-0.234303590992,0.525083505653,280.78799948
9.1,4208549.89674,-1.64199077973E7,1.22460751099E7,1526.79703821,634.018755693,323.226294798,399.677866273,400.342692277,5.10617108006E-4,10012.9978315,-75.6621359883,36.029156817,32.18858525748227,45.0469152827,2.63866450691,-0.0115627020915,0.00168838496779,-0.00394706087905,0.00181439929601,1077.35274142,0.00175483361415,1454.88351513,482.979183255,-1420.44517556,-0.12930490244,-20401.2655518,-0.00458121370918,-9.09858499654E-9,-0.177678601296,0.52508350851,280.788003089
9.2,4208702.57624,-1.64198443947E7,1.22461074324E7,1526.79302004,634.032542846,323.22299793,399.674350286,400.346206931,5.16012461333E-4,10012.9977801,-75.6620006658,36.0292665532,32.18858536530675,45.0474106541,2.63866393625,-0.0116244881184,0.001679516307,-0.00394705578681,0.00180136580414,1077.35274163,0.00175483361698,1454.88351803,482.979183437,-1420.44519918,-0.138695846722,-20401.2657119,-0.0285876531373,-9.09858499654E-9,-0.111752337604,0.525083511391,280.788006729
9.3,4208855.25534,-1.64197809908E7,1.22461397545E7,1526.78899781,634.04633111,323.219703936,399.670837821,400.349718045,5.21380196318E-4,10012.9977283,-75.661865342,36.0293762885,32.18858547315261,45.0479050385,2.63866336781,-0.0116879113682,0.00165705065132,-0.00394705077106,0.00179464430776,1077.35274183,0.00175483361983,1454.88352095,482.979183622,-1420.44522305,-0.148528161895,-20401.2658719,-0.0471570941292,-9.09130903892E-9,-0.044636672187,0.525083514296,280.7880104
9.4,4209007.93404,-1.64197175854E7,1.22461720763E7,1526.78497144,634.060120507,323.216412876,399.667328951,400.353225546,5.26720402036E-4,10012.9976758,-75.6617300168,36.0294860228,32.18858558095916,45.0483990586,2.63866280172,-0.0117541201186,0.00162481103071,-0.0039470458513,0.00179393493932,1077.35274204,0.00175483362272,1454.88352391,482.979183809,-1420.44524718,-0.157661378275,-20401.2660318,-0.0587414424973,-9.0803951025E-9,0.0161686100002,0.525083517224,280.788014102
9.5,4209160.61234,-1.64196541787E7,1.22462043978E7,1526.78094093,634.073911035,323.213124745,399.663823669,400.356729441,5.32033142122E-4,10012.9976229,-75.6615946903,36.0295957562,32.18858568876536,45.048893274,2.63866223808,-0.011823842191,0.00158734718559,-0.00394704103609,0.00179830325213,1077.35274225,0.00175483362564,1454.88352689,482.979183998,-1420.44527156,-0.165136563765,-20401.2661917,-0.0627041629054,-9.13860276341E-9,0.0645461844013,0.525083520175,280.788017834
9.6,4209313.29023,-1.64195907707E7,1.22462367189E7,1526.77690637,634.087702668,323.209839478,399.660321895,400.360229808,5.37318455855E-4,10012.9975694,-75.6614593623,36.0297054885,32.18858579659296,45.049388126,2.63866167699,-0.011897343276,0.00154936762488,-0.00394703632335,0.00180634132888,1077.35274246,0.00175483362858,1454.88352991,482.979184188,-1420.44529619,-0.170265363666,-20401.2663515,-0.0593069121845,-9.13860276341E-9,0.0963086435961,0.525083523149,280.788021597
9.7,4209465.96772,-1.64195273612E7,1.22462690398E7,1526.77286791,634.101495363,323.206556964,399.656823492,400.363726785,5.4257635739E-4,10012.9975155,-75.661324033,36.0298152199,32.18858590437926,45.0498838989,2.63866111853,-0.0119744400011,0.00151520621962,-0.00394703170151,0.0018163663052,1077.35274268,0.00175483363156,1454.88353296,482.97918438,-1420.44532108,-0.172681066137,-20401.2665113,-0.0495984183817,-9.12041286938E-9,0.109483126735,0.525083526145,280.78802539
9.8,4209618.6448,-1.64194639504E7,1.22463013602E7,1526.76882576,634.115289063,323.203277063,399.653328287,400.367220546,5.47806841638E-4,10012.9974609,-75.6611887023,36.0299249504,32.18858601224565,45.0503807041,2.63866056271,-0.0120545612858,0.00148837894821,-0.00394702715114,0.00182663100378,1077.3527429,0.00175483363456,1454.88353603,482.979184575,-1420.44534621,-0.172349545324,-20401.2666711,-0.0352268073867,-9.04401531443E-9,0.104325836936,0.525083529165,280.788029213
9.9,4209771.32148,-1.64194005381E7,1.22463336804E7,1526.76478011,634.129083707,323.199999621,399.64983609,400.370711278,5.53009890837E-4,10012.9974059,-75.6610533703,36.0300346799,32.18858612007275,45.0508784828,2.63866000954,-0.0121368468014,0.00147127137832,-0.00394702264733,0.0018355223586,1077.35274311,0.00175483363759,1454.88353914,482.979184771,-1420.44537158,-0.169542552856,-20401.266831,-0.0182030734604,-9.0803951025E-9,0.083089598489,0.525083532207,280.788033065
10.0,4209923.99776,-1.64193371245E7,1.22463660002E7,1526.76073117,634.142879236,323.19672449,399.646346719,400.374199165,5.58185482532E-4,10012.9973503,-75.6609180369,36.0301444084,32.18858622797593,45.0513770288,2.63865945898,-0.0122202682829,0.0014649793472,-0.00394701816267,0.00184172688226,1077.35274333,0.00175483364065,1454.88354227,482.979184969,-1420.4453972,-0.16477974869,-20401.266991,-6.46229633079E-4,-9.07311914489E-9,0.0495926823841,0.525083535271,280.788036947
10.1,4210076.67363,-1.64192737096E7,1.22463983198E7,1526.75667912,634.156675599,323.193451545,399.642860016,400.377684363,5.63333595608E-4,10012.9972943,-75.6607827021,36.030254136,32.18858633576342,45.0518760244,2.63865891098,-0.012303758234,0.00146930636196,-0.00394701367043,0.00184434796144,1077.35274356,0.00175483364374,1454.88354543,482.979185168,-1420.44542306,-0.158748724668,-20401.267151,0.0154600955664,-9.17498255149E-9,0.00865463044226,0.525083538358,280.788040859
10.2,4210229.34909,-1.64192102932E7,1.22464306389E7,1526.75262408,634.170472759,323.190180691,399.639375866,400.381166986,5.68454218921E-4,10012.9972377,-75.6606473659,36.0303638626,32.18858644362698,45.0523750859,2.63865836544,-0.0123863311639,0.0014829036477,-0.00394700914771,0.00184296646867,1077.35274378,0.00175483364686,1454.88354863,482.97918537,-1420.44544916,-0.1522138498,-20401.2673112,0.0284738428047,-9.05492925085E-9,-0.0345265689011,0.525083541466,280.7880448
10.3,4210382.02415,-1.64191468755E7,1.22464629578E7,1526.74856613,634.184270695,323.186911875,399.635894202,400.384647103,5.73547355032E-4,10012.9971806,-75.6605120284,36.0304735882,32.18858655145329,45.0528738118,2.63865782229,-0.0124671846803,0.00150352434291,-0.00394700457794,0.00183764320387,1077.35274401,0.00175483365001,1454.88355185,482.979185574,-1420.44547551,-0.145925004939,-20401.2674714,0.0372441806751,-9.10586095415E-9,-0.0749819561318,0.525083544597,280.788048769
10.4,4210534.69881,-1.64190834564E7,1.22464952763E7,1526.74450529,634.198069402,323.183645084,399.63241501,400.388124726,5.78613024345E-4,10012.997123,-75.6603766896,36.0305833129,32.188586659297,45.0533718286,2.63865728144,-0.0125457711438,0.00152835337319,-0.00394699995243,0.00182886822585,1077.35274424,0.00175483365318,1454.8835551,482.979185779,-1420.4455021,-0.140536276609,-20401.2676316,0.041193317586,-9.15315467864E-9,-0.108498175167,0.525083547749,280.788052768
10.5,4210687.37305,-1.64190200359E7,1.22465275945E7,1526.74044151,634.211868889,323.180380345,399.628938323,400.391599824,5.83651266908E-4,10012.9970648,-75.6602413493,36.0306930367,32.1885867671404,45.0538688299,2.63865674281,-0.0126218346859,0.00155436971843,-0.00394699527074,0.00181746752314,1077.35274447,0.00175483365638,1454.88355837,482.979185986,-1420.44552893,-0.136542654549,-20401.2677919,0.0403276756746,-9.0294633992E-9,-0.132012549977,0.525083550923,280.788056795
10.6,4210840.04689,-1.6418956614E7,1.22465599124E7,1526.73637472,634.225669182,323.177117717,399.625464213,400.395072322,5.88662142263E-4,10012.9970062,-75.6601060077,36.0308027594,32.18858687494251,45.0543646036,2.63865620634,-0.0126954126819,0.00157869818651,-0.00394699053991,0.00180448121653,1077.3527447,0.00175483365961,1454.88356168,482.979186195,-1420.445556,-0.134240061224,-20401.2679521,0.0351836602997,-9.05856722966E-9,-0.143845161154,0.525083554118,280.78806085
10.7,4210992.72033,-1.64188931907E7,1.22465922299E7,1526.7323048,634.239470311,323.173857283,399.621992783,400.39854212,5.93645725672E-4,10012.9969471,-75.6599706648,36.0309124813,32.18858698276405,45.054859047,2.638655672,-0.0127668047759,0.00159891288916,-0.00394698577273,0.00179102932364,1077.35274494,0.00175483366287,1454.88356501,482.979186405,-1420.44558331,-0.133710979621,-20401.2681123,0.0267199961568,-9.10949893296E-9,-0.143757286824,0.525083557334,280.788064934
10.8,4211145.39336,-1.64188297661E7,1.22466245472E7,1526.72823163,634.253272315,323.170599135,399.618524147,400.402009103,5.98602104702E-4,10012.9968875,-75.6598353204,36.0310222021,32.18858709066371,45.0553521678,2.63865513979,-0.0128365158417,0.00161326340411,-0.00394698098559,0.00177818101672,1077.35274517,0.00175483366615,1454.88356838,482.979186618,-1420.44561086,-0.134834917724,-20401.2682724,0.0161733893611,-9.1313268058E-9,-0.13284567648,0.525083560572,280.788069045
10.9,4211298.06597,-1.64187663401E7,1.22466568641E7,1526.72415508,634.26707523,323.167343366,399.615058419,400.405473156,6.03531374054E-4,10012.9968274,-75.6596999748,36.031131922,32.1885871985221,45.0558440736,2.63865460971,-0.0129051815538,0.00162080578334,-0.00394697619611,0.00176684146138,1077.35274541,0.00175483366946,1454.88357177,482.979186832,-1420.44563865,-0.137320282,-20401.2684323,0.00489677876669,-9.12405084819E-9,-0.113299342844,0.52508356383,280.788073185
11.0,4211450.73819,-1.64187029127E7,1.22466891806E7,1526.72007503,634.280879089,323.164090057,399.611595702,400.408934178,6.08433630504E-4,10012.9967668,-75.6595646277,36.031241641,32.1885873063215,45.0563349505,2.63865408179,-0.0129734863634,0.00162143268867,-0.00394697142104,0.00175766709536,1077.35274565,0.0017548336728,1454.88357519,482.979187048,-1420.44566667,-0.140752184671,-20401.2685921,-0.00580039996084,-9.16406861506E-9,-0.0880582776579,0.52508356711,280.788077352
11.1,4211603.40999,-1.64186394839E7,1.22467214969E7,1526.71599139,634.294683916,323.160839272,399.608136072,400.412392092,6.13308968298E-4,10012.9967057,-75.6594292793,36.031351359,32.188587414138325,45.0568250359,2.63865355608,-0.0130420836138,0.00161580857495,-0.00394696667451,0.00175101607791,1077.3527459,0.00175483367617,1454.88357863,482.979187265,-1420.44569494,-0.144649458824,-20401.2687517,-0.0147925254654,-9.16043063626E-9,-0.0604206715873,0.52508357041,280.788081546
11.2,4211756.08138,-1.64185760537E7,1.22467538128E7,1526.71190413,634.308489726,323.157591048,399.604679577,400.41584685,6.18157474378E-4,10012.9966441,-75.6592939296,36.0314610761,32.18858752203329,45.0573145872,2.63865303264,-0.0131115264027,0.0016052257629,-0.00394696196689,0.00174693614784,1077.35274614,0.00175483367956,1454.8835821,482.979187485,-1420.44572344,-0.14852375308,-20401.2689111,-0.0212449894943,-9.10222297534E-9,-0.0336466512251,0.52508357373,280.788085768
11.3,4211908.75237,-1.64185126222E7,1.22467861284E7,1526.70781321,634.322296525,323.154345397,399.601226231,400.419298438,6.22979224858E-4,10012.9965821,-75.6591585785,36.0315707922,32.188587629886996,45.0578038522,2.63865251151,-0.0131822158246,0.00159140450838,-0.00394695730413,0.00174518780133,1077.35274639,0.00175483368298,1454.88358561,482.979187706,-1420.44575217,-0.151934004639,-20401.2690704,-0.0246795075516,-9.10586095415E-9,-0.0106025100891,0.525083577071,280.788090016
11.4,4212061.42295,-1.64184491893E7,1.22468184437E7,1526.70371866,634.336104305,323.151102304,399.597776017,400.422746874,6.27774284482E-4,10012.9965195,-75.659023226,36.0316805073,32.188587737679704,45.0582930421,2.63865199274,-0.0132543707054,0.00157626423182,-0.00394695268762,0.00174529699934,1077.35274664,0.00175483368642,1454.88358913,482.979187929,-1420.44578112,-0.154530710162,-20401.2692295,-0.0249941789453,-9.13860276341E-9,0.00651906374071,0.525083580433,280.788094292
11.5,4212214.09311,-1.6418385755E7,1.22468507586E7,1526.69962054,634.349913054,323.147861733,399.594328888,400.426192203,6.32542705546E-4,10012.9964565,-75.6588878722,36.0317902215,32.18858784556829,45.0587823122,2.63865147637,-0.0133280201954,0.00156169375864,-0.00394694811451,0.00174662889123,1077.35274689,0.00175483368989,1454.88359269,482.979188153,-1420.44581031,-0.156086052119,-20401.2693885,-0.0224402352213,-9.14951669984E-9,0.0163789054934,0.525083583814,280.788098594
11.6,4212366.76287,-1.64183223193E7,1.22468830732E7,1526.6955189,634.363722749,323.144623632,399.590884781,400.42963449,6.37284531052E-4,10012.996393,-75.6587525171,36.0318999348,32.18858795345659,45.0592717495,2.63865096242,-0.0134030179417,0.00154934598032,-0.00394694357833,0.00174847250527,1077.35274714,0.00175483369339,1454.88359627,482.979188379,-1420.44583972,-0.156507854948,-20401.2695474,-0.0175620022642,-9.15315467864E-9,0.0185607476607,0.525083587215,280.788102923
11.7,4212519.43222,-1.64182588822E7,1.22469153875E7,1526.69141384,634.377533366,323.141387937,399.587443617,400.433073812,6.41999796045E-4,10012.9963291,-75.6586171605,36.0320096471,32.18858806122321,45.0597613698,2.63865045089,-0.0134790743029,0.00154047732661,-0.00394693907002,0.00175012606845,1077.35274739,0.00175483369692,1454.88359988,482.979188607,-1420.44586936,-0.155837316053,-20401.2697062,-0.0111100668775,-9.08767106012E-9,0.0135325428899,0.525083590636,280.788107278
11.8,4212672.10115,-1.64181954438E7,1.22469477015E7,1526.68730545,634.391344879,323.138154584,399.584005318,400.436510246,6.46688530452E-4,10012.9962646,-75.6584818027,36.0321193585,32.188588169087716,45.0602511221,2.63864994178,-0.0135558014018,0.00153584563287,-0.00394693457906,0.00175097349623,1077.35274765,0.00175483370047,1454.88360351,482.979188837,-1420.44589922,-0.154232246975,-20401.2698649,-0.00393966782697,-9.10586095415E-9,0.00251388914748,0.525083594076,280.788111659
11.9,4212824.76968,-1.6418132004E7,1.22469800152E7,1526.6831938,634.405157265,323.134923516,399.580569811,400.439943867,6.51350763945E-4,10012.9961997,-75.6583464435,36.0322290689,32.188588276949936,45.0607409009,2.63864943506,-0.0136327648758,0.00153567230762,-0.00394693009477,0.00175054443214,1077.35274791,0.00175483370404,1454.88360717,482.979189068,-1420.4459293,-0.151938999665,-20401.2700235,0.0030931359019,-9.04765329324E-9,-0.0127272265649,0.525083597536,280.788116066
12.0,4212977.43779,-1.64180685628E7,1.22470123285E7,1526.67907897,634.418970504,323.131694684,399.577137037,400.443374733,6.55986527505E-4,10012.9961344,-75.6582110829,36.0323387784,32.18858838476892,45.0612305623,2.63864893069,-0.0137095360094,0.00153966707839,-0.00394692560752,0.00174855272827,1077.35274817,0.00175483370764,1454.88361086,482.979189301,-1420.4459596,-0.149257207892,-20401.270182,0.00922587469876,-9.10222297534E-9,-0.0301194936927,0.525083601016,280.788120499
12.1,4213130.10549,-1.64180051202E7,1.22470446415E7,1526.67496099,634.432784583,323.128468054,399.573706954,400.446802885,6.60595857539E-4,10012.9960685,-75.658075721,36.0324484869,32.188588492607366,45.0617199439,2.63864842864,-0.0137857384675,0.00154710685584,-0.00394692110972,0.00174491110121,1077.35274843,0.00175483371127,1454.88361457,482.979189535,-1420.44599011,-0.146501887201,-20401.2703405,0.0138651159803,-9.1313268058E-9,-0.047544318475,0.525083604514,280.788124957
12.2,4213282.77278,-1.64179416762E7,1.22470769542E7,1526.67083989,634.446599495,323.12524361,399.570279543,400.450228343,6.65178797448E-4,10012.9960022,-75.6579403577,36.0325581945,32.18858860051996,45.0622088843,2.63864792886,-0.013861084976,0.00155695506788,-0.00394691659656,0.00173972253116,1077.35274869,0.00175483371492,1454.88361831,482.979189772,-1420.44602085,-0.143967312203,-20401.2704988,0.0166363719398,-9.12768882699E-9,-0.0630736167032,0.525083608032,280.788129441
12.3,4213435.43966,-1.64178782308E7,1.22471092666E7,1526.66671567,634.460415242,323.122021354,399.566854805,400.453651106,6.69735398759E-4,10012.9959355,-75.6578049931,36.0326679012,32.18858870831491,45.0626972406,2.63864743131,-0.0139354008267,0.00156800460578,-0.00394691206628,0.00173325148266,1077.35274896,0.0017548337186,1454.88362208,482.979190009,-1420.44605179,-0.141896488589,-20401.2706571,0.0174053086682,-9.1313268058E-9,-0.0751648291196,0.525083611568,280.78813395
