time,feVelocity_ft_s_X,feVelocity_ft_s_Y,feVelocity_ft_s_Z,altitudeMsl_ft,longitude_deg,latitude_deg,localGravity_ft_s2,eulerAngle_deg_Yaw,eulerAngle_deg_Pitch,eulerAngle_deg_Roll,bodyAngularRateWrtEi_deg_s_Roll,bodyAngularRateWrtEi_deg_s_Pitch,bodyAngularRateWrtEi_deg_s_Yaw,altitudeRateWrtMsl_ft_min,speedOfSound_ft_s,airDensity_slug_ft3,ambientPressure_lbf_ft2,ambientTemperature_dgR,aero_bodyForce_lbf_X,aero_bodyForce_lbf_Y,aero_bodyForce_lbf_Z,aero_bodyMoment_ftlbf_L,aero_bodyMoment_ftlbf_M,aero_bodyMoment_ftlbf_N,mach,trueAirspeed_nmi_h
0.0,399.9999824,399.9999824,0.0,10013.0,-75.674444,36.019167,32.18875534394339,45.0,2.643330876,-0.17183011,0.0,0.0,0.0,0.0,1077.351811,0.001754839,1454.870216,482.979113,-1419.334281,7.253059134,-20423.73475,7.78E-7,23119.66776,8.210462384,0.525070264,335.1594354
0.1,399.9977169,400.003775,-0.003893111,10013.00019,-75.67430865,36.01927647,32.18875579403249,45.00031493,2.643724646,-0.172070844,-5.2081863577317E-5,0.0,2.2975607584713E-5,0.233586688,1077.351811,0.001754839,1454.870205,482.9791123,-1419.339096,7.091735324,-20423.80153,-0.177002059,23119.74619,8.547030147,0.525071267,335.1600752
0.2,399.9954654,400.007691,-0.007798812,10013.00078,-75.67417331,36.01938594,32.18875629413081,45.00063493,2.644118443,-0.172322504,-2.1886987773966E-4,4.0909186572281997E-7,1.0026761414775E-4,0.467928727,1077.351808,0.001754839,1454.870172,482.9791102,-1419.3453,6.906922538,-20423.88149,-0.359201924,23119.84192,8.927209615,0.525072361,335.1607727
0.3,399.9932262,400.011561,-0.011715867,10013.00175,-75.67403796,36.01949541,32.18875678422914,45.00096509,2.644512355,-0.172595029,-4.7383609657251E-4,1.5527156248023E-6,2.2459945569095998E-4,0.702951993,1077.351804,0.001754839,1454.870117,482.9791067,-1419.351671,6.748898745,-20423.95228,-0.493669938,23119.92765,9.246185035,0.525073433,335.1614559
0.4,399.9909967,400.0153874,-0.015643133,10013.00312,-75.67390261,36.01960488,32.18875728432745,45.00130973,2.64490649,-0.172895577,-7.906817572794E-4,4.1711327485464E-6,3.8789242730301E-4,0.938587986,1077.351799,0.001754839,1454.87004,482.9791018,-1419.35836,6.624698428,-20424.01415,-0.577773282,23120.0171,9.490198587,0.525074484,335.1621251
0.5,399.988774,400.0191731,-0.019579904,10013.00488,-75.67376725,36.01971434,32.188757784425775,45.00167214,2.645301032,-0.173228422,-0.0011344564343574,8.59436692695E-6,5.786873730812999E-4,1.17479425,1077.351792,0.001754838,1454.869941,482.9790956,-1419.364887,6.539318411,-20424.07486,-0.611335162,23120.10269,9.649910828,0.525075513,335.1627801
0.6,399.9865549,400.0229215,-0.02352548,10013.00704,-75.6736319,36.01982381,32.1887582745241,45.0020545,2.645696144,-0.173594976,-0.0014782311114354,1.4266649098737002E-5,7.849521793280999E-4,1.411528806,1077.351783,0.001754838,1454.869819,482.9790879,-1419.371419,6.495542889,-20424.12914,-0.59657971,23120.17782,9.720726069,0.525076522,335.1634209
0.7,399.9843361,400.0266357,-0.027479687,10013.00959,-75.67349655,36.01993328,32.18875876462243,45.0024578,2.646091974,-0.173993943,-0.0017933578987569,2.1715100435427E-5,9.969465635262E-4,1.648781213,1077.351773,0.001754838,1454.869676,482.9790788,-1419.377948,6.493890515,-20424.18473,-0.537926525,23120.25632,9.702833575,0.525077508,335.1640477
0.8,399.9821142,400.0303192,-0.031441978,10013.01254,-75.67336119,36.02004274,32.18875925472076,45.00288184,2.646488669,-0.174421601,-0.0020683776404193,3.0194875803351E-5,0.0011974817918217,1.88651866,1077.351761,0.001754838,1454.869509,482.9790683,-1419.384325,6.532681038,-20424.23633,-0.441711939,23120.32447,9.600983789,0.525078474,335.1646603
0.9,399.9798859,400.0339753,-0.035412167,10013.01588,-75.67322583,36.02015221,32.18875974481909,45.00332528,2.646886355,-0.17487218,-0.0022689128687148,4.0164341438613E-5,0.0013808282862633,2.124730013,1077.351748,0.001754838,1454.869321,482.9790564,-1419.390546,6.60821316,-20424.28663,-0.315784912,23120.38905,9.424071994,0.525079418,335.1652587
1.0,399.9776482,400.0376068,-0.039390245,10013.01962,-75.67309047,36.02026167,32.188760234917424,45.00378578,2.647285126,-0.175338326,-0.0023892340056920996,5.0821356428031004E-5,0.0015355268909484,2.363414673,1077.351733,0.001754838,1454.86911,482.9790431,-1419.396309,6.715039703,-20424.33771,-0.169065955,23120.458,9.184491377,0.52508034,335.165843
1.1,399.9753987,400.0412163,-0.04337625,10013.02376,-75.67295511,36.02037114,32.18876072501575,45.00426011,2.647685059,-0.175811619,-0.0024236114733999,6.245239966917E-5,0.0016558480279257,2.602574993,1077.351717,0.001754837,1454.868876,482.9790283,-1419.402077,6.846321872,-20424.38979,-0.011053386,23120.52377,8.897371584,0.525081242,335.1664131
1.2,399.9731351,400.0448059,-0.047370114,10013.02829,-75.67281975,36.0204806,32.18876121511408,45.00474443,2.648086194,-0.176283109,-0.0023663156938869,7.391155557176999E-5,0.0017360621192439001,2.84220685,1077.351699,0.001754837,1454.86862,482.9790122,-1419.407549,6.99424092,-20424.43741,0.148678215,23120.58012,8.579646826,0.525082121,335.1669691
1.3,399.970856,400.0483772,-0.051371961,10013.03323,-75.67268438,36.02059006,32.18876169521242,45.00523446,2.648488536,-0.176743863,-0.0022173466671531,8.651662706463E-5,0.0017704395869516999,3.082317681,1077.351679,0.001754837,1454.868342,482.9789946,-1419.412879,7.150443459,-20424.48824,0.300964121,23120.64098,8.249153655,0.52508298,335.1675108
1.4,399.9685602,400.051931,-0.055381786,10013.03857,-75.67254902,36.02069952,32.18876218531075,45.00572574,2.648892108,-0.177185475,-0.0019824339711498,9.854874076236E-5,0.0017589804310491,3.322907143,1077.351658,0.001754837,1454.868041,482.9789755,-1419.417753,7.306496157,-20424.54222,0.437502446,23120.69938,7.923607683,0.525083816,335.1680384
1.5,399.9662476,400.0554677,-0.059399629,10013.04431,-75.67241365,36.02080898,32.188762665409094,45.00621385,2.649296862,-0.177600517,-0.0016844959176822,1.1000789666495999E-4,0.0017074142294874,3.563977744,1077.351635,0.001754836,1454.867717,482.9789551,-1419.422499,7.454325522,-20424.59136,0.551218992,23120.74907,7.619751339,0.525084632,335.1685517
1.6,399.9639182,400.058987,-0.063425439,10013.05045,-75.67227829,36.02091844,32.18876314550744,45.00669466,2.649702734,-0.17798293,-0.0013292620847016,1.2146705256756E-4,0.0016157409822666001,3.805526318,1077.351611,0.001754836,1454.867371,482.9789332,-1419.426952,7.586620976,-20424.64342,0.636601612,23120.80382,7.352493447,0.525085425,335.1690508
1.7,399.9615729,400.0624882,-0.067459156,10013.05699,-75.67214292,36.0210279,32.18876362560577,45.00716454,2.650109686,-0.178328309,-9.339212060619E-4,1.3235325067502998E-4,0.001489690267338,4.047549343,1077.351585,0.001754836,1454.867002,482.9789099,-1419.431114,7.697181646,-20424.69331,0.689890194,23120.85665,7.134224393,0.525086198,335.1695356
1.8,399.9592128,400.06597,-0.071500649,10013.06394,-75.67200755,36.02113736,32.188764105704124,45.00762048,2.650517662,-0.178634098,-5.2654821372447E-4,1.4266649098737E-4,0.0013407212406042,4.290038914,1077.351557,0.001754835,1454.86661,482.9788852,-1419.435143,7.781191282,-20424.74353,0.709199463,23120.90759,6.97427629,0.525086948,335.1700062
1.9,399.9568395,400.0694309,-0.075549741,10013.07129,-75.67187217,36.02124682,32.18876458580246,45.00806028,2.650926607,-0.178899669,-1.1974817918216999E-4,1.5240677350458E-4,0.0011688339020652,4.532984433,1077.351528,0.001754835,1454.866195,482.978859,-1419.43904,7.835410065,-20424.79151,0.694537649,23120.95675,6.878573368,0.525087677,335.1704625
2.0,399.954455,400.0728688,-0.079606422,10013.07905,-75.6717368,36.02135628,32.188765065899254,45.00848257,2.651336425,-0.1791263,2.6527945914518996E-4,1.6100114043153E-4,9.912169855749E-4,4.776385306,1077.351497,0.001754834,1454.865757,482.9788313,-1419.442656,7.858276814,-20424.83946,0.647712224,23120.99761,6.84945544,0.525088385,335.1709045
2.1,399.9520611,400.076282,-0.083670241,10013.08721,-75.67160143,36.02146574,32.18876553599762,45.00888691,2.651747014,-0.179317051,6.130648407891E-4,1.6902254956335E-4,8.136000690846E-4,5.020214466,1077.351465,0.001754834,1454.865297,482.9788022,-1419.445985,7.849920039,-20424.88511,0.572163421,23121.0439,6.88571687,0.525089071,335.1713322
2.2,399.9496599,400.0796682,-0.087740976,10013.09578,-75.67146605,36.0215752,32.188766016095954,45.00927372,2.65215832,-0.179476552,9.052733163054E-4,1.7647100090004E-4,6.417127305455999E-4,5.264458537,1077.351431,0.001754833,1454.864814,482.9787717,-1419.449496,7.812080989,-20424.926,0.472712845,23121.08843,6.982815101,0.525089735,335.1717456
2.3,399.9472534,400.0830256,-0.091818329,10013.10476,-75.67133067,36.02168465,32.18876648619432,45.00964426,2.652570299,-0.179610714,0.0011344564343574,1.833464944416E-4,4.8758708365563E-4,5.509099713,1077.351395,0.001754833,1454.864307,482.9787397,-1419.452559,7.747956411,-20424.96972,0.355249897,23121.13105,7.133238297,0.525090378,335.1721448
2.4,399.9448433,400.0863525,-0.09590189,10013.11415,-75.67119529,36.02179411,32.18876695629266,45.01000049,2.652982912,-0.179726383,0.0012891550390425,1.9022198798315999E-4,3.5637974857085996E-4,5.754113388,1077.351358,0.001754832,1454.863778,482.9787063,-1419.455646,7.661972415,-20425.00873,0.226383469,23121.17179,7.327023053,0.525090999,335.1725297
2.5,399.9424312,400.0896472,-0.099991369,10013.12394,-75.67105991,36.02190356,32.188767426391024,45.01034499,2.653396128,-0.179830963,0.0013636395524094,1.9595156593446E-4,2.5382030324259E-4,5.99948214,1077.351319,0.001754832,1454.863225,482.9786714,-1419.458598,7.559504103,-20425.04557,0.093056666,23121.21059,7.552378562,0.525091599,335.1729003
2.6,399.9400181,400.0929087,-0.104086636,10013.13415,-75.67092453,36.02201302,32.188767896489374,45.01068077,2.653809913,-0.179932019,0.0013636395524094,2.0168114388576002E-4,1.8277353664647E-4,6.245198141,1077.351278,0.001754831,1454.86265,482.978635,-1419.461102,7.446557675,-20425.08272,-0.037815802,23121.24753,7.796352284,0.525092177,335.1732566
2.7,399.9376048,400.0961362,-0.108187112,10013.14476,-75.67078915,36.02212247,32.18876836658774,45.01101109,2.654224242,-0.180036892,0.0012948846169938,2.0741072183706E-4,1.4495832216788998E-4,6.491226707,1077.351236,0.001754831,1454.862051,482.9785972,-1419.463785,7.329433043,-20425.11523,-0.159715504,23121.28245,8.045582075,0.525092733,335.1735987
2.8,399.9351917,400.0993294,-0.112292582,10013.15578,-75.67065377,36.02223192,32.188768836686094,45.01133929,2.654639099,-0.180152334,0.0011573747461625999,2.1256734199323E-4,1.4037465980685E-4,6.737554922,1077.351192,0.00175483,1454.861429,482.9785579,-1419.466333,7.214385267,-20425.14813,-0.266842913,23121.31534,8.286970635,0.525093268,335.1739264
2.9,399.9327787,400.1024885,-0.116402791,10013.16722,-75.67051838,36.02234137,32.188769296782915,45.01166863,2.655054461,-0.180284192,9.682986737697E-4,2.1715100435427002E-4,1.6730367617796E-4,6.984167436,1077.351147,0.001754829,1454.860784,482.9785172,-1419.468432,7.107302349,-20425.17635,-0.354388214,23121.34629,8.508373554,0.525093781,335.17424
3.0,399.9303653,400.1056138,-0.120517328,10013.17907,-75.670383,36.02245083,32.18876976688127,45.0120021,2.65547031,-0.180437154,7.333859777664E-4,2.2230762451044E-4,2.2230762451044E-4,7.231039709,1077.3511,0.001754829,1454.860116,482.978475,-1419.470707,7.013415462,-20425.20501,-0.418744428,23121.37511,8.699191584,0.525094273,335.1745392
3.1,399.9279506,400.1087063,-0.124635834,10013.19132,-75.67024761,36.02256028,32.188770226979635,45.01234229,2.655886636,-0.180614556,4.7383609657251E-4,2.2631832907635E-4,3.0080284244325E-4,7.47815001,1077.351051,0.001754828,1454.859425,482.9784313,-1419.472847,6.93705523,-20425.22906,-0.457637351,23121.40185,8.850846197,0.525094743,335.1748243
3.2,399.9255336,400.1117671,-0.12875822,10013.20399,-75.67011222,36.02266973,32.18877068707801,45.01269127,2.656303423,-0.180818273,2.0168114388576002E-4,2.3090199143739002E-4,3.9705975202509E-4,7.725493221,1077.351001,0.001754827,1454.85871,482.9783862,-1419.474537,6.881464782,-20425.2535,-0.470201559,23121.42657,8.957136103,0.525095192,335.175095
3.3,399.9231127,400.1147977,-0.132883992,10013.21707,-75.66997683,36.02277918,32.18877114717638,45.01305049,2.656720657,-0.181048689,-6.703606203021E-5,2.349126960033E-4,5.042028597144001E-4,7.973039504,1077.350949,0.001754827,1454.857972,482.9783396,-1419.476404,6.848676916,-20425.27587,-0.456957543,23121.44916,9.014475765,0.525095619,335.1753516
3.4,399.9206866,400.1177997,-0.137013022,10013.23057,-75.66984144,36.02288862,32.18877160727474,45.01342077,2.657138316,-0.181304744,-3.1913749188740997E-4,2.3835044277408E-4,6.187944187404E-4,8.220781346,1077.350895,0.001754826,1454.857211,482.9782915,-1419.477822,6.839459036,-20425.29613,-0.419731934,23121.46971,9.021956748,0.525096025,335.175594
3.5,399.9182535,400.1207746,-0.141145105,10013.24448,-75.66970605,36.02299807,32.188772067373115,45.01380224,2.65755637,-0.18158405,-5.4087215860272E-4,2.4178818954486E-4,7.276563998151E-4,8.468706316,1077.35084,0.001754825,1454.856426,482.9782419,-1419.479104,6.853325925,-20425.31426,-0.361512431,23121.48828,8.981294126,0.525096409,335.1758221
3.6,399.9158118,400.123724,-0.145279649,10013.2588,-75.66957065,36.02310752,32.18877252746994,45.01419437,2.657974804,-0.181883077,-7.219268218638E-4,2.4522593631564E-4,8.307888029385E-4,8.716778958,1077.350783,0.001754824,1454.855619,482.9781909,-1419.480565,6.888616906,-20425.3303,-0.286245301,23121.49765,8.896624425,0.525096772,335.1760361
3.7,399.9133601,400.1266496,-0.149416728,10013.27353,-75.66943526,36.02321697,32.18877297756831,45.01459605,2.658393537,-0.182197385,-8.537071147437E-4,2.4751776749616E-4,9.16732472208E-4,8.965003654,1077.350724,0.001754824,1454.854788,482.9781384,-1419.481584,6.942630663,-20425.34394,-0.198583136,23121.51267,8.774186636,0.525097114,335.1762358
3.8,399.9108971,400.1295526,-0.153555661,10013.28868,-75.66929986,36.02332641,32.18877343766668,45.01500567,2.658812534,-0.182521894,-9.339212060619E-4,2.4980959867668E-4,9.854874076236E-4,9.213339645,1077.350664,0.001754823,1454.853933,482.9780845,-1419.482622,7.011808351,-20425.35559,-0.103626511,23121.52542,8.621925481,0.525097434,335.1764214
3.9,399.9084216,400.1324343,-0.157696433,10013.30424,-75.66916446,36.02343586,32.188773887765066,45.01542117,2.659231783,-0.182851179,-9.568395178670999E-4,2.5210142985720004E-4,0.001031324031234,9.461786006,1077.350602,0.001754822,1454.853055,482.978029,-1419.483524,7.091953587,-20425.36769,-0.006636606,23121.53607,8.448991423,0.525097733,335.1765929
4.0,399.9059329,400.1352954,-0.161838799,10013.32022,-75.66902907,36.0235453,32.18877433786344,45.01584025,2.659651251,-0.183179765,-9.224620501592999E-4,2.5382030324259E-4,0.0010599719209904998,9.71032791,1077.350539,0.001754821,1454.852154,482.9779721,-1419.484133,7.178476231,-20425.37517,0.087244846,23121.54468,8.265227567,0.52509801,335.1767502
4.1,399.9034304,400.1381365,-0.165982246,10013.33661,-75.66889367,36.02365475,32.188774787960284,45.01626042,2.660070921,-0.183502416,-8.365183808898E-4,2.5611213442311003E-4,0.0010542423430392,9.958934755,1077.350474,0.00175482,1454.851229,482.9779137,-1419.484605,7.26664653,-20425.38317,0.173251678,23121.55107,8.080629717,0.525098266,335.1768934
4.2,399.9009139,400.1409578,-0.170126748,10013.35342,-75.66875827,36.02376419,32.18877523805867,45.01667919,2.660490766,-0.183814396,-7.104676659612E-4,2.578310078085E-4,0.001031324031234,10.2076049,1077.350407,0.001754819,1454.850282,482.9778538,-1419.484943,7.351845882,-20425.38907,0.247231863,23121.55544,7.904822194,0.525098501,335.1770225
4.3,399.8983836,400.1437593,-0.174271979,10013.37064,-75.66862286,36.02387363,32.18877568815705,45.01709418,2.660910757,-0.184111701,-5.4259103198811E-4,2.5897692339875997E-4,9.797578296723E-4,10.45631872,1077.350339,0.001754818,1454.84931,482.9777925,-1419.485145,7.429801439,-20425.39289,0.305822047,23121.55776,7.746573845,0.525098715,335.1771376
4.4,399.8958399,400.1465405,-0.178417611,10013.38827,-75.66848746,36.02398308,32.18877612825544,45.01750324,2.661330865,-0.184391229,-3.4950425502929997E-4,2.6012283898901997E-4,9.110028942567E-4,10.70505665,1077.350268,0.001754817,1454.848316,482.9777296,-1419.485212,7.496793102,-20425.39465,0.34660953,23121.558,7.613380241,0.525098907,335.1772385
4.5,399.8932836,400.1493007,-0.182563494,10013.40632,-75.66835206,36.02409252,32.188776578352275,45.01790454,2.661751064,-0.184650913,-1.4037465980685E-4,2.6126875457928E-4,8.250592249871999E-4,10.95380965,1077.350197,0.001754816,1454.847298,482.9776653,-1419.485145,7.549823218,-20425.39682,0.368200662,23121.55624,7.511121308,0.525099078,335.1773255
4.6,399.8907154,400.1520392,-0.186709331,10013.42478,-75.66821665,36.02420196,32.188777018450665,45.01829668,2.662171314,-0.184889779,7.333859777664E-5,2.6184171237441E-4,7.276563998151E-4,11.20255985,1077.350123,0.001754815,1454.846256,482.9775996,-1419.484788,7.586741835,-20425.39437,0.370255587,23121.5525,7.443839191,0.525099228,335.1773983
4.7,399.8881366,400.1547549,-0.190854756,10013.44366,-75.66808125,36.0243114,32.188777468549056,45.01867872,2.662591595,-0.185107957,2.807493196137E-4,2.6241467016954E-4,6.245239966917001E-4,11.45128537,1077.350048,0.001754814,1454.845191,482.9775323,-1419.484296,7.606322861,-20425.39238,0.353469897,23121.54671,7.413586998,0.525099357,335.1774572
4.8,399.8855483,400.1574467,-0.194999766,10013.46296,-75.66794584,36.02442084,32.188777908647445,45.01905022,2.663011868,-0.185306628,4.7154426539199E-4,2.6241467016954E-4,5.196727201829099E-4,11.69998597,1077.349972,0.001754813,1454.844103,482.9774636,-1419.483829,7.608289158,-20425.38823,0.319473778,23121.53904,7.420419663,0.525099465,335.1775022
4.9,399.8829517,400.1601134,-0.199143856,10013.48266,-75.66781043,36.02453028,32.1887783487443,45.01941122,2.663432142,-0.185487918,6.359831525943001E-4,2.6298762796467E-4,4.1711327485463996E-4,11.94863134,1077.349893,0.001754812,1454.842991,482.9773933,-1419.482907,7.593287514,-20425.3823,0.270736784,23121.5359,7.462474231,0.525099551,335.1775331
5.0,399.880348,400.1627538,-0.203287039,10013.50278,-75.66767502,36.02463971,32.18877878884269,45.01976228,2.663852407,-0.185654752,7.677634454742E-4,2.6298762796467E-4,3.2142932306792997E-4,12.19722233,1077.349813,0.001754811,1454.841856,482.9773217,-1419.482167,7.562816746,-20425.37672,0.210380495,23121.5238,7.536129797,0.525099617,335.1775502
5.1,399.8777382,400.165367,-0.207428819,10013.52332,-75.66753961,36.02474915,32.1887792189411,45.02010434,2.664272629,-0.185810668,8.651662706463E-4,2.6241467016954E-4,2.3777748497895E-4,12.44572914,1077.349732,0.00175481,1454.840698,482.9772485,-1419.480982,7.519114645,-20425.36649,0.142009432,23121.50984,7.636279299,0.525099662,335.1775533
5.2,399.8751235,400.167952,-0.211569169,10013.54427,-75.6674042,36.02485859,32.18877965903795,45.02043873,2.664692765,-0.185959611,9.16732472208E-4,2.6184171237441E-4,1.6902254956335E-4,12.69415014,1077.349649,0.001754809,1454.839516,482.9771739,-1419.479667,7.465011364,-20425.3566,0.069484665,23121.49408,7.756666911,0.525099685,335.1775425
5.3,399.8725044,400.1705081,-0.215707787,10013.56563,-75.66726879,36.02496802,32.18878008913635,45.02076706,2.665112775,-0.18610571,9.224620501592999E-4,2.6069579678414997E-4,1.1688339020652E-4,12.94246721,1077.349564,0.001754808,1454.838311,482.9770977,-1419.478222,7.40375823,-20425.34707,-0.003272184,23121.47649,7.890239703,0.525099688,335.1775179
5.4,399.8698817,400.1730348,-0.219844235,10013.58741,-75.66713337,36.02507746,32.18878052923474,45.02109111,2.665532619,-0.186253057,8.938141604027999E-4,2.5897692339875997E-4,8.365183808898E-5,13.19065407,1077.349477,0.001754806,1454.837083,482.9770202,-1419.476647,7.338841815,-20425.33038,-0.072486961,23121.45707,8.029552839,0.52509967,335.1774794
5.5,399.8672556,400.1755319,-0.223978341,10013.6096,-75.66699796,36.02518689,32.1887809593316,45.02141275,2.66595227,-0.186405501,8.250592249871999E-4,2.5668509221824003E-4,6.87549354156E-5,13.43870044,1077.349389,0.001754805,1454.835831,482.9769411,-1419.47494,7.273793584,-20425.31662,-0.134729163,23121.43572,8.167172495,0.525099631,335.1774271
5.6,399.8646262,400.1779993,-0.22810979,10013.63221,-75.66686254,36.02529633,32.18878138943001,45.02173383,2.666371693,-0.186566452,7.276563998151E-4,2.5439326103772E-4,7.219268218637999E-5,13.68658743,1077.349299,0.001754804,1454.834556,482.9768606,-1419.473104,7.21200503,-20425.29821,-0.187068854,23121.41255,8.296075457,0.525099571,335.1773611
5.7,399.8619935,400.1804373,-0.232238202,10013.65522,-75.66672713,36.02540576,32.188781819528415,45.02205608,2.666790863,-0.186738729,6.016056848865E-4,2.5152847206207004E-4,9.224620501593E-5,13.9342921,1077.349208,0.001754803,1454.833258,482.9767786,-1419.471136,7.156557911,-20425.27775,-0.227212824,23121.38742,8.409965963,0.525099491,335.1772813
5.8,399.8593569,400.1828463,-0.236363426,10013.67865,-75.66659171,36.02551519,32.188782249625284,45.02238106,2.66720975,-0.186924437,4.5607440492348E-4,2.4866368308642E-4,1.2605071492860002E-4,14.18180556,1077.349115,0.001754801,1454.831936,482.9766951,-1419.469038,7.110077456,-20425.2577,-0.253592235,23121.36039,8.50359195,0.52509939,335.1771878
5.9,399.8567161,400.1852269,-0.240485102,10013.7025,-75.66645629,36.02562462,32.18878267972369,45.02271003,2.667628327,-0.187124887,3.0252171582864E-4,2.4522593631564E-4,1.7131438074387002E-4,14.42910614,1077.34902,0.0017548,1454.830592,482.9766101,-1419.466809,7.074615339,-20425.23308,-0.26541724,23121.33146,8.572969524,0.525099268,335.1770807
6.0,399.8540702,400.1875798,-0.244602876,10013.72675,-75.66632087,36.02573405,32.18878309982211,45.02304393,2.668046574,-0.187340562,1.4839606893867E-4,2.4178818954486E-4,2.2402649789582998E-4,14.67617257,1077.348923,0.001754799,1454.829224,482.9765237,-1419.46445,7.051567244,-20425.20895,-0.262681486,23121.30051,8.615540476,0.525099126,335.1769599
6.1,399.8514186,400.189906,-0.248716558,10013.75142,-75.66618545,36.02584348,32.188783529918965,45.02338337,2.668464506,-0.187571126,8.880845824515E-7,2.3835044277408E-4,2.807493196137E-4,14.92299348,1077.348825,0.001754797,1454.827832,482.9764358,-1419.461794,7.041627817,-20425.18307,-0.246138101,23121.27414,8.630232678,0.525098963,335.1768255
6.2,399.8487604,400.1922063,-0.252825931,10013.7765,-75.66605003,36.02595291,32.188783950017395,45.02372855,2.668882123,-0.187815477,-1.317802928799E-4,2.349126960033E-4,3.380450991267E-4,15.16955586,1077.348726,0.001754796,1454.826418,482.9763465,-1419.459167,7.044783815,-20425.15511,-0.217214302,23121.23883,8.61746996,0.52509878,335.1766775
6.3,399.8460946,400.1944817,-0.256930751,10013.80198,-75.6659146,36.02606234,32.18878437011582,45.02407932,2.669299385,-0.188071834,-2.4350706293025E-4,2.3090199143739002E-4,3.9190313186892E-4,15.41584504,1077.348625,0.001754794,1454.82498,482.9762557,-1419.456255,7.060344188,-20425.12507,-0.177931733,23121.20166,8.579074653,0.525098576,335.176516
6.4,399.8434206,400.1967332,-0.261030718,10013.82788,-75.66577918,36.02617177,32.18878480021267,45.02443518,2.669716257,-0.188337861,-3.2945073219975E-4,2.2689128687148E-4,4.3945862886471E-4,15.66184309,1077.348522,0.001754793,1454.823519,482.9761634,-1419.453057,7.087004011,-20425.09549,-0.130754709,23121.1626,8.518124074,0.525098352,335.1763409
6.5,399.8407375,400.1989615,-0.26512559,10013.85419,-75.66564376,36.02628119,32.18878521031111,45.02479531,2.670132697,-0.188610806,-3.8560059612249E-4,2.2173466671531E-4,4.7727384334329E-4,15.90753542,1077.348417,0.001754792,1454.822036,482.9760697,-1419.450045,7.122937637,-20425.06133,-0.078456673,23121.12173,8.438742574,0.525098108,335.1761525
6.6,399.8380447,400.2011674,-0.269215169,10013.88091,-75.66550833,36.02639062,32.18878563040798,45.02515866,2.67054867,-0.188887666,-4.1023778131308E-4,2.1715100435427002E-4,5.030569441241401E-4,16.15291015,1077.348311,0.00175479,1454.820529,482.9759745,-1419.446592,7.165914891,-20425.02761,-0.023961221,23121.07902,8.345826631,0.525097843,335.1759505
6.7,399.8353417,400.2033514,-0.273299116,10013.90803,-75.6653729,36.02650005,32.1887860505064,45.02552398,2.670964165,-0.18916535,-4.0393524556665004E-4,2.1256734199323E-4,5.1623497341213E-4,16.39794694,1077.348203,0.001754789,1454.818999,482.9758779,-1419.443318,7.213433371,-20424.98959,0.029814573,23121.04108,8.244775371,0.525097558,335.1757352
6.8,399.8326283,400.205514,-0.277377256,10013.93557,-75.66523748,36.02660947,32.18878647060482,45.02588991,2.671379178,-0.189440845,-3.6783890447346E-4,2.0741072183706E-4,5.150890578218701E-4,16.64263536,1077.348094,0.001754787,1454.817446,482.9757798,-1419.439446,7.262859368,-20424.95207,0.080117013,23120.99413,8.14118196,0.525097254,335.1755066
6.9,399.8299043,400.2076553,-0.281449363,10013.96351,-75.66510205,36.0267189,32.188786880701706,45.02625504,2.671793663,-0.189711366,-3.0424058921403E-4,2.0168114388576002E-4,5.0019215514849E-4,16.88696177,1077.347983,0.001754786,1454.81587,482.9756802,-1419.435763,7.311569724,-20424.91245,0.12448168,23120.94547,8.040540696,0.525096929,335.1752646
7.0,399.8271697,400.2097754,-0.285515151,10013.99186,-75.66496662,36.02682832,32.18878729080014,45.02661801,2.672207568,-0.189974495,-2.1886987773966E-4,1.9595156593446E-4,4.7211722318712E-4,17.13090905,1077.34787,0.001754784,1454.814271,482.9755792,-1419.431797,7.357087303,-20424.87077,0.160855721,23120.89504,7.947970355,0.525096584,335.1750094
7.1,399.8244248,400.2118743,-0.289574395,10014.02061,-75.66483119,36.02693774,32.18878771089702,45.02697758,2.672620849,-0.190228285,-1.1573747461626001E-4,1.8964903018803E-4,4.3258313532315E-4,17.37446368,1077.347756,0.001754782,1454.812649,482.9754768,-1419.427706,7.397203239,-20424.82956,0.187685838,23120.84282,7.86794985,0.525096219,335.1747409
7.2,399.8216699,400.2139515,-0.29362676,10014.04977,-75.66469576,36.02704716,32.188788120995454,45.02733263,2.673033503,-0.19047135,-9.396507840132E-7,1.833464944416E-4,3.8273580714684E-4,17.6176056,1077.34764,0.001754781,1454.811004,482.9753729,-1419.423482,7.430080184,-20424.78407,0.203977385,23120.7954,7.804126069,0.525095834,335.1744592
7.3,399.8189056,400.2160067,-0.297672064,10014.07933,-75.66456033,36.02715658,32.188788531093884,45.02768229,2.673445514,-0.190702903,1.1860226359191E-4,1.7704395869517E-4,3.2544002763383996E-4,17.86032384,1077.347522,0.001754779,1454.809336,482.9752676,-1419.419134,7.45433203,-20424.73905,0.20932558,23120.7391,7.759155599,0.525095429,335.1741644
7.4,399.8161325,400.2180395,-0.30171004,10014.1093,-75.66442489,36.027266,32.188788941190765,45.02802595,2.673856832,-0.190922783,2.3720452718382E-4,1.7016846515361E-4,2.6298762796467E-4,18.10260239,1077.347403,0.001754778,1454.807646,482.9751608,-1419.414662,7.469076938,-20424.69198,0.20390695,23120.68109,7.734605658,0.525095005,335.1738565
7.5,399.8133512,400.2200492,-0.305740365,10014.13968,-75.66428946,36.02737542,32.188789341289215,45.02836323,2.674267416,-0.191131427,3.4835833943904003E-4,1.6272001381691998E-4,1.9824339711498E-4,18.34442191,1077.347283,0.001754776,1454.805933,482.9750526,-1419.40991,7.473962099,-20424.64288,0.188446203,23120.62135,7.730929243,0.525094561,335.1735355
7.6,399.8105625,400.2220351,-0.309762897,10014.17045,-75.66415403,36.02748484,32.1887897513861,45.02869409,2.674677255,-0.191329831,4.4690708020139996E-4,1.5584452027536E-4,1.3464508185555E-4,18.58577384,1077.34716,0.001754774,1454.804197,482.9749429,-1419.405185,7.469160052,-20424.592,0.164163518,23120.5665,7.747462576,0.525094097,335.1732015
7.7,399.807767,400.2239969,-0.313777262,10014.20163,-75.66401859,36.02759426,32.18879015148455,45.0290187,2.675086342,-0.191519468,5.2884004490499E-4,1.4782311114353998E-4,7.44845133669E-5,18.82663575,1077.347036,0.001754772,1454.802438,482.9748319,-1419.400179,7.455337827,-20424.53913,0.13268013,23120.50275,7.782536295,0.525093614,335.1728546
7.8,399.8049656,400.2259337,-0.317783317,10014.23321,-75.66388315,36.02770368,32.18879056158144,45.02933754,2.675494635,-0.1917022,5.901465289838999E-4,1.3980170201172E-4,1.9537860813933E-5,19.06699901,1077.346911,0.001754771,1454.800657,482.9747193,-1419.395052,7.433601892,-20424.48673,0.095928793,23120.43734,7.833588651,0.525093111,335.1724947
7.9,399.8021586,400.2278453,-0.321780745,10014.26519,-75.66374772,36.02781309,32.188790961679885,45.02965127,2.675902098,-0.191880157,6.30253574643E-4,1.317802928799E-4,-2.7559269945753E-5,19.30684471,1077.346784,0.001754769,1454.798854,482.9746054,-1419.389801,7.405422619,-20424.42993,0.056028286,23120.37711,7.897332217,0.525092589,335.172122
8.0,399.7993468,400.2297311,-0.325769345,10014.29756,-75.66361228,36.02792251,32.18879136177678,45.02996073,2.676308742,-0.192055622,6.417127305455999E-4,1.2375888374808E-4,-6.531718864482E-5,19.54616071,1077.346655,0.001754767,1454.797027,482.9744901,-1419.384266,7.372542981,-20424.3738,0.015176075,23120.30775,7.969963198,0.525092048,335.1717364
8.1,399.7965305,400.2315909,-0.329748859,10014.33034,-75.66347684,36.02803192,32.18879176187524,45.0302669,2.676714526,-0.192230903,6.359831525943001E-4,1.1516451682112998E-4,-9.339212060619001E-5,19.78493156,1077.346525,0.001754765,1454.795179,482.9743733,-1419.378926,7.336876923,-20424.31562,-0.024473121,23120.2368,8.047370048,0.525091488,335.1713381
8.2,399.7937099,400.2334245,-0.33371899,10014.36351,-75.6633414,36.02814134,32.18879216197213,45.0305708,2.677119407,-0.192408212,6.073352628378E-4,1.0599719209905E-4,-1.1058085446009E-4,20.02313942,1077.346393,0.001754764,1454.793308,482.9742551,-1419.373153,7.300403135,-20424.25291,-0.060913442,23120.17133,8.125367642,0.525090908,335.170927
8.3,399.7908852,400.2352319,-0.337679556,10014.39708,-75.66320596,36.02825075,32.188792562070574,45.03087349,2.67752339,-0.192589558,5.5634201907123E-4,9.682986737696999E-5,-1.1802930579678E-4,20.26077338,1077.34626,0.001754762,1454.791414,482.9741355,-1419.367564,7.265059903,-20424.19358,-0.092395352,23120.09642,8.199916413,0.525090309,335.1705033
8.4,399.7880564,400.2370133,-0.341630278,10014.43105,-75.66307052,36.02836016,32.18879295216749,45.03117596,2.677926454,-0.192776649,4.9159778822154E-4,8.766254265488999E-5,-1.1516451682112998E-4,20.49781669,1077.346125,0.00175476,1454.789498,482.9740145,-1419.361544,7.232646369,-20424.12968,-0.117489837,23120.02,8.267315092,0.525089691,335.170067
8.5,399.7852234,400.2387688,-0.34557094,10014.46541,-75.66293508,36.02846958,32.18879335226593,45.03147913,2.678328548,-0.192970814,4.1482144367412E-4,7.734930234255E-5,-1.0427831871365999E-4,20.73425638,1077.345988,0.001754758,1454.78756,482.9738921,-1419.355406,7.204735099,-20424.06377,-0.135168567,23119.942,8.324403016,0.525089055,335.1696181
8.6,399.782386,400.2404988,-0.349501272,10014.50016,-75.66279963,36.02857899,32.188793742362854,45.03178376,2.678729662,-0.193172955,3.3174256338026995E-4,6.760901982534E-5,-8.651662706463E-5,20.97007634,1077.34585,0.001754756,1454.7856,482.9737683,-1419.3493,7.182600119,-20423.99867,-0.144819701,23119.86892,8.368666437,0.525088399,335.1691567
8.7,399.7795439,400.2422038,-0.353420939,10014.53531,-75.66266419,36.0286884,32.18879413246131,45.03209047,2.679129794,-0.193383514,2.4579889411077E-4,5.7868737308130005E-5,-6.302535746430001E-5,21.20525636,1077.345711,0.001754754,1454.783618,482.973643,-1419.342761,7.167163297,-20423.93166,-0.146277242,23119.78703,8.398366922,0.525087725,335.1686828
8.8,399.7766966,400.2438842,-0.357329846,10014.57085,-75.66252875,36.02879781,32.18879452255822,45.03239965,2.679528892,-0.19360247,1.6214705602179E-4,4.698253920066E-5,-3.7184960903936995E-5,21.43979074,1077.345569,0.001754752,1454.781613,482.9735164,-1419.33642,7.158961197,-20423.86011,-0.139812242,23119.70366,8.412601218,0.525087032,335.1681965
8.9,399.7738438,400.2455407,-0.361227633,10014.60677,-75.6623933,36.02890722,32.18879491265513,45.0327115,2.679926946,-0.19382936,8.479775367924E-5,3.6554707329293996E-5,-1.0198648753314E-5,21.67365801,1077.345427,0.00175475,1454.779587,482.9733884,-1419.329798,7.158133376,-20423.78941,-0.126078995,23119.62522,8.411287101,0.52508632,335.1676979
9.0,399.7709849,400.2471738,-0.365114121,10014.64309,-75.66225786,36.02901662,32.18879530275359,45.03302602,2.680323944,-0.194063323,1.8563832562212E-5,2.5668509221823998E-5,1.5641747807049003E-5,21.90684727,1077.345282,0.001754748,1454.777538,482.973259,-1419.322903,7.16443157,-20423.71678,-0.106099678,23119.53804,8.395162658,0.52508559,335.167187
9.1,399.7681197,400.2487841,-0.368989082,10014.6798,-75.66212241,36.02912603,32.188795692850505,45.033343,2.680719836,-0.194303155,-3.4320171928287E-5,1.4266649098737002E-5,3.8445468053223E-5,22.13934495,1077.345136,0.001754746,1454.775468,482.9731283,-1419.31605,7.177248699,-20423.64219,-0.081166398,23119.44934,8.365709275,0.525084841,335.1666638
9.2,399.7652476,400.2503721,-0.372852193,10014.71689,-75.66198696,36.02923544,32.18879608294896,45.03366203,2.6811146,-0.194547395,-7.104676659612E-5,3.0767833598481E-6,5.6550934379331E-5,22.37113161,1077.344989,0.001754744,1454.773376,482.9729961,-1419.309075,7.19566527,-20423.56591,-0.052775455,23119.36568,8.325022505,0.525084075,335.1661285
9.3,399.7623684,400.2519383,-0.376703381,10014.75437,-75.66185152,36.02934484,32.18879646304589,45.03398259,2.68150823,-0.194794403,-9.110028942567E-5,-8.59436692695E-6,6.87549354156E-5,22.60220284,1077.34484,0.001754742,1454.771262,482.9728626,-1419.301828,7.218509928,-20423.48773,-0.022541293,23119.27332,8.275690726,0.52508329,335.165581
9.4,399.7594818,400.253483,-0.380542321,10014.79223,-75.66171607,36.02945425,32.18879685314435,45.034304,2.681900673,-0.195042456,-9.281916281106E-5,-2.0569184845167E-5,7.333859777664E-5,22.83253928,1077.34469,0.00175474,1454.769127,482.9727277,-1419.294624,7.244430581,-20423.41019,0.007893657,23119.18641,8.220662456,0.525082486,335.1650215
9.5,399.7565876,400.2550067,-0.384368712,10014.83047,-75.66158062,36.02956365,32.188797233241274,45.03462552,2.682291932,-0.195289842,-7.792226013768E-5,-3.2486706983871E-5,7.047380880099001E-5,23.06212274,1077.344538,0.001754738,1454.766969,482.9725914,-1419.287142,7.271971997,-20423.32847,0.036942505,23119.09038,8.163037941,0.525081665,335.16445
9.6,399.7536858,400.2565094,-0.388182421,10014.8691,-75.66144517,36.02967306,32.1887976133382,45.03494638,2.682681969,-0.195534945,-4.7039834980173E-5,-4.4919891138192E-5,6.0160568488649994E-5,23.29094527,1077.344384,0.001754736,1454.764791,482.9724538,-1419.279705,7.299655407,-20423.24735,0.063158167,23118.99285,8.105939681,0.525080826,335.1638666
9.7,399.7507763,400.2579914,-0.391983214,10014.90811,-75.66130972,36.02978246,32.18879799343667,45.0352658,2.683070743,-0.195776326,-2.5840396560363E-6,-5.7295779513E-5,4.182591904449E-5,23.51899287,1077.344229,0.001754734,1454.76259,482.9723148,-1419.27184,7.326056114,-20423.16444,0.085304041,23118.9007,8.052316679,0.525079969,335.1632712
9.8,399.7478594,400.2594525,-0.395770792,10014.9475,-75.66117427,36.02989186,32.1887983735336,45.03558304,2.683458257,-0.196012793,5.2769412931472994E-5,-7.047380880099001E-5,1.6673071838283E-5,23.74624749,1077.344073,0.001754731,1454.760369,482.9721745,-1419.264172,7.349875004,-20423.0798,0.102397706,23118.79962,8.004825796,0.525079094,335.1626641
9.9,399.7449352,400.2608928,-0.399544898,10014.98726,-75.66103881,36.03000126,32.18879875363207,45.03589747,2.683844463,-0.196243447,1.1573747461626001E-4,-8.307888029385E-5,-1.4438536437275998E-5,23.97269389,1077.343915,0.001754729,1454.758126,482.9720328,-1419.256081,7.370000606,-20422.99327,0.113767668,23118.70416,7.96569485,0.525078201,335.1620451
10.0,399.7420041,400.2623122,-0.403305464,10015.02741,-75.66090336,36.03011066,32.18879912372901,45.03620853,2.684229353,-0.19646772,1.8277353664647E-4,-9.625690958184E-5,-5.0305694412414E-5,24.19832784,1077.343755,0.001754727,1454.755862,482.9718898,-1419.248028,7.385558899,-20422.90515,0.119058293,23118.59959,7.936621463,0.525077291,335.1614145
10.1,399.7390664,400.2637103,-0.407052128,10015.06792,-75.66076791,36.03022006,32.18879950382593,45.03651583,2.684612897,-0.196685392,2.5095551426694004E-4,-1.1000789666495999E-4,-8.938141604028E-5,24.42312768,1077.343594,0.001754725,1454.753577,482.9717455,-1419.23971,7.395948651,-20422.81512,0.118251052,23118.49361,7.91872017,0.525076363,335.1607723
10.2,399.7361225,400.2650869,-0.410784703,10015.10882,-75.66063245,36.03032946,32.18879988392441,45.03681911,2.684995057,-0.196896584,3.1569974511663E-4,-1.2375888374808E-4,-1.3063437728964E-4,24.64708215,1077.343432,0.001754722,1454.75127,482.9715998,-1419.231436,7.400861281,-20422.72592,0.111641302,23118.39293,7.912470773,0.525075418,335.1601185
10.3,399.7331729,400.2664418,-0.414502968,10015.15008,-75.660497,36.03043886,32.18880025402135,45.03711827,2.685375832,-0.19710174,3.7471439801502E-4,-1.375098708312E-4,-1.7131438074387002E-4,24.87017808,1077.343268,0.00175472,1454.748943,482.9714528,-1419.222894,7.400284631,-20422.63244,0.09981127,23118.28355,7.917734425,0.525074456,335.1594532
10.4,399.7302181,400.2677746,-0.418206748,10015.19172,-75.66036154,36.03054825,32.18880062411828,45.03741338,2.68575517,-0.197301589,4.2513468398646E-4,-1.5240677350458E-4,-2.1142142640296997E-4,25.0924049,1077.343102,0.001754718,1454.746594,482.9713044,-1419.214402,7.394491295,-20422.5396,0.083588802,23118.17279,7.933790893,0.525073476,335.1587765
10.5,399.7272583,400.2690851,-0.421895738,10015.23372,-75.66022609,36.03065765,32.18880099421677,45.03770463,2.68613303,-0.1974971,4.6466877185043004E-4,-1.6673071838283E-4,-2.4866368308642E-4,25.31374426,1077.342935,0.001754716,1454.744225,482.9711548,-1419.205486,7.384012706,-20422.44506,0.063997981,23118.06744,7.959366339,0.52507248,335.1580884
10.6,399.7242942,400.2703731,-0.425569725,10015.2761,-75.66009063,36.03076704,32.18880136431371,45.03799235,2.686509417,-0.197689414,4.9217074601667E-4,-1.8162762105621E-4,-2.8189523520396004E-4,25.53418348,1077.342767,0.001754713,1454.741835,482.9710038,-1419.196616,7.369600775,-20422.34885,0.042192964,23117.95327,7.992773199,0.525071466,335.157389
10.7,399.7213259,400.2716383,-0.429228445,10015.31884,-75.65995517,36.03087644,32.18880173441065,45.03827699,2.686884289,-0.197879785,5.0649469089492E-4,-1.9709748152472E-4,-3.0997016716533E-4,25.75370669,1077.342597,0.001754711,1454.739425,482.9708515,-1419.187641,7.352179859,-20422.25335,0.019394213,23117.83768,8.031970269,0.525070435,335.1566783
10.8,399.7183539,400.2728807,-0.432871604,10015.36194,-75.65981972,36.03098583,32.188802104509136,45.03855907,2.687257616,-0.198069507,5.0764060648518E-4,-2.119943841981E-4,-3.3288847897053E-4,25.97229624,1077.342426,0.001754709,1454.736993,482.970698,-1419.178556,7.332791668,-20422.15118,-0.003175317,23117.72749,8.074713305,0.525069388,335.1559566
10.9,399.7153784,400.2741,-0.436499058,10015.40541,-75.65968426,36.03109522,32.18880247460608,45.03883915,2.687629406,-0.198259844,4.9618145058258E-4,-2.2746424466661E-4,-3.5007721282442997E-4,26.18994346,1077.342253,0.001754706,1454.734542,482.9705431,-1419.169363,7.312536487,-20422.04987,-0.024357199,23117.60853,8.1186605,0.525068324,335.1552237
11.0,399.7123994,400.2752965,-0.440110567,10015.44924,-75.6595488,36.03120462,32.18880283470303,45.03911782,2.687999621,-0.198451971,4.7326313877738E-4,-2.4350706293025E-4,-3.609634109319E-4,26.40663403,1077.342079,0.001754704,1454.73207,482.9703869,-1419.160066,7.292513715,-20421.94931,-0.043111283,23117.48816,8.161508925,0.525067244,335.1544798
11.1,399.7094171,400.2764701,-0.443705798,10015.49343,-75.65941334,36.03131401,32.18880320480151,45.03939565,2.688368247,-0.19864691,4.411775022501E-4,-2.5954988119388997E-4,-3.666929888832E-4,26.6223479,1077.341903,0.001754701,1454.729577,482.9702295,-1419.150658,7.273765013,-20421.84475,-0.058570505,23117.37296,8.201102057,0.525066147,335.1537249
11.2,399.7064314,400.2776211,-0.447284777,10015.53798,-75.65927788,36.0314234,32.188803564898464,45.03967319,2.688735277,-0.19884549,4.01070456591E-4,-2.7559269945753E-4,-3.6726594667833E-4,26.83708664,1077.341726,0.001754699,1454.727064,482.9700708,-1419.14099,7.257222706,-20421.74094,-0.070066493,23117.24929,8.235548175,0.525065033,335.1529592
11.3,399.7034425,400.2787496,-0.450847049,10015.58289,-75.65914242,36.03153279,32.18880392499542,45.03995088,2.689100691,-0.199048306,3.5637974857085996E-4,-2.9163551772117E-4,-3.6382819990755E-4,27.05082291,1077.341548,0.001754696,1454.724532,482.9699108,-1419.131214,7.243666086,-20421.63311,-0.077174439,23117.1309,8.263299933,0.525063904,335.1521827
11.4,399.70045,400.2798559,-0.454392644,10015.62815,-75.65900696,36.03164217,32.188804285092374,45.04022911,2.689464484,-0.199255703,3.093972093702E-4,-3.0825129377994E-4,-3.5695270636598996E-4,27.26355863,1077.341368,0.001754694,1454.721979,482.9697495,-1419.121492,7.233687405,-20421.52608,-0.079702771,23117.004,8.283215273,0.525062758,335.1513954
11.5,399.6974539,400.2809404,-0.457921241,10015.67376,-75.65887149,36.03175156,32.18880464519087,45.04050814,2.689826622,-0.199467765,2.6298762796467E-4,-3.2429411204358E-4,-3.4835833943904003E-4,27.47527443,1077.341187,0.001754691,1454.719406,482.969587,-1419.111508,7.227668958,-20421.41752,-0.077715236,23116.8825,8.294614038,0.525061596,335.1505974
11.6,399.6944539,400.2820034,-0.461432642,10015.71973,-75.65873603,36.03186095,32.18880500528782,45.04078814,2.690187103,-0.199684325,2.1886987773966E-4,-3.4148284589748E-4,-3.380450991267E-4,27.68595854,1077.341004,0.001754689,1454.716813,482.9694232,-1419.101423,7.225772036,-20421.30729,-0.071501872,23116.75247,8.297276444,0.525060419,335.1497889
11.7,399.69145,400.2830453,-0.46492663,10015.76605,-75.65860057,36.03197034,32.18880536538477,45.04106913,2.690545897,-0.199904981,1.8048170546595E-4,-3.5809862195625E-4,-3.2830481660949E-4,27.89559783,1077.34082,0.001754686,1454.714201,482.9692582,-1419.091391,7.227937737,-20421.19554,-0.061558617,23116.62786,8.291447905,0.525059225,335.1489698
11.8,399.6884418,400.2840665,-0.468403046,10015.81272,-75.6584651,36.03207972,32.18880572548173,45.04135105,2.690902997,-0.200129125,1.4839606893867E-4,-3.7528735581015E-4,-3.2028340747766997E-4,28.10418277,1077.340635,0.001754684,1454.711569,482.9690919,-1419.080944,7.233899182,-20421.08215,-0.048556517,23116.49474,8.27780831,0.525058016,335.1481403
11.9,399.6854293,400.2850673,-0.471861647,10015.85973,-75.65832964,36.03218911,32.18880607558023,45.04163371,2.691258389,-0.200355991,1.2547775713347002E-4,-3.9247608966404995E-4,-3.1398087173124E-4,28.31169881,1077.340448,0.001754681,1454.708917,482.9689244,-1419.070707,7.243203985,-20420.96732,-0.033296675,23116.36694,8.257409873,0.525056791,335.1473005
12.0,399.6824122,400.286048,-0.475302365,10015.90709,-75.65819418,36.03229849,32.188806435677186,45.04191684,2.691612048,-0.200584691,1.1172677005034999E-4,-4.1023778131308E-4,-3.1111608275559E-4,28.51814188,1077.34026,0.001754679,1454.706246,482.9687557,-1419.060059,7.255245385,-20420.85333,-0.016660916,23116.23786,8.231600682,0.525055551,335.1464503
12.1,399.6793904,400.287009,-0.478725017,10015.95479,-75.65805871,36.03240787,32.188806785774155,45.04220008,2.691963956,-0.200814273,1.0771606548444E-4,-4.2742651516698E-4,-3.1168904055072E-4,28.72350101,1077.34007,0.001754676,1454.703556,482.9685858,-1419.049311,7.269300072,-20420.73784,4.27903E-4,23116.10008,8.201971824,0.525054296,335.1455899
12.2,399.6763639,400.2879506,-0.482129326,10016.00283,-75.65792325,36.03251725,32.18880713587112,45.04248304,2.69231407,-0.201043771,1.1344564343574E-4,-4.4576116461114E-4,-3.1684566070689003E-4,28.92775955,1077.339879,0.001754673,1454.700846,482.9684146,-1419.038623,7.284570493,-20420.61817,0.017069691,23115.96816,8.170237692,0.525053025,335.1447194
12.3,399.6733327,400.2888727,-0.485515199,10016.05122,-75.65778778,36.03262664,32.18880749596961,45.04276529,2.692662379,-0.201272256,1.2834254610912001E-4,-4.6409581405530004E-4,-3.2601298542896996E-4,29.13091194,1077.339687,0.001754671,1454.698117,482.9682422,-1419.02768,7.300229263,-20420.50205,0.032418346,23115.82756,8.138140001,0.525051739,335.1438388
12.4,399.6702968,400.2897758,-0.488882324,10016.09994,-75.65765231,36.03273602,32.18880784606658,45.04304639,2.693008846,-0.20149888,1.5126085791432E-4,-4.8243046349946006E-4,-3.3976397251209E-4,29.33293947,1077.339493,0.001754668,1454.695369,482.9680687,-1419.016797,7.315463214,-20420.38185,0.045732319,23115.69271,8.107389958,0.525050438,335.1429483
12.5,399.6672563,400.2906597,-0.492230572,10016.14899,-75.65751685,36.0328454,32.18880819616354,45.04332592,2.693353457,-0.201722922,1.8105466326107997E-4,-5.0133807073875E-4,-3.5752566416112E-4,29.53383434,1077.339298,0.001754665,1454.692603,482.9678939,-1419.005505,7.329514943,-20420.26012,0.056410105,23115.54937,8.079529646,0.525049122,335.1420478
12.6,399.6642114,400.2915246,-0.495559691,10016.19838,-75.65738138,36.03295477,32.188808536260524,45.04360349,2.693696174,-0.201943813,2.1600508876401E-4,-5.196727201829099E-4,-3.7872510258093003E-4,29.73358146,1077.339102,0.001754662,1454.689817,482.9677179,-1418.994275,7.341719699,-20420.13688,0.064006009,23115.4117,8.055913638,0.525047792,335.1411375
12.7,399.6611622,400.2923705,-0.498869591,10016.2481,-75.65724591,36.03306415,32.188808886359034,45.04387879,2.694036982,-0.202161166,2.5382030324259E-4,-5.3915328521733E-4,-4.0336228777152004E-4,29.93217543,1077.338905,0.00175466,1454.687013,482.9675408,-1418.982794,7.351535961,-20420.01461,0.068251554,23115.26563,8.037602677,0.525046447,335.1402174
12.8,399.6581091,400.2931972,-0.502159955,10016.29815,-75.65711044,36.03317353,32.188809236456,45.04415155,2.694375858,-0.202374783,2.9278143331143E-4,-5.5863385025175E-4,-4.297183463475E-4,30.1295973,1077.338706,0.001754657,1454.68419,482.9673625,-1418.971687,7.358568366,-20419.88842,0.069073023,23115.1251,8.025343095,0.525045087,335.1392876
12.9,399.6550522,400.2940047,-0.505430709,10016.34853,-75.65697497,36.03328291,32.18880957655298,45.04442161,2.694712776,-0.202584661,3.3059664779001E-4,-5.786873730812999E-4,-4.5722032051374E-4,30.32584256,1077.338505,0.001754654,1454.681348,482.967183,-1418.959864,7.362582075,-20419.76313,0.066565278,23114.98348,8.019549166,0.525043713,335.1383483
13.0,399.651992,400.2947929,-0.508681508,10016.39924,-75.6568395,36.03339228,32.188809926649945,45.04468887,2.69504772,-0.202790983,3.6612003108807E-4,-5.958761069352E-4,-4.8529525247511E-4,30.52089049,1077.338304,0.001754651,1454.678489,482.9670023,-1418.948257,7.363508325,-20419.63404,0.06099462,23114.83305,8.020261225,0.525042325,335.1373995
13.1,399.6489286,400.2955617,-0.511912236,10016.45027,-75.65670403,36.03350166,32.18881026674692,45.04495334,2.695380664,-0.2029941,3.9705975202509E-4,-6.187944187404E-4,-5.127972266413501E-4,30.71473414,1077.338101,0.001754649,1454.675611,482.9668205,-1418.936404,7.361441016,-20419.50594,0.052779211,23114.68851,8.027197986,0.525040922,335.1364412
13.2,399.6458625,400.2963111,-0.515122735,10016.50162,-75.65656856,36.03361103,32.1888106068439,45.0452151,2.695711602,-0.203194507,4.2284285280593995E-4,-6.359831525943001E-4,-5.3972624301246E-4,30.9073641,1077.337897,0.001754646,1454.672714,482.9666376,-1418.924459,7.356625125,-20419.37641,0.042455883,23114.5355,8.039754988,0.525039506,335.1354736
13.3,399.6427938,400.2970408,-0.518312809,10016.55329,-75.65643309,36.0337204,32.188810946942425,45.0454743,2.6960405,-0.20339281,4.4175046004523E-4,-6.589014643995E-4,-5.637904704079201E-4,31.09876856,1077.337692,0.001754643,1454.6698,482.9664535,-1418.91258,7.349437721,-20419.24548,0.030644416,23114.38822,8.05707686,0.525038075,335.1344967
13.4,399.6397228,400.2977508,-0.521482207,10016.60528,-75.65629762,36.03382977,32.18881129703939,45.04573119,2.69636735,-0.203589692,4.5320961594783E-4,-6.760901982534E-4,-5.844169510326E-4,31.28893243,1077.337485,0.00175464,1454.666868,482.9662682,-1418.900458,7.340362985,-20419.11307,0.018016828,23114.23263,8.078084596,0.525036631,335.1335106
13.5,399.6366498,400.2984412,-0.524630728,10016.65759,-75.65616215,36.03393915,32.18881162713638,45.04598602,2.696692108,-0.203785872,4.5779327830887E-4,-6.990085100585999E-4,-6.073352628378E-4,31.47784367,1077.337277,0.001754637,1454.663918,482.9660819,-1418.888246,7.329962667,-20418.97926,0.005263432,23114.08286,8.101556427,0.525035173,335.1325155
13.6,399.633575,400.299112,-0.527758204,10016.71021,-75.65602668,36.03404852,32.188811967233356,45.04623912,2.697014772,-0.203982068,4.5435553153809E-4,-7.219268218638E-4,-6.187944187404E-4,31.66549225,1077.337068,0.001754634,1454.66095,482.9658944,-1418.876104,7.318843762,-20418.84406,-0.006952268,23113.92468,8.126199386,0.525033702,335.1315113
13.7,399.6304984,400.2997631,-0.530864482,10016.76314,-75.6558912,36.03415788,32.18881230733034,45.0464908,2.6973353,-0.204178961,4.4518820681601E-4,-7.44845133669E-4,-6.359831525943001E-4,31.85186889,1077.336858,0.001754631,1454.657965,482.9657058,-1418.863876,7.30762523,-20418.70743,-0.01802212,23113.77242,8.150700956,0.525032217,335.1304982
13.8,399.6274203,400.3003947,-0.533949381,10016.81638,-75.65575573,36.03426725,32.18881264742732,45.0467414,2.697653694,-0.204377157,4.297183463475E-4,-7.620338675228999E-4,-6.417127305455999E-4,32.03696284,1077.336646,0.001754628,1454.654962,482.9655161,-1418.851247,7.296905411,-20418.57199,-0.027413759,23113.61169,8.173822055,0.52503072,335.1294762
13.9,399.6243407,400.3010068,-0.537012555,10016.86993,-75.65562026,36.03437662,32.188812977524314,45.04699122,2.697969914,-0.204577164,4.0966482351795E-4,-7.849521793280999E-4,-6.474423084969E-4,32.22075331,1077.336434,0.001754625,1454.651942,482.9653254,-1418.838848,7.287231928,-20418.43264,-0.034719712,23113.45689,8.194448841,0.525029208,335.1284455
14.0,399.6212596,400.3015998,-0.54005397,10016.92378,-75.65548478,36.03448599,32.18881331762284,45.04724055,2.698283967,-0.204779366,3.8674651171274996E-4,-8.078704911333001E-4,-6.531718864481999E-4,32.40323822,1077.33622,0.001754623,1454.648905,482.9651335,-1418.826047,7.279075442,-20418.29456,-0.039638805,23113.29356,8.211624934,0.525027684,335.1274061
14.1,399.6181771,400.3021737,-0.543073339,10016.97794,-75.65534931,36.03459535,32.188813647719826,45.0474896,2.698595833,-0.204984009,3.6153636872703E-4,-8.307888029385E-4,-6.531718864481999E-4,32.58440032,1077.336004,0.00175462,1454.64585,482.9649406,-1418.813318,7.272808461,-20418.1527,-0.042026154,23113.13598,8.224631494,0.525026147,335.1263582
14.2,399.615093,400.3027289,-0.546070528,10017.0324,-75.65521384,36.03470472,32.18881397781682,45.04773855,2.698905514,-0.205191196,3.3575326794618E-4,-8.537071147437E-4,-6.531718864481999E-4,32.76423166,1077.335788,0.001754617,1454.642779,482.9647465,-1418.800507,7.268690157,-20418.0095,-0.041853223,23112.97724,8.232985384,0.525024598,335.1253017
14.3,399.6120075,400.3032655,-0.54904548,10017.08715,-75.65507836,36.03481408,32.1888143179138,45.04798752,2.699213003,-0.205400885,3.1168904055072E-4,-8.708958485976E-4,-6.531718864481999E-4,32.94272881,1077.33557,0.001754614,1454.639691,482.9645515,-1418.78761,7.266857633,-20417.86766,-0.039245558,23112.80987,8.236467972,0.525023036,335.1242369
14.4,399.6089203,400.3037839,-0.551997931,10017.14221,-75.65494289,36.03492345,32.18881464801079,45.04823656,2.699518277,-0.205612899,2.8934368654064997E-4,-8.938141604027999E-4,-6.531718864481999E-4,33.11987589,1077.335352,0.00175461,1454.636586,482.9643553,-1418.774631,7.267323911,-20417.72451,-0.034432987,23112.64845,8.235123069,0.525021461,335.1231637
14.5,399.6058315,400.3042843,-0.554927853,10017.19755,-75.65480741,36.03503281,32.18881497810778,45.04848563,2.699821336,-0.205826939,2.7100903709648995E-4,-9.16732472208E-4,-6.531718864481999E-4,33.29567117,1077.335132,0.001754607,1454.633464,482.9641581,-1418.761416,7.269982399,-20417.58009,-0.027755615,23112.48583,8.229234585,0.525019874,335.1220823
14.6,399.602741,400.3047669,-0.557835014,10017.25319,-75.65467193,36.03514217,32.188815308204774,45.04873467,2.70012217,-0.206042607,2.5725805001337003E-4,-9.396507840132E-4,-6.531718864481999E-4,33.47010082,1077.334911,0.001754604,1454.630326,482.9639599,-1418.748118,7.274617438,-20417.43451,-0.019642926,23112.31476,8.219319591,0.525018275,335.1209927
14.7,399.5996487,400.3052321,-0.56071937,10017.30912,-75.65453646,36.03525153,32.18881562830178,45.04898354,2.700420753,-0.206259429,2.4809072529129E-4,-9.625690958183999E-4,-6.589014643995E-4,33.64316219,1077.334688,0.001754601,1454.627172,482.9637606,-1418.734899,7.280919921,-20417.28764,-0.010567893,23112.14968,8.206082866,0.525016663,335.1198951
14.8,399.5965547,400.30568,-0.563580654,10017.36533,-75.65440098,36.03536089,32.18881595839877,45.04923206,2.700717071,-0.206476882,2.4465297852051E-4,-9.854874076236E-4,-6.646310423508E-4,33.81483922,1077.334465,0.001754598,1454.624002,482.9635604,-1418.721447,7.288507233,-20417.13945,-0.001045553,23111.98361,8.190355394,0.52501504,335.1187895
14.9,399.5934589,400.3061109,-0.566418811,10017.42183,-75.6542655,36.03547025,32.18881628849731,45.04948001,2.701011106,-0.206694427,2.4694480970103E-4,-0.0010084057194288001,-6.703606203021E-4,33.98512868,1077.334241,0.001754595,1454.620815,482.9633591,-1418.707915,7.29694611,-20416.99269,0.008414919,23111.80904,8.173084949,0.525013405,335.1176761
15.0,399.5903614,400.3065249,-0.569233648,10017.47862,-75.65413003,36.03557961,32.18881660859431,45.04972717,2.701302834,-0.206911532,2.5439326103772E-4,-0.001031324031234,-6.760901982534E-4,34.15401887,1077.334015,0.001754592,1454.617613,482.9631568,-1418.694464,7.305777178,-20416.84215,0.017324523,23111.64055,8.155245648,0.525011759,335.1165548
15.1,399.5872623,400.3069222,-0.572025055,10017.53568,-75.65399455,36.03568897,32.18881693869131,45.04997327,2.701592236,-0.207127702,2.6642537473545E-4,-0.0010542423430392,-6.87549354156E-4,34.32150331,1077.333788,0.001754589,1454.614394,482.9629535,-1418.680628,7.314539796,-20416.69283,0.025246605,23111.47114,8.137802859,0.5250101,335.1154259
15.2,399.5841616,400.3073029,-0.574792807,10017.59302,-75.65385907,36.03579833,32.18881725878831,45.05021809,2.701879295,-0.207342506,2.8246819299909004E-4,-0.0010771606548444,-7.047380880099E-4,34.48756843,1077.33356,0.001754586,1454.611161,482.9627492,-1418.66687,7.322796,-20416.53992,0.031809604,23111.29332,8.121661138,0.525008431,335.1142893
15.3,399.5810595,400.3076671,-0.577536835,10017.65064,-75.65372359,36.03590768,32.18881758888531,45.05046141,2.702163986,-0.207555591,3.0194875803351E-4,-0.0011000789666496,-7.219268218638E-4,34.6522101,1077.333331,0.001754582,1454.607911,482.9625439,-1418.652882,7.330152188,-20416.38833,0.036734901,23111.12155,8.107620909,0.52500675,335.1131452
15.4,399.5779561,400.3080148,-0.580256976,10017.70853,-75.65358812,36.03601704,32.18881790898231,45.05070302,2.702446294,-0.207766701,3.2372115424845E-4,-0.0011229972784548,-7.391155557177E-4,34.81541857,1077.333101,0.001754579,1454.604646,482.9623377,-1418.638981,7.336277698,-20416.23551,0.03982664,23110.94886,8.09634894,0.525005058,335.1119937
15.5,399.5748516,400.3083461,-0.582953089,10017.76669,-75.65345264,36.03612639,32.18881822907931,45.05094277,2.702726201,-0.207975685,3.4606650825852E-4,-0.0011516451682113001,-7.563042895716001E-4,34.97718536,1077.33287,0.001754576,1454.601366,482.9621304,-1418.625006,7.340919291,-20416.08158,0.041007922,23110.76792,8.088325387,0.525003355,335.1108349
15.6,399.5717463,400.3086611,-0.585624917,10017.82512,-75.65331716,36.03623574,32.18881854917632,45.05118054,2.703003687,-0.208182501,3.6841186226859E-4,-0.0011745634800165,-7.792226013768E-4,35.13749504,1077.332638,0.001754573,1454.598071,482.9619223,-1418.610959,7.343911038,-20415.92657,0.040296957,23110.59295,8.083848502,0.525001641,335.1096688
15.7,399.5686403,400.3089596,-0.588272422,10017.88381,-75.65318168,36.0363451,32.18881886927332,45.05141628,2.703278739,-0.208387212,3.9018425848353E-4,-0.0011974817918217,-7.964113352307E-4,35.2963453,1077.332405,0.00175457,1454.594761,482.9617132,-1418.596686,7.345179272,-20415.7729,0.037804846,23110.41706,8.083029749,0.524999917,335.1084955
15.8,399.5655338,400.3092418,-0.590895392,10017.94277,-75.6530462,36.03645445,32.18881918937033,45.05164995,2.70355134,-0.20858998,4.0909186572282003E-4,-0.0012204001036269,-8.193296470359E-4,35.45372353,1077.332171,0.001754566,1454.591435,482.9615031,-1418.582344,7.344742623,-20415.61562,0.03373498,23110.23302,8.085770252,0.524998182,335.1073152
15.9,399.5624272,400.3095075,-0.593493675,10018.00199,-75.65291072,36.0365638,32.188819509467336,45.05188159,2.703821448,-0.208791053,4.2570764178159E-4,-0.0012490479933834002,-8.422479588411E-4,35.60962052,1077.331935,0.001754563,1454.588096,482.9612921,-1418.568093,7.34270716,-20415.45464,0.028366898,23110.0553,8.091801926,0.524996437,335.106128
16.0,399.5593205,400.3097569,-0.596067209,10018.06147,-75.65277524,36.03667315,32.18881981956435,45.05211128,2.704089058,-0.208990751,4.3831271327445E-4,-0.0012719663051886001,-8.59436692695E-4,35.76403251,1077.331699,0.00175456,1454.584741,482.9610802,-1418.553617,7.339257279,-20415.29761,0.022028941,23109.86945,8.100697595,0.524994681,335.1049338
16.1,399.556214,400.30999,-0.598615672,10018.1212,-75.65263976,36.0367825,32.18882013966136,45.05233912,2.704354135,-0.209189439,4.4748003799652996E-4,-0.0012948846169938,-8.766254265489E-4,35.91694029,1077.331461,0.001754557,1454.581372,482.9608674,-1418.539074,7.33464291,-20415.13702,0.015091214,23109.68972,8.111896416,0.524992915,335.1037329
16.2,399.5531079,400.3102067,-0.601138968,10018.18119,-75.65250428,36.03689185,32.18882045975837,45.05256527,2.704616676,-0.209387517,4.526366581527E-4,-0.0013235325067503,-8.938141604027999E-4,36.06833806,1077.331223,0.001754553,1454.577989,482.9606537,-1418.524624,7.329163871,-20414.97534,0.007936317,23109.50199,8.124734693,0.52499114,335.1025253
16.3,399.5500024,400.3104072,-0.603637026,10018.24143,-75.6523688,36.03700119,32.18882076985538,45.05278989,2.704876657,-0.209585389,4.5320961594783E-4,-0.0013464508185555,-9.052733163054E-4,36.21822157,1077.330984,0.00175455,1454.574592,482.9604391,-1418.50995,7.323152231,-20414.8152,9.44876E-4,23109.32028,8.138505315,0.524989354,335.1013112
16.4,399.5468976,400.3105915,-0.606109578,10018.30192,-75.65223331,36.03711054,32.1888210799524,45.05301316,2.705134078,-0.209783445,4.4977186917704995E-4,-0.001375098708312,-9.224620501592999E-4,36.36657468,1077.330743,0.001754547,1454.571181,482.9602236,-1418.49521,7.316953808,-20414.65156,-0.00552811,23109.13756,8.152474301,0.524987559,335.1000905
16.5,399.5437937,400.3107597,-0.608556535,10018.36265,-75.65209783,36.03721989,32.188821400049406,45.05323527,2.705388942,-0.209982042,4.4346933343062E-4,-0.0013980170201171999,-9.281916281106001E-4,36.51339212,1077.330502,0.001754543,1454.567755,482.9600072,-1418.480565,7.310909674,-20414.48693,-0.011171879,23108.9539,8.165930921,0.524985754,335.0988634
16.6,399.5406906,400.310912,-0.610977849,10018.42363,-75.65196235,36.03732923,32.18882171014642,45.05345639,2.705641243,-0.210181488,4.3430200870854004E-4,-0.0014266649098736998,-9.396507840132E-4,36.65867094,1077.33026,0.00175454,1454.564317,482.9597899,-1418.465539,7.305338743,-20414.32397,-0.015724027,23108.76194,8.178211243,0.52498394,335.0976301
16.7,399.5375887,400.3110485,-0.613373248,10018.48485,-75.65182687,36.03743858,32.18882202024344,45.05367668,2.705890972,-0.210382024,4.2226989501081E-4,-0.0014495832216788998,-9.453803619645E-4,36.80239491,1077.330016,0.001754537,1454.560864,482.9595718,-1418.450765,7.300522135,-20414.15751,-0.018999222,23108.57618,8.188753151,0.524982117,335.0963905
16.8,399.5344878,400.3111693,-0.615742791,10018.5463,-75.65169139,36.03754792,32.188822330340464,45.0538963,2.70613813,-0.210583819,4.0966482351795E-4,-0.0014782311114354,-9.511099399158E-4,36.94456746,1077.329772,0.001754533,1454.557398,482.9593529,-1418.435616,7.2966902,-20413.99266,-0.020880366,23108.38942,8.197102945,0.524980284,335.0951449
16.9,399.531388,400.3112747,-0.618086276,10018.60799,-75.6515559,36.03765726,32.18882264043747,45.05411533,2.706382712,-0.210786959,3.9648679422996E-4,-0.0015011494232406,-9.568395178670999E-4,37.08517656,1077.329527,0.00175453,1454.553919,482.9591331,-1418.420721,7.294012707,-20413.82687,-0.021324792,23108.20178,8.202932985,0.524978443,335.0938932
