time,feVelocity_ft_s_X,feVelocity_ft_s_Y,feVelocity_ft_s_Z,altitudeMsl_ft,longitude_deg,latitude_deg,localGravity_ft_s2,eulerAngle_deg_Yaw,eulerAngle_deg_Pitch,eulerAngle_deg_Roll,bodyAngularRateWrtEi_deg_s_Roll,bodyAngularRateWrtEi_deg_s_Pitch,bodyAngularRateWrtEi_deg_s_Yaw,altitudeRateWrtMsl_ft_min,speedOfSound_ft_s,airDensity_slug_ft3,ambientPressure_lbf_ft2,ambientTemperature_dgR,aero_bodyForce_lbf_X,aero_bodyForce_lbf_Y,aero_bodyForce_lbf_Z,aero_bodyMoment_ftlbf_L,aero_bodyMoment_ftlbf_M,aero_bodyMoment_ftlbf_N,mach,trueAirspeed_nmi_h
0.0,0.0,0.0,0.0,30000.0,0.0,0.0,32.10653699,0.0,0.0,0.0,0.0,0.0,0.0,0.0,994.8492583,8.90951E-4,629.8546116,411.8392612,0.0,0.0,0.0,0.0,0.0,0.0,1.01E-8,5.92E-6
0.1,0.0,2.1E-5,3.199510561,29999.84002,1.82E-12,0.0,32.10653738,0.0,0.0,-4.17807E-4,0.0,0.0,0.0,-191.9706337,994.8499466,8.90956E-4,629.8591389,411.8398311,0.0,0.0,0.0,0.0,0.0,0.0,0.003216074,1.895658176
0.2,0.0,8.87E-5,6.399021221,29999.3601,1.58E-11,0.0,32.10653876,0.0,0.0,-8.35615E-4,0.0,0.0,0.0,-383.9412732,994.8520117,8.90972E-4,629.872771,411.8415408,0.0,0.0,0.0,0.0,0.0,0.0,0.006432134,3.791316409
0.3,0.0,2.02981E-4,9.598532075,29998.56022,5.46E-11,0.0,32.10654111,0.0,0.0,-0.001253422,0.0,0.0,0.0,-575.9119245,994.8554451,8.90998E-4,629.8954474,411.8443835,0.0,0.0,0.0,0.0,0.0,0.0,0.009648168,5.68697476
0.4,0.0,3.63967E-4,12.79804322,29997.44039,1.31E-10,0.0,32.10654445,0.0,0.0,-0.00167123,0.0,0.0,0.0,-767.8825934,994.8602553,8.91034E-4,629.9271791,411.8483661,0.0,0.0,0.0,0.0,0.0,0.0,0.012864162,7.582633284
0.5,0.0,5.71614E-4,15.99755476,29996.00061,2.58E-10,0.0,32.10654877,0.0,0.0,-0.002089037,0.0,0.0,0.0,-959.8532857,994.866442,8.91081E-4,629.9680164,411.8534885,0.0,0.0,0.0,0.0,0.0,0.0,0.016080103,9.478292042
0.6,0.0,8.25925E-4,19.19706679,29994.24088,4.48E-10,0.0,32.10655408,0.0,0.0,-0.002506845,0.0,0.0,0.0,-1151.824007,994.8739972,8.91138E-4,630.0179494,411.8597438,0.0,0.0,0.0,0.0,0.0,0.0,0.019295978,11.37395109
0.7,0.0,0.001126897,22.3965794,29992.1612,7.14E-10,0.0,32.10656036,0.0,0.0,-0.002924653,0.0,0.0,0.0,-1343.794764,994.8829289,8.91205E-4,630.0768892,411.867139,0.0,0.0,0.0,0.0,0.0,0.0,0.022511774,13.26961049
0.8,0.0,0.001474532,25.5960927,29989.76156,1.07E-9,0.0,32.10656763,0.0,0.0,-0.00334246,0.0,0.0,0.0,-1535.765562,994.8932372,8.91283E-4,630.1449367,411.875674,0.0,0.0,0.0,0.0,0.0,0.0,0.025727477,15.16527029
0.9,0.0,0.00186883,28.79560678,29987.04198,1.52E-9,0.0,32.10657588,0.0,0.0,-0.003760268,0.0,0.0,0.0,-1727.736407,994.904922,8.91371E-4,630.2220928,411.8853488,0.0,0.0,0.0,0.0,0.0,0.0,0.028943074,17.06093056
1.0,0.0,0.00230979,31.99512173,29984.00244,2.09E-9,0.0,32.10658511,0.0,0.0,-0.004178076,0.0,0.0,0.0,-1919.707304,994.9179749,8.9147E-4,630.3082478,411.8961566,0.0,0.0,0.0,0.0,0.0,0.0,0.032158552,18.95659136
1.1,0.0,0.002797413,35.19463767,29980.64296,2.79E-9,0.0,32.10659532,0.0,0.0,-0.004595884,0.0,0.0,0.0,-2111.67826,994.9324043,8.91579E-4,630.4035637,411.9081042,0.0,0.0,0.0,0.0,0.0,0.0,0.035373898,20.85225273
1.2,0.0,0.003331698,38.39415468,29976.96352,3.63E-9,0.0,32.10660652,0.0,0.0,-0.005013692,0.0,0.0,0.0,-2303.649281,994.9482101,8.91698E-4,630.5078915,411.9211917,0.0,0.0,0.0,0.0,0.0,0.0,0.038589099,22.74791475
1.3,0.0,0.003912646,41.59367286,29972.96412,4.62E-9,0.0,32.10661869,0.0,0.0,-0.005431501,0.0,0.0,0.0,-2495.620371,994.9653838,8.91827E-4,630.6213223,411.9354121,0.0,0.0,0.0,0.0,0.0,0.0,0.041804141,24.64357746
1.4,0.0,0.004540257,44.79319231,29968.64478,5.77E-9,0.0,32.10663185,0.0,0.0,-0.005849309,0.0,0.0,0.0,-2687.591539,994.9839338,8.91967E-4,630.743868,411.9507724,0.0,0.0,0.0,0.0,0.0,0.0,0.045019011,26.53924093
1.5,0.0,0.00521453,47.99271313,29964.00549,7.1E-9,0.0,32.10664599,0.0,0.0,-0.006267118,0.0,0.0,0.0,-2879.562788,995.0038599,8.92118E-4,630.8754302,411.9672725,0.0,0.0,0.0,0.0,0.0,0.0,0.048233696,28.43490521
1.6,0.0,0.005935467,51.19223541,29959.04624,8.63E-9,0.0,32.10666111,0.0,0.0,-0.006684927,0.0,0.0,0.0,-3071.534125,995.0251538,8.92279E-4,631.0161504,411.9849055,0.0,0.0,0.0,0.0,0.0,0.0,0.051448183,30.33057037
1.7,0.0,0.006703066,54.39175926,29953.76704,1.04E-8,0.0,32.10667722,0.0,0.0,-0.007102736,0.0,0.0,0.0,-3263.505556,995.0478237,8.9245E-4,631.1658907,412.0036784,0.0,0.0,0.0,0.0,0.0,0.0,0.054662458,32.22623646
1.8,0.0,0.007517328,57.59128477,29948.16789,1.23E-8,0.0,32.10669431,0.0,0.0,-0.007520546,0.0,0.0,0.0,-3455.477086,995.0718694,8.92631E-4,631.3247532,412.0235912,0.0,0.0,0.0,0.0,0.0,0.0,0.057876508,34.12190354
1.9,0.0,0.008378253,60.79081203,29942.24878,1.45E-8,0.0,32.10671237,0.0,0.0,-0.007938355,0.0,0.0,0.0,-3647.448722,995.097291,8.92823E-4,631.4927402,412.0446437,0.0,0.0,0.0,0.0,0.0,0.0,0.061090321,36.01757166
2.0,0.0,0.009285841,63.99034116,29936.00972,1.69E-8,0.0,32.10673143,0.0,0.0,-0.008356165,0.0,0.0,0.0,-3839.420469,995.1240799,8.93025E-4,631.6697932,412.0668292,0.0,0.0,0.0,0.0,0.0,0.0,0.064303882,37.91324089
2.1,0.0,0.010240092,67.18987223,29929.45071,1.96E-8,0.0,32.10675146,0.0,0.0,-0.008773975,0.0,0.0,0.0,-4031.392334,995.1522443,8.93238E-4,631.8559251,412.0901546,0.0,0.0,0.0,0.0,0.0,0.0,0.06751718,39.80891128
2.2,0.0,0.011241006,70.38940536,29922.57175,2.25E-8,0.0,32.10677247,0.0,0.0,-0.009191785,0.0,0.0,0.0,-4223.364322,995.1817843,8.93461E-4,632.0511385,412.1146198,0.0,0.0,0.0,0.0,0.0,0.0,0.0707302,41.7045829
2.3,0.0,0.012288584,73.58894064,29915.37283,2.57E-8,0.0,32.10679447,0.0,0.0,-0.009609596,0.0,0.0,0.0,-4415.336438,995.2126995,8.93694E-4,632.255486,412.1402248,0.0,0.0,0.0,0.0,0.0,0.0,0.073942929,43.60025579
2.4,0.0,0.013382825,76.78847816,29907.85396,2.92E-8,0.0,32.10681745,0.0,0.0,-0.010027407,0.0,0.0,0.0,-4607.30869,995.2449816,8.93938E-4,632.4689599,412.1669627,0.0,0.0,0.0,0.0,0.0,0.0,0.077155354,45.49593003
2.5,0.0,0.014523729,79.98801803,29900.01514,3.3E-8,0.0,32.10684141,0.0,0.0,-0.010445218,0.0,0.0,0.0,-4799.281082,995.2786388,8.94192E-4,632.6915234,412.1948405,0.0,0.0,0.0,0.0,0.0,0.0,0.080367463,47.39160566
2.6,0.0,0.015711297,83.18756034,29891.85636,3.72E-8,0.0,32.10686635,0.0,0.0,-0.010863029,0.0,0.0,0.0,-4991.25362,995.3136627,8.94456E-4,632.9231689,412.2238513,0.0,0.0,0.0,0.0,0.0,0.0,0.083579242,49.28728274
2.7,0.0,0.016945528,86.38710519,29883.37762,4.16E-8,0.0,32.10689228,0.0,0.0,-0.011280841,0.0,0.0,0.0,-5183.226311,995.3500696,8.94731E-4,633.1639708,412.2540088,0.0,0.0,0.0,0.0,0.0,0.0,0.086790677,51.18296134
2.8,0.0,0.018226423,89.58665268,29874.57894,4.64E-8,0.0,32.10691919,0.0,0.0,-0.011698654,0.0,0.0,0.0,-5375.199161,995.3878428,8.95016E-4,633.4138611,412.2852992,0.0,0.0,0.0,0.0,0.0,0.0,0.090001757,53.07864151
2.9,0.0,0.019553982,92.7862029,29865.46029,5.16E-8,0.0,32.10694707,0.0,0.0,-0.012116466,0.0,0.0,0.0,-5567.172174,995.4269823,8.95312E-4,633.6728432,412.3177226,0.0,0.0,0.0,0.0,0.0,0.0,0.093212467,54.9743233
3.0,0.0,0.020928205,95.98575596,29856.0217,5.71E-8,0.0,32.10697595,0.0,0.0,-0.012534279,0.0,0.0,0.0,-5759.145357,995.4675043,8.95618E-4,633.9409916,412.3512927,0.0,0.0,0.0,0.0,0.0,0.0,0.096422794,56.87000679
3.1,0.0,0.022349092,99.18531195,29846.26314,6.3E-8,0.0,32.1070058,0.0,0.0,-0.012952092,0.0,0.0,0.0,-5951.118717,995.5093922,8.95934E-4,634.2182388,412.3859958,0.0,0.0,0.0,0.0,0.0,0.0,0.099632726,58.76569202
3.2,0.0,0.023816643,102.384871,29836.18463,6.94E-8,0.0,32.10703663,0.0,0.0,-0.013369906,0.0,0.0,0.0,-6143.092258,995.552654,8.96261E-4,634.5046491,412.4218387,0.0,0.0,0.0,0.0,0.0,0.0,0.102842249,60.66137905
3.3,0.0,0.025330858,105.5844331,29825.78617,7.61E-8,0.0,32.10706845,0.0,0.0,-0.01378772,0.0,0.0,0.0,-6335.065986,995.5972897,8.96598E-4,634.8001763,412.4588214,0.0,0.0,0.0,0.0,0.0,0.0,0.10605135,62.55706795
3.4,0.0,0.026891738,108.7839985,29815.06775,8.32E-8,0.0,32.10710125,0.0,0.0,-0.014205535,0.0,0.0,0.0,-6527.039908,995.6432906,8.96945E-4,635.1048138,412.4969371,0.0,0.0,0.0,0.0,0.0,0.0,0.109260016,64.45275876
3.5,0.0,0.028499282,111.9835672,29804.02937,9.08E-8,0.0,32.10713503,0.0,0.0,-0.014623349,0.0,0.0,0.0,-6719.014029,995.690665,8.97303E-4,635.4186262,412.5361926,0.0,0.0,0.0,0.0,0.0,0.0,0.112468234,66.34845155
3.6,0.0,0.03015349,115.1831393,29792.67103,9.88E-8,0.0,32.1071698,0.0,0.0,-0.015041165,0.0,0.0,0.0,-6910.988356,995.7394126,8.97671E-4,635.7416179,412.576588,0.0,0.0,0.0,0.0,0.0,0.0,0.115675991,68.24414638
3.7,0.0,0.031854363,118.3827149,29780.99274,1.07E-7,0.0,32.10720554,0.0,0.0,-0.015458981,0.0,0.0,0.0,-7102.962893,995.7895249,8.9805E-4,636.0736822,412.6181163,0.0,0.0,0.0,0.0,0.0,0.0,0.118883274,70.13984331
3.8,0.0,0.033601901,121.5822941,29768.99449,1.16E-7,0.0,32.10724227,0.0,0.0,-0.015876797,0.0,0.0,0.0,-7294.937647,995.8410101,8.98439E-4,636.4149345,412.6607845,0.0,0.0,0.0,0.0,0.0,0.0,0.12209007,72.03554239
3.9,0.0,0.035396104,124.7818771,29756.67628,1.26E-7,0.0,32.10727998,0.0,0.0,-0.016294614,0.0,0.0,0.0,-7486.912624,995.8938678,8.98838E-4,636.7653793,412.7045924,0.0,0.0,0.0,0.0,0.0,0.0,0.125296366,73.93124367
4.0,0.0,0.037236973,127.9814638,29744.03811,1.36E-7,0.0,32.10731867,0.0,0.0,-0.016712431,0.0,0.0,0.0,-7678.88783,995.9480979,8.99248E-4,637.1249711,412.7495403,0.0,0.0,0.0,0.0,0.0,0.0,0.128502147,75.82694723
4.1,0.0,0.039124506,131.1810545,29731.07999,1.46E-7,0.0,32.10735835,0.0,0.0,-0.017130249,0.0,0.0,0.0,-7870.86327,996.0036919,8.99668E-4,637.4937043,412.795621,0.0,0.0,0.0,0.0,0.0,0.0,0.131707404,77.72265312
4.2,0.0,0.041058705,134.3806492,29717.8019,1.57E-7,0.0,32.107399,0.0,0.0,-0.017548067,0.0,0.0,0.0,-8062.838951,996.0606578,9.00098E-4,637.8716443,412.8428416,0.0,0.0,0.0,0.0,0.0,0.0,0.13491212,79.61836139
4.3,0.0,0.043039569,137.580248,29704.20386,1.68E-7,0.0,32.10744064,0.0,0.0,-0.017965886,0.0,0.0,0.0,-8254.814877,996.1189954,9.00539E-4,638.2587462,412.8912021,0.0,0.0,0.0,0.0,0.0,0.0,0.138116285,81.5140721
4.4,0.0,0.045067099,140.7798509,29690.28585,1.81E-7,0.0,32.10748326,0.0,0.0,-0.018383705,0.0,0.0,0.0,-8446.791056,996.1786962,9.0099E-4,638.6550044,412.9406955,0.0,0.0,0.0,0.0,0.0,0.0,0.141319884,83.40978532
4.5,0.0,0.047141295,143.9794582,29676.04789,1.93E-7,0.0,32.10752687,0.0,0.0,-0.018801525,0.0,0.0,0.0,-8638.767492,996.2397682,9.01451E-4,639.0604851,412.9913287,0.0,0.0,0.0,0.0,0.0,0.0,0.144522906,85.30550109
4.6,0.0,0.049262157,147.1790699,29661.48996,2.06E-7,0.0,32.10757145,0.0,0.0,-0.019219346,0.0,0.0,0.0,-8830.744193,996.3022111,9.01923E-4,639.4751937,413.0431018,0.0,0.0,0.0,0.0,0.0,0.0,0.147725335,87.20121949
4.7,0.0,0.051429685,150.378686,29646.61207,2.2E-7,0.0,32.10761702,0.0,0.0,-0.019637167,0.0,0.0,0.0,-9022.721163,996.3660247,9.02406E-4,639.8990352,413.0960147,0.0,0.0,0.0,0.0,0.0,0.0,0.15092716,89.09694056
4.8,0.0,0.053643879,153.5783068,29631.41422,2.34E-7,0.0,32.10766357,0.0,0.0,-0.020054989,0.0,0.0,0.0,-9214.698408,996.4312005,9.02898E-4,640.3321052,413.1500606,0.0,0.0,0.0,0.0,0.0,0.0,0.154128369,90.99266436
4.9,0.0,0.05590474,156.7779322,29615.89641,2.49E-7,0.0,32.1077111,0.0,0.0,-0.020472811,0.0,0.0,0.0,-9406.675935,996.4977464,9.03401E-4,640.7744201,413.2052463,0.0,0.0,0.0,0.0,0.0,0.0,0.157328948,92.88839096
5.0,0.0,0.058212267,159.9775625,29600.05864,2.65E-7,0.0,32.10775961,0.0,0.0,-0.020890634,0.0,0.0,0.0,-9598.653749,996.5656623,9.03914E-4,641.2259354,413.2615718,0.0,0.0,0.0,0.0,0.0,0.0,0.160528883,94.78412041
5.1,0.0,0.060566462,163.1771976,29583.9009,2.81E-7,0.0,32.10780911,0.0,0.0,-0.021308458,0.0,0.0,0.0,-9790.631856,996.6349394,9.04438E-4,641.6866466,413.3190303,0.0,0.0,0.0,0.0,0.0,0.0,0.163728164,96.67985277
5.2,0.0,0.062967323,166.3768377,29567.4232,2.98E-7,0.0,32.10785959,0.0,0.0,-0.021726282,0.0,0.0,0.0,-9982.610262,996.7055859,9.04972E-4,642.1566208,413.3776286,0.0,0.0,0.0,0.0,0.0,0.0,0.166926776,98.57558809
5.3,0.0,0.065414852,169.5764829,29550.62553,3.16E-7,0.0,32.10791105,0.0,0.0,-0.022144107,0.0,0.0,0.0,-10174.58897,996.7776014,9.05517E-4,642.6358138,413.4373668,0.0,0.0,0.0,0.0,0.0,0.0,0.170124705,100.4713264
5.4,0.0,0.067909048,172.7761332,29533.5079,3.34E-7,0.0,32.10796349,0.0,0.0,-0.022561932,0.0,0.0,0.0,-10366.56799,996.8509857,9.06072E-4,643.1242825,413.4982448,0.0,0.0,0.0,0.0,0.0,0.0,0.17332194,102.3670679
5.5,0.0,0.070449911,175.9757889,29516.07031,3.53E-7,0.0,32.10801691,0.0,0.0,-0.022979759,0.0,0.0,0.0,-10558.54733,996.9257301,9.06654E-4,643.6343932,413.5602557,0.0,0.0,0.0,0.0,0.0,0.0,0.176518468,104.2628125
5.6,0.0,0.073037442,179.1754499,29498.31274,3.72E-7,0.0,32.10807132,0.0,0.0,-0.023397586,0.0,0.0,0.0,-10750.52699,997.0018426,9.07257E-4,644.1604857,413.6234065,0.0,0.0,0.0,0.0,0.0,0.0,0.179714276,106.1585602
5.7,0.0,0.075671642,182.3751164,29480.23522,3.93E-7,0.0,32.10812671,0.0,0.0,-0.023815413,0.0,0.0,0.0,-10942.50698,997.079323,9.0787E-4,644.6962317,413.6876971,0.0,0.0,0.0,0.0,0.0,0.0,0.182909351,108.0543113
5.8,0.0,0.078352509,185.5747884,29461.83772,4.14E-7,0.0,32.10818308,0.0,0.0,-0.024233242,0.0,0.0,0.0,-11134.4873,997.1581626,9.08495E-4,645.2416279,413.7531207,0.0,0.0,0.0,0.0,0.0,0.0,0.186103681,109.9500656
5.9,0.0,0.081080045,188.7744661,29443.12026,4.36E-7,0.0,32.10824043,0.0,0.0,-0.024651071,0.0,0.0,0.0,-11326.46797,997.2383693,9.0913E-4,645.7965915,413.8196841,0.0,0.0,0.0,0.0,0.0,0.0,0.189297253,111.8458234
6.0,0.0,0.08385425,191.9741496,29424.08283,4.58E-7,0.0,32.10829877,0.0,0.0,-0.025068901,0.0,0.0,0.0,-11518.44898,997.3199429,9.09776E-4,646.3612306,413.8873874,0.0,0.0,0.0,0.0,0.0,0.0,0.192490052,113.7415845
6.1,0.0,0.086675123,195.173839,29404.72543,4.81E-7,0.0,32.10835809,0.0,0.0,-0.025486731,0.0,0.0,0.0,-11710.43034,997.402883,9.10433E-4,646.9355026,413.9562305,0.0,0.0,0.0,0.0,0.0,0.0,0.195682067,115.6373492
6.2,0.0,0.089542665,198.3735343,29385.04806,5.06E-7,0.0,32.10841839,0.0,0.0,-0.025904563,0.0,0.0,0.0,-11902.41206,997.487181,9.111E-4,647.5194546,414.0262065,0.0,0.0,0.0,0.0,0.0,0.0,0.198873287,117.5331174
6.3,0.0,0.092456877,201.5732356,29365.05072,5.3E-7,0.0,32.10847967,0.0,0.0,-0.026322395,0.0,0.0,0.0,-12094.39414,997.5728448,9.11779E-4,648.113055,414.0973224,0.0,0.0,0.0,0.0,0.0,0.0,0.202063697,119.4288892
6.4,0.0,0.095417758,204.7729431,29344.73341,5.56E-7,0.0,32.10854194,0.0,0.0,-0.026740228,0.0,0.0,0.0,-12286.37659,997.6598741,9.12469E-4,648.7163117,414.1695781,0.0,0.0,0.0,0.0,0.0,0.0,0.205253284,121.3246647
6.5,0.0,0.098425308,207.9726569,29324.09613,5.83E-7,0.0,32.10860519,0.0,0.0,-0.027158062,0.0,0.0,0.0,-12478.35941,997.7482685,9.13169E-4,649.3292328,414.2429736,0.0,0.0,0.0,0.0,0.0,0.0,0.208442036,123.2204438
6.6,0.0,0.101479529,211.172377,29303.13888,6.1E-7,0.0,32.10866942,0.0,0.0,-0.027575896,0.0,0.0,0.0,-12670.34262,997.8380194,9.1388E-4,649.951866,414.3175021,0.0,0.0,0.0,0.0,0.0,0.0,0.211629941,125.1162268
6.7,0.0,0.10458042,214.3721036,29281.86166,6.38E-7,0.0,32.10873463,0.0,0.0,-0.027993732,0.0,0.0,0.0,-12862.32621,997.9291346,9.14602E-4,650.5841298,414.3931705,0.0,0.0,0.0,0.0,0.0,0.0,0.214816986,127.0120137
6.8,0.0,0.107727981,217.5718367,29260.26446,6.67E-7,0.0,32.10880082,0.0,0.0,-0.028411568,0.0,0.0,0.0,-13054.3102,998.0216139,9.15335E-4,651.2261836,414.4699786,0.0,0.0,0.0,0.0,0.0,0.0,0.218003158,128.9078044
6.9,0.0,0.110922213,220.7715764,29238.34729,6.97E-7,0.0,32.108868,0.0,0.0,-0.028829406,0.0,0.0,0.0,-13246.29459,998.1154485,9.16079E-4,651.8778743,414.5479198,0.0,0.0,0.0,0.0,0.0,0.0,0.221188445,130.803599
7.0,0.0,0.114163116,223.9713229,29216.11014,7.28E-7,0.0,32.10893616,0.0,0.0,-0.029247244,0.0,0.0,0.0,-13438.27938,998.2106464,9.16833E-4,652.539322,414.6270007,0.0,0.0,0.0,0.0,0.0,0.0,0.224372834,132.6993977
7.1,0.0,0.117450689,227.1710763,29193.55302,7.59E-7,0.0,32.1090053,0.0,0.0,-0.029665083,0.0,0.0,0.0,-13630.26458,998.3072071,9.17599E-4,653.2104853,414.7072215,0.0,0.0,0.0,0.0,0.0,0.0,0.227556312,134.5952005
7.2,0.0,0.120784934,230.3708365,29170.67593,7.92E-7,0.0,32.10907542,0.0,0.0,-0.030082922,0.0,0.0,0.0,-13822.25019,998.4051221,9.18375E-4,653.8913622,414.7885753,0.0,0.0,0.0,0.0,0.0,0.0,0.230738869,136.4910074
7.3,0.0,0.124165851,233.5706038,29147.47886,8.26E-7,0.0,32.10914653,0.0,0.0,-0.030500763,0.0,0.0,0.0,-14014.23623,998.5044073,9.19162E-4,654.582034,414.8710757,0.0,0.0,0.0,0.0,0.0,0.0,0.233920487,138.3868185
7.4,0.0,0.12759344,236.7703783,29123.96181,8.6E-7,0.0,32.10921862,0.0,0.0,-0.030918605,0.0,0.0,0.0,-14206.2227,998.605046,9.1996E-4,655.2824377,414.9547092,0.0,0.0,0.0,0.0,0.0,0.0,0.237101158,140.2826338
7.5,0.0,0.131067701,239.9701599,29100.12478,8.95E-7,0.0,32.10929169,0.0,0.0,-0.031336448,0.0,0.0,0.0,-14398.2096,998.7070376,9.20769E-4,655.9925828,415.0394756,0.0,0.0,0.0,0.0,0.0,0.0,0.24028087,142.1784535
7.6,0.0,0.134588634,243.1699489,29075.96777,9.32E-7,0.0,32.10936575,0.0,0.0,-0.031754291,0.0,0.0,0.0,-14590.19694,998.8103984,9.21589E-4,656.7125004,415.1253886,0.0,0.0,0.0,0.0,0.0,0.0,0.243459606,144.0742775
7.7,0.0,0.13815624,246.3697454,29051.49079,9.69E-7,0.0,32.10944078,0.0,0.0,-0.032172136,0.0,0.0,0.0,-14782.18472,998.9151112,9.2242E-4,657.4422288,415.2124347,0.0,0.0,0.0,0.0,0.0,0.0,0.246637358,145.9701059
7.8,0.0,0.141770519,249.5695493,29026.69383,1.01E-6,0.0,32.1095168,0.0,0.0,-0.032589982,0.0,0.0,0.0,-14974.17296,999.0211841,9.23261E-4,658.1817382,415.3006206,0.0,0.0,0.0,0.0,0.0,0.0,0.249814112,147.8659388
7.9,0.0,0.145431471,252.7693609,29001.57688,1.05E-6,0.0,32.1095938,0.0,0.0,-0.033007828,0.0,0.0,0.0,-15166.16165,999.1286082,9.24113E-4,658.9310275,415.3899394,0.0,0.0,0.0,0.0,0.0,0.0,0.252989856,149.7617762
8.0,0.0,0.149139096,255.9691802,28976.13995,1.09E-6,0.0,32.10967179,0.0,0.0,-0.033425676,0.0,0.0,0.0,-15358.15081,999.2373997,9.24977E-4,659.6901791,415.480405,0.0,0.0,0.0,0.0,0.0,0.0,0.256164575,151.6576183
8.1,0.0,0.152893396,259.1690073,28950.38304,1.13E-6,0.0,32.10975075,0.0,0.0,-0.033843524,0.0,0.0,0.0,-15550.14044,999.3475416,9.25851E-4,660.4591308,415.5720035,0.0,0.0,0.0,0.0,0.0,0.0,0.25933826,153.553465
8.2,0.0,0.156694369,262.3688423,28924.30615,1.17E-6,0.0,32.1098307,0.0,0.0,-0.034261374,0.0,0.0,0.0,-15742.13054,999.4590418,9.26736E-4,661.2379036,415.6647418,0.0,0.0,0.0,0.0,0.0,0.0,0.262510897,155.4493164
8.3,0.0,0.160542017,265.5686853,28897.90927,1.21E-6,0.0,32.10991163,0.0,0.0,-0.034679225,0.0,0.0,0.0,-15934.12112,999.5718914,9.27631E-4,662.0264971,415.7586131,0.0,0.0,0.0,0.0,0.0,0.0,0.265682475,157.3451726
8.4,0.0,0.16443634,268.7685364,28871.19241,1.26E-6,0.0,32.10999355,0.0,0.0,-0.035097076,0.0,0.0,0.0,-16126.11219,999.6860983,9.28538E-4,662.8249832,415.8536243,0.0,0.0,0.0,0.0,0.0,0.0,0.26885298,159.2410336
8.5,0.0,0.168377337,271.9683958,28844.15557,1.3E-6,0.0,32.11007644,0.0,0.0,-0.035514929,0.0,0.0,0.0,-16318.10375,999.8016621,9.29455E-4,663.633322,415.9497752,0.0,0.0,0.0,0.0,0.0,0.0,0.2720224,161.1368995
8.6,0.0,0.17236501,275.1682634,28816.79873,1.35E-6,0.0,32.11016032,0.0,0.0,-0.035932783,0.0,0.0,0.0,-16510.09581,999.9185823,9.30384E-4,664.4515242,416.047066,0.0,0.0,0.0,0.0,0.0,0.0,0.275190723,163.0327703
8.7,0.0,0.176399358,278.3681395,28789.12191,1.4E-6,0.0,32.11024518,0.0,0.0,-0.036350638,0.0,0.0,0.0,-16702.08837,1000.03685,9.31323E-4,665.2796404,416.1454898,0.0,0.0,0.0,0.0,0.0,0.0,0.278357938,164.9286462
8.8,0.0,0.180480382,281.568024,28761.12511,1.45E-6,0.0,32.11033103,0.0,0.0,-0.036768494,0.0,0.0,0.0,-16894.08144,1000.156482,9.32273E-4,666.1176529,416.2450603,0.0,0.0,0.0,0.0,0.0,0.0,0.281524029,166.8245271
8.9,0.0,0.184608083,284.7679172,28732.80831,1.5E-6,0.0,32.11041786,0.0,0.0,-0.037186351,0.0,0.0,0.0,-17086.07503,1000.277451,9.33234E-4,666.9655398,416.3457568,0.0,0.0,0.0,0.0,0.0,0.0,0.28468899,168.7204132
9.0,0.0,0.18878246,287.9678191,28704.17152,1.55E-6,0.0,32.11050567,0.0,0.0,-0.03760421,0.0,0.0,0.0,-17278.06914,1000.399784,9.34206E-4,667.8233962,416.4476001,0.0,0.0,0.0,0.0,0.0,0.0,0.287852802,170.6163044
9.1,0.0,0.193003513,291.1677297,28675.21474,1.6E-6,0.0,32.11059446,0.0,0.0,-0.038022069,0.0,0.0,0.0,-17470.06378,1000.523462,9.35188E-4,668.6911099,416.5505763,0.0,0.0,0.0,0.0,0.0,0.0,0.291015458,172.5122008
9.2,0.0,0.197271244,294.3676492,28645.93798,1.65E-6,0.0,32.11068423,0.0,0.0,-0.03843993,0.0,0.0,0.0,-17662.05895,1000.648494,9.36182E-4,669.568805,416.6546924,0.0,0.0,0.0,0.0,0.0,0.0,0.294176943,174.4081026
9.3,0.0,0.201585652,297.5675778,28616.34121,1.71E-6,0.0,32.11077499,0.0,0.0,-0.038857792,0.0,0.0,0.0,-17854.05467,1000.774879,9.37186E-4,670.456493,416.7599483,0.0,0.0,0.0,0.0,0.0,0.0,0.297337246,176.3040097
9.4,0.0,0.205946739,300.7675154,28586.42446,1.76E-6,0.0,32.11086673,0.0,0.0,-0.039275655,0.0,0.0,0.0,-18046.05092,1000.902616,9.38201E-4,671.3540843,416.866344,0.0,0.0,0.0,0.0,0.0,0.0,0.300496353,178.1999222
9.5,0.0,0.210354503,303.9674622,28556.18771,1.82E-6,0.0,32.11095945,0.0,0.0,-0.039693519,0.0,0.0,0.0,-18238.04773,1001.031696,9.39228E-4,672.2616813,416.9738727,0.0,0.0,0.0,0.0,0.0,0.0,0.303654256,180.0958402
9.6,0.0,0.214808945,307.1674182,28525.63097,1.88E-6,0.0,32.11105316,0.0,0.0,-0.040111384,0.0,0.0,0.0,-18430.04509,1001.162128,9.40265E-4,673.1793069,417.0825412,0.0,0.0,0.0,0.0,0.0,0.0,0.30681094,181.9917637
9.7,0.0,0.219310067,310.3673837,28494.75423,1.94E-6,0.0,32.11114785,0.0,0.0,-0.040529251,0.0,0.0,0.0,-18622.04302,1001.293911,9.41312E-4,674.1068719,417.1923495,0.0,0.0,0.0,0.0,0.0,0.0,0.309966392,183.8876928
9.8,0.0,0.223857868,313.5673586,28463.55749,2.0E-6,0.0,32.11124352,0.0,0.0,-0.040947119,0.0,0.0,0.0,-18814.04152,1001.427036,9.42371E-4,675.044479,417.3032909,0.0,0.0,0.0,0.0,0.0,0.0,0.313120604,185.7836275
9.9,0.0,0.228452348,316.7673431,28432.04076,2.06E-6,0.0,32.11134017,0.0,0.0,-0.041364988,0.0,0.0,0.0,-19006.04059,1001.561511,9.4344E-4,675.9921009,417.415372,0.0,0.0,0.0,0.0,0.0,0.0,0.316273561,187.679568
10.0,0.0,0.233093508,319.9673373,28400.20402,2.12E-6,0.0,32.11143781,0.0,0.0,-0.041782858,0.0,0.0,0.0,-19198.04024,1001.697335,9.44521E-4,676.9498008,417.528593,0.0,0.0,0.0,0.0,0.0,0.0,0.319425251,189.5755142
10.1,0.0,0.237781348,323.1673413,28368.04729,2.19E-6,0.0,32.11153643,0.0,0.0,-0.04220073,0.0,0.0,0.0,-19390.04048,1001.834508,9.45612E-4,677.91749,417.6429538,0.0,0.0,0.0,0.0,0.0,0.0,0.322575661,191.4714662
10.2,0.0,0.242515869,326.3673551,28335.57055,2.25E-6,0.0,32.11163603,0.0,0.0,-0.042618603,0.0,0.0,0.0,-19582.04131,1001.973021,9.46714E-4,678.8952717,417.7584476,0.0,0.0,0.0,0.0,0.0,0.0,0.325724784,193.3674241
10.3,0.0,0.24729707,329.5673789,28302.77382,2.32E-6,0.0,32.11173662,0.0,0.0,-0.043036477,0.0,0.0,0.0,-19774.04274,1002.112889,9.47827E-4,679.883181,417.875088,0.0,0.0,0.0,0.0,0.0,0.0,0.3288726,195.263388
10.4,0.0,0.252124953,332.7674128,28269.65708,2.39E-6,0.0,32.11183819,0.0,0.0,-0.043454353,0.0,0.0,0.0,-19966.04477,1002.254088,9.48951E-4,680.8810959,417.9928546,0.0,0.0,0.0,0.0,0.0,0.0,0.332019108,197.1593578
10.5,0.0,0.256999518,335.9674568,28236.22033,2.46E-6,0.0,32.11194074,0.0,0.0,-0.04387223,0.0,0.0,0.0,-20158.04741,1002.396642,9.50086E-4,681.8891647,418.1117679,0.0,0.0,0.0,0.0,0.0,0.0,0.335164286,199.0553337
10.6,0.0,0.261920765,339.1675111,28202.46359,2.53E-6,0.0,32.11204427,0.0,0.0,-0.044290108,0.0,0.0,0.0,-20350.05067,1002.540533,9.51231E-4,682.9073276,418.2318141,0.0,0.0,0.0,0.0,0.0,0.0,0.338308129,200.9513157
10.7,0.0,0.266888694,342.3675757,28168.38683,2.6E-6,0.0,32.11214879,0.0,0.0,-0.044707987,0.0,0.0,0.0,-20542.05454,1002.685778,9.52387E-4,683.9356712,418.353007,0.0,0.0,0.0,0.0,0.0,0.0,0.341450619,202.8473039
10.8,0.0,0.271903306,345.5676508,28133.99007,2.68E-6,0.0,32.11225429,0.0,0.0,-0.045125868,0.0,0.0,0.0,-20734.05905,1002.832351,9.53555E-4,684.9741245,418.4753261,0.0,0.0,0.0,0.0,0.0,0.0,0.344591753,204.7432983
10.9,0.0,0.276964601,348.7677365,28099.2733,2.75E-6,0.0,32.11236077,0.0,0.0,-0.045543751,0.0,0.0,0.0,-20926.06419,1002.980276,9.54733E-4,686.022735,418.5987918,0.0,0.0,0.0,0.0,0.0,0.0,0.34773151,206.639299
11.0,0.0,0.282072579,351.9678328,28064.23652,2.83E-6,0.0,32.11246824,0.0,0.0,-0.045961634,0.0,0.0,0.0,-21118.06997,1003.129537,9.55922E-4,687.0814939,418.7233905,0.0,0.0,0.0,0.0,0.0,0.0,0.350869885,208.535306
11.1,0.0,0.287227242,355.1679398,28028.87973,2.9E-6,0.0,32.11257669,0.0,0.0,-0.046379519,0.0,0.0,0.0,-21310.07639,1003.280141,9.57122E-4,688.1504774,418.849129,0.0,0.0,0.0,0.0,0.0,0.0,0.354006864,210.4313194
11.2,0.0,0.292428589,358.3680577,27993.20293,2.98E-6,0.0,32.11268612,0.0,0.0,-0.046797406,0.0,0.0,0.0,-21502.08346,1003.432087,9.58332E-4,689.2296486,418.9760074,0.0,0.0,0.0,0.0,0.0,0.0,0.357142433,212.3273393
11.3,0.0,0.297676621,361.5681866,27957.20612,3.06E-6,0.0,32.11279653,0.0,0.0,-0.047215294,0.0,0.0,0.0,-21694.09119,1003.585374,9.59554E-4,690.3190216,419.1040256,0.0,0.0,0.0,0.0,0.0,0.0,0.360276583,214.2233657
11.4,0.0,0.302971337,364.7683265,27920.8893,3.15E-6,0.0,32.11290793,0.0,0.0,-0.047633183,0.0,0.0,0.0,-21886.09959,1003.739995,9.60786E-4,691.4186505,419.2331767,0.0,0.0,0.0,0.0,0.0,0.0,0.363409303,216.1193987
11.5,0.0,0.30831274,367.9684775,27884.25246,3.23E-6,0.0,32.11302031,0.0,0.0,-0.048051074,0.0,0.0,0.0,-22078.10865,1003.895956,9.62034E-4,692.5317736,419.3634677,0.0,0.0,0.0,0.0,0.0,0.0,0.366540581,218.0154384
11.6,0.0,0.313700828,371.1686398,27847.2956,3.32E-6,0.0,32.11313368,0.0,0.0,-0.048468966,0.0,0.0,0.0,-22270.11839,1004.053257,9.63346E-4,693.6939107,419.4948985,0.0,0.0,0.0,0.0,0.0,0.0,0.369670403,219.9114847
11.7,0.0,0.319135602,374.3688134,27810.01873,3.4E-6,0.0,32.11324802,0.0,0.0,-0.04888686,0.0,0.0,0.0,-22462.1288,1004.211889,9.6467E-4,694.8667312,419.6274623,0.0,0.0,0.0,0.0,0.0,0.0,0.372798762,221.8075377
11.8,0.0,0.324617064,377.5689984,27772.42184,3.49E-6,0.0,32.11336335,0.0,0.0,-0.049304756,0.0,0.0,0.0,-22654.1399,1004.37186,9.66006E-4,696.0502108,419.7611659,0.0,0.0,0.0,0.0,0.0,0.0,0.375925644,223.7035976
11.9,0.0,0.330145212,380.769195,27734.50493,3.58E-6,0.0,32.11347967,0.0,0.0,-0.049722652,0.0,0.0,0.0,-22846.1517,1004.533168,9.67352E-4,697.2443653,419.8960094,0.0,0.0,0.0,0.0,0.0,0.0,0.379051036,225.5996644
12.0,0.0,0.335720049,383.9694032,27696.268,3.67E-6,0.0,32.11359696,0.0,0.0,-0.050140551,0.0,0.0,0.0,-23038.16419,1004.695814,9.6871E-4,698.4492614,420.0319926,0.0,0.0,0.0,0.0,0.0,0.0,0.382174928,227.495738
12.1,0.0,0.341341573,387.1696231,27657.71105,3.76E-6,0.0,32.11371524,0.0,0.0,-0.05055845,0.0,0.0,0.0,-23230.17739,1004.859788,9.70079E-4,699.6649036,420.1691089,0.0,0.0,0.0,0.0,0.0,0.0,0.38529731,229.3918187
12.2,0.0,0.347009786,390.3698548,27618.83407,3.86E-6,0.0,32.11383451,0.0,0.0,-0.050976352,0.0,0.0,0.0,-23422.19129,1005.025107,9.7146E-4,700.89128,420.3073718,0.0,0.0,0.0,0.0,0.0,0.0,0.388418166,231.2879064
12.3,0.0,0.352724687,393.5700985,27579.63707,3.95E-6,0.0,32.11395475,0.0,0.0,-0.051394255,0.0,0.0,0.0,-23614.20591,1005.191752,9.72852E-4,702.1283836,420.4467677,0.0,0.0,0.0,0.0,0.0,0.0,0.391537491,233.1840012
12.4,0.0,0.358486278,396.7703542,27540.12005,4.05E-6,0.0,32.11407598,0.0,0.0,-0.051812159,0.0,0.0,0.0,-23806.22125,1005.359724,9.74255E-4,703.3762819,420.5872966,0.0,0.0,0.0,0.0,0.0,0.0,0.394655273,235.0801031
12.5,0.0,0.364294559,399.970622,27500.283,4.15E-6,0.0,32.1141982,0.0,0.0,-0.052230065,0.0,0.0,0.0,-23998.23732,1005.529039,9.7567E-4,704.6349632,420.7289722,0.0,0.0,0.0,0.0,0.0,0.0,0.397771494,236.9762123
12.6,0.0,0.37014953,403.1709021,27460.12593,4.25E-6,0.0,32.11432139,0.0,0.0,-0.052647973,0.0,0.0,0.0,-24190.25412,1005.699678,9.77096E-4,705.9044211,420.8717807,0.0,0.0,0.0,0.0,0.0,0.0,0.40088615,238.8723288
12.7,0.0,0.376051192,406.3711944,27419.64882,4.35E-6,0.0,32.11444557,0.0,0.0,-0.053065882,0.0,0.0,0.0,-24382.27166,1005.87165,9.78534E-4,707.1847861,421.0157291,0.0,0.0,0.0,0.0,0.0,0.0,0.403999226,240.7684526
12.8,0.0,0.381999545,409.5714992,27378.85169,4.45E-6,0.0,32.11457073,0.0,0.0,-0.053483793,0.0,0.0,0.0,-24574.28995,1006.044954,9.79983E-4,708.4759217,421.1608173,0.0,0.0,0.0,0.0,0.0,0.0,0.407110712,242.6645837
12.9,0.0,0.387994589,412.7718164,27337.73452,4.56E-6,0.0,32.11469688,0.0,0.0,-0.053901706,0.0,0.0,0.0,-24766.30899,1006.219582,9.81443E-4,709.7779355,421.3070384,0.0,0.0,0.0,0.0,0.0,0.0,0.410220598,244.5607224
13.0,0.0,0.394036325,415.9721463,27296.29732,4.67E-6,0.0,32.11482401,0.0,0.0,-0.05431962,0.0,0.0,0.0,-24958.32878,1006.39554,9.82915E-4,711.090805,421.4543994,0.0,0.0,0.0,0.0,0.0,0.0,0.413328872,246.4568685
13.1,0.0,0.400124754,419.1724889,27254.54009,4.78E-6,0.0,32.11495212,0.0,0.0,-0.054737536,0.0,0.0,0.0,-25150.34933,1006.572827,9.84398E-4,712.4145987,421.6029002,0.0,0.0,0.0,0.0,0.0,0.0,0.416435521,248.3530222
13.2,0.0,0.406259876,422.3728443,27212.46283,4.89E-6,0.0,32.11508122,0.0,0.0,-0.055155453,0.0,0.0,0.0,-25342.37066,1006.751444,9.85892E-4,713.7493341,421.7525409,0.0,0.0,0.0,0.0,0.0,0.0,0.419540535,250.2491835
13.3,0.0,0.412441692,425.5732125,27170.06552,5.0E-6,0.0,32.1152113,0.0,0.0,-0.055573372,0.0,0.0,0.0,-25534.39275,1006.931381,9.87398E-4,715.0949145,421.9033145,0.0,0.0,0.0,0.0,0.0,0.0,0.422643906,252.1453526
13.4,0.0,0.418670201,428.7735938,27127.34818,5.11E-6,0.0,32.11534236,0.0,0.0,-0.055991293,0.0,0.0,0.0,-25726.41563,1007.112647,9.88915E-4,716.4514716,422.055228,0.0,0.0,0.0,0.0,0.0,0.0,0.42574562,254.0415293
13.5,0.0,0.424945404,431.9739882,27084.3108,5.23E-6,0.0,32.11547441,0.0,0.0,-0.056409216,0.0,0.0,0.0,-25918.43929,1007.295239,9.90443E-4,717.8190234,422.2082813,0.0,0.0,0.0,0.0,0.0,0.0,0.428845666,255.9377139
13.6,0.0,0.431267303,435.1743958,27040.95339,5.34E-6,0.0,32.11560744,0.0,0.0,-0.05682714,0.0,0.0,0.0,-26110.46375,1007.479157,9.91983E-4,719.1975365,422.3624744,0.0,0.0,0.0,0.0,0.0,0.0,0.431944032,257.8339063
13.7,0.0,0.437635897,438.3748166,26997.27592,5.46E-6,0.0,32.11574145,0.0,0.0,-0.057245066,0.0,0.0,0.0,-26302.489,1007.664401,9.93534E-4,720.5870801,422.5178073,0.0,0.0,0.0,0.0,0.0,0.0,0.435040709,259.7301066
13.8,0.0,0.444051186,441.5752509,26953.27842,5.58E-6,0.0,32.11587645,0.0,0.0,-0.057662994,0.0,0.0,0.0,-26494.51505,1007.850962,9.95097E-4,721.9876095,422.6742732,0.0,0.0,0.0,0.0,0.0,0.0,0.438135688,261.6263149
13.9,0.0,0.450513172,444.7756986,26908.96087,5.71E-6,0.0,32.11601243,0.0,0.0,-0.058080923,0.0,0.0,0.0,-26686.54192,1008.038847,9.9667E-4,723.3991547,422.831879,0.0,0.0,0.0,0.0,0.0,0.0,0.441228955,263.5225313
14.0,0.0,0.457021855,447.97616,26864.32328,5.83E-6,0.0,32.11614939,0.0,0.0,-0.058498855,0.0,0.0,0.0,-26878.5696,1008.228055,9.98256E-4,724.8217854,422.9906245,0.0,0.0,0.0,0.0,0.0,0.0,0.444320499,265.4187557
14.1,0.0,0.463577235,451.176635,26819.36564,5.96E-6,0.0,32.11628734,0.0,0.0,-0.058916788,0.0,0.0,0.0,-27070.5981,1008.418578,9.99852E-4,726.2554572,423.1505031,0.0,0.0,0.0,0.0,0.0,0.0,0.447410314,267.3149883
14.2,0.0,0.470179313,454.3771238,26774.08795,6.08E-6,0.0,32.11642627,0.0,0.0,-0.059334723,0.0,0.0,0.0,-27262.62743,1008.610423,0.00100146,727.7002519,423.3115215,0.0,0.0,0.0,0.0,0.0,0.0,0.450498385,269.2112291
14.3,0.0,0.476828089,457.5776265,26728.49022,6.21E-6,0.0,32.11656619,0.0,0.0,-0.05975266,0.0,0.0,0.0,-27454.65759,1008.803589,0.00100308,729.1561884,423.4736797,0.0,0.0,0.0,0.0,0.0,0.0,0.453584702,271.1074781
14.4,0.0,0.483523565,460.7781431,26682.57243,6.34E-6,0.0,32.11670708,0.0,0.0,-0.060170598,0.0,0.0,0.0,-27646.68859,1008.998076,0.00100471,730.6231827,423.6369777,0.0,0.0,0.0,0.0,0.0,0.0,0.456669252,273.0037355
14.5,0.0,0.490265739,463.9786739,26636.33459,6.48E-6,0.0,32.11684897,0.0,0.0,-0.060588538,0.0,0.0,0.0,-27838.72043,1009.193882,0.001006352,732.101357,423.8014156,0.0,0.0,0.0,0.0,0.0,0.0,0.459752027,274.9000013
14.6,0.0,0.497054613,467.1792188,26589.77669,6.61E-6,0.0,32.11699183,0.0,0.0,-0.061006481,0.0,0.0,0.0,-28030.75313,1009.390999,0.001008006,733.5907186,423.9669864,0.0,0.0,0.0,0.0,0.0,0.0,0.462833019,276.7962755
14.7,0.0,0.503890188,470.3797779,26542.89874,6.75E-6,0.0,32.11713568,0.0,0.0,-0.061424425,0.0,0.0,0.0,-28222.78668,1009.589433,0.001009671,735.0912473,424.1336971,0.0,0.0,0.0,0.0,0.0,0.0,0.465912214,278.6925582
14.8,0.0,0.510772463,473.5803515,26495.70074,6.89E-6,0.0,32.11728052,0.0,0.0,-0.061842371,0.0,0.0,0.0,-28414.82109,1009.789186,0.001011347,736.6030141,424.3015475,0.0,0.0,0.0,0.0,0.0,0.0,0.468989601,280.5888494
14.9,0.0,0.51770144,476.7809395,26448.18267,7.03E-6,0.0,32.11742633,0.0,0.0,-0.062260319,0.0,0.0,0.0,-28606.85637,1009.990254,0.001013035,738.1259871,424.4705379,0.0,0.0,0.0,0.0,0.0,0.0,0.472065169,282.4851493
15.0,0.0,0.524677119,479.9815421,26400.34455,7.17E-6,0.0,32.11757314,0.0,0.0,-0.062678268,0.0,0.0,0.0,-28798.89252,1010.192631,0.001014733,739.6601742,424.6406612,0.0,0.0,0.0,0.0,0.0,0.0,0.475138913,284.3814579
15.1,0.0,0.531699501,483.1821593,26352.18636,7.32E-6,0.0,32.11772092,0.0,0.0,-0.06309622,0.0,0.0,0.0,-28990.92956,1010.396322,0.001016444,741.2056587,424.8119243,0.0,0.0,0.0,0.0,0.0,0.0,0.478210818,286.2777752
15.2,0.0,0.538768585,486.3827913,26303.70812,7.46E-6,0.0,32.11786969,0.0,0.0,-0.063514174,0.0,0.0,0.0,-29182.96748,1010.601328,0.001018165,742.7624609,424.9843272,0.0,0.0,0.0,0.0,0.0,0.0,0.481280873,288.1741012
15.3,0.0,0.545884373,489.5834381,26254.9098,7.61E-6,0.0,32.11801944,0.0,0.0,-0.063932129,0.0,0.0,0.0,-29375.00629,1010.807647,0.001019898,744.3304976,425.15787,0.0,0.0,0.0,0.0,0.0,0.0,0.484349069,290.0704362
15.4,0.0,0.553046865,492.7841,26205.79143,7.76E-6,0.0,32.11817018,0.0,0.0,-0.064350087,0.0,0.0,0.0,-29567.046,1011.015327,0.00102171,745.9589423,425.3325938,0.0,0.0,0.0,0.0,0.0,0.0,0.48741537,291.96678
15.5,0.0,0.560256062,495.9847768,26156.35298,7.91E-6,0.0,32.1183219,0.0,0.0,-0.064768046,0.0,0.0,0.0,-29759.08661,1011.224328,0.001023546,747.6089078,425.5084644,0.0,0.0,0.0,0.0,0.0,0.0,0.490479787,293.8631328
15.6,0.0,0.567511964,499.1854688,26106.59447,8.07E-6,0.0,32.1184746,0.0,0.0,-0.065186007,0.0,0.0,0.0,-29951.12813,1011.434639,0.001025395,749.2707362,425.6854747,0.0,0.0,0.0,0.0,0.0,0.0,0.493542313,295.7594946
15.7,0.0,0.574814571,502.3861761,26056.51589,8.22E-6,0.0,32.11862829,0.0,0.0,-0.065603971,0.0,0.0,0.0,-30143.17057,1011.646261,0.001027256,750.9443457,425.8636249,0.0,0.0,0.0,0.0,0.0,0.0,0.496602938,297.6558655
15.8,0.0,0.582163885,505.5868987,26006.11724,8.38E-6,0.0,32.11878297,0.0,0.0,-0.066021936,0.0,0.0,0.0,-30335.21392,1011.859183,0.001029128,752.6297978,426.042908,0.0,0.0,0.0,0.0,0.0,0.0,0.499661655,299.5522456
15.9,0.0,0.589559906,508.7876368,25955.39851,8.54E-6,0.0,32.11893862,0.0,0.0,-0.066439904,0.0,0.0,0.0,-30527.25821,1012.073423,0.001031012,754.3271387,426.2233379,0.0,0.0,0.0,0.0,0.0,0.0,0.502718446,301.4486348
16.0,0.0,0.597002634,511.9883904,25904.35971,8.7E-6,0.0,32.11909526,0.0,0.0,-0.066857873,0.0,0.0,0.0,-30719.30342,1012.288962,0.001032908,756.0363662,426.4049007,0.0,0.0,0.0,0.0,0.0,0.0,0.50577331,303.3450333
16.1,0.0,0.604492071,515.1891596,25853.00083,8.87E-6,0.0,32.11925289,0.0,0.0,-0.067275845,0.0,0.0,0.0,-30911.34958,1012.505807,0.001034816,757.7574629,426.5876033,0.0,0.0,0.0,0.0,0.0,0.0,0.508826232,305.2414411
16.2,0.0,0.612028216,518.3899446,25801.32188,9.03E-6,0.0,32.1194115,0.0,0.0,-0.067693818,0.0,0.0,0.0,-31103.39668,1012.723959,0.001036736,759.4905548,426.7714458,0.0,0.0,0.0,0.0,0.0,0.0,0.511877202,307.1378583
16.3,0.0,0.61961107,521.5907454,25749.32284,9.2E-6,0.0,32.11957109,0.0,0.0,-0.068111794,0.0,0.0,0.0,-31295.44473,1012.943415,0.001038668,761.2355608,426.9564281,0.0,0.0,0.0,0.0,0.0,0.0,0.51492621,309.034285
16.4,0.0,0.627240633,524.7915622,25697.00373,9.37E-6,0.0,32.11973167,0.0,0.0,-0.068529771,0.0,0.0,0.0,-31487.49373,1013.164168,0.001040612,762.992595,427.1425433,0.0,0.0,0.0,0.0,0.0,0.0,0.51797325,310.9307211
16.5,0.0,0.634916907,527.992395,25644.36453,9.55E-6,0.0,32.11989323,0.0,0.0,-0.068947751,0.0,0.0,0.0,-31679.5437,1013.386233,0.001042567,764.7616009,427.3298053,0.0,0.0,0.0,0.0,0.0,0.0,0.521018304,312.8271667
16.6,0.0,0.642639893,531.1932439,25591.40525,9.72E-6,0.0,32.12005578,0.0,0.0,-0.069365733,0.0,0.0,0.0,-31871.59463,1013.609592,0.001044535,766.5426289,427.5182002,0.0,0.0,0.0,0.0,0.0,0.0,0.524061371,314.723622
16.7,0.0,0.650409589,534.3941091,25538.12588,9.9E-6,0.0,32.12021931,0.0,0.0,-0.069783717,0.0,0.0,0.0,-32063.64654,1013.834252,0.001046514,768.3357142,427.707735,0.0,0.0,0.0,0.0,0.0,0.0,0.527102437,316.6200869
16.8,0.0,0.658225998,537.5949905,25484.52642,1.01E-5,0.0,32.12038382,0.0,0.0,-0.070201703,0.0,0.0,0.0,-32255.69943,1014.060214,0.001048506,770.1408802,427.8984096,0.0,0.0,0.0,0.0,0.0,0.0,0.530141491,318.5165616
16.9,0.0,0.666089119,540.7958884,25430.60688,1.03E-5,0.0,32.12054932,0.0,0.0,-0.070619692,0.0,0.0,0.0,-32447.75331,1014.287467,0.001050509,771.9580858,428.0902171,0.0,0.0,0.0,0.0,0.0,0.0,0.533178528,320.413046
17.0,0.0,0.673998953,543.9968029,25376.36725,1.04E-5,0.0,32.1207158,0.0,0.0,-0.071037682,0.0,0.0,0.0,-32639.80817,1014.516027,0.001052524,773.7874832,428.2831714,0.0,0.0,0.0,0.0,0.0,0.0,0.53621353,322.3095403
17.1,0.0,0.681955502,547.1977339,25321.80752,1.06E-5,0.0,32.12088327,0.0,0.0,-0.071455675,0.0,0.0,0.0,-32831.86403,1014.745878,0.001054551,775.6289673,428.4772586,0.0,0.0,0.0,0.0,0.0,0.0,0.539246496,324.2060445
17.2,0.0,0.689958765,550.3986817,25266.9277,1.08E-5,0.0,32.12105172,0.0,0.0,-0.071873669,0.0,0.0,0.0,-33023.9209,1014.977034,0.00105659,777.4826387,428.6724925,0.0,0.0,0.0,0.0,0.0,0.0,0.542277407,326.1025587
17.3,0.0,0.698008743,553.5996463,25211.72778,1.1E-5,0.0,32.12122116,0.0,0.0,-0.072291666,0.0,0.0,0.0,-33215.97878,1015.209478,0.001058641,779.3485487,428.8688594,0.0,0.0,0.0,0.0,0.0,0.0,0.545306262,327.9990828
17.4,0.0,0.706105437,556.8006277,25156.20777,1.12E-5,0.0,32.12139158,0.0,0.0,-0.072709666,0.0,0.0,0.0,-33408.03766,1015.44321,0.001060703,781.2266169,429.0663593,0.0,0.0,0.0,0.0,0.0,0.0,0.548333053,329.895617
17.5,0.0,0.714248847,560.0016263,25100.36766,1.14E-5,0.0,32.12156299,0.0,0.0,-0.073127667,0.0,0.0,0.0,-33600.09758,1015.678245,0.001062778,783.1169446,429.2650058,0.0,0.0,0.0,0.0,0.0,0.0,0.55135776,331.7921614
17.6,0.0,0.722438974,563.2026419,25044.20744,1.16E-5,0.0,32.12173538,0.0,0.0,-0.073545671,0.0,0.0,0.0,-33792.15851,1015.914573,0.001064864,785.0194916,429.4647922,0.0,0.0,0.0,0.0,0.0,0.0,0.554380378,333.688716
17.7,0.0,0.730675819,566.4036747,24987.72713,1.18E-5,0.0,32.12190875,0.0,0.0,-0.073963676,0.0,0.0,0.0,-33984.22048,1016.152187,0.001066962,786.9343741,429.6657115,0.0,0.0,0.0,0.0,0.0,0.0,0.557400903,335.5852808
17.8,0.0,0.738959382,569.6047248,24930.92671,1.2E-5,0.0,32.12208311,0.0,0.0,-0.074381685,0.0,0.0,0.0,-34176.28349,1016.391092,0.001069073,788.8615771,429.8677707,0.0,0.0,0.0,0.0,0.0,0.0,0.56041932,337.4818559
17.9,0.0,0.747289664,572.8057924,24873.80618,1.22E-5,0.0,32.12225845,0.0,0.0,-0.074799695,0.0,0.0,0.0,-34368.34754,1016.631288,0.001071195,790.8010731,430.0709697,0.0,0.0,0.0,0.0,0.0,0.0,0.56343562,339.3784413
18.0,0.0,0.755666665,576.0068774,24816.36555,1.24E-5,0.0,32.12243478,0.0,0.0,-0.075217708,0.0,0.0,0.0,-34560.41264,1016.872774,0.001073329,792.7529392,430.2753085,0.0,0.0,0.0,0.0,0.0,0.0,0.566449793,341.2750372
18.1,0.0,0.764090386,579.20798,24758.60481,1.26E-5,0.0,32.12261209,0.0,0.0,-0.075635723,0.0,0.0,0.0,-34752.4788,1017.11555,0.001075475,794.7172528,430.4807872,0.0,0.0,0.0,0.0,0.0,0.0,0.569461832,343.1716436
18.2,0.0,0.772560829,582.4091004,24700.52395,1.28E-5,0.0,32.12279039,0.0,0.0,-0.07605374,0.0,0.0,0.0,-34944.54602,1017.359614,0.001077632,796.6939346,430.6874057,0.0,0.0,0.0,0.0,0.0,0.0,0.572471725,345.0682605
18.3,0.0,0.781077992,585.6102385,24642.12299,1.3E-5,0.0,32.12296967,0.0,0.0,-0.07647176,0.0,0.0,0.0,-35136.61431,1017.604957,0.001079802,798.6830492,430.8951572,0.0,0.0,0.0,0.0,0.0,0.0,0.575479468,346.964888
18.4,0.0,0.789641878,588.8113945,24583.4019,1.32E-5,0.0,32.12314994,0.0,0.0,-0.076889782,0.0,0.0,0.0,-35328.68367,1017.851619,0.001082022,800.7131504,431.1040759,0.0,0.0,0.0,0.0,0.0,0.0,0.578485029,348.8615262
18.5,0.0,0.798252486,592.0125685,24524.36071,1.35E-5,0.0,32.12333119,0.0,0.0,-0.077307806,0.0,0.0,0.0,-35520.75411,1018.099616,0.001084315,802.8008517,431.3141757,0.0,0.0,0.0,0.0,0.0,0.0,0.58148839,350.7581751
18.6,0.0,0.806909818,595.2137606,24464.99939,1.37E-5,0.0,32.12351343,0.0,0.0,-0.077725833,0.0,0.0,0.0,-35712.82564,1018.348888,0.00108662,804.9015026,431.5254085,0.0,0.0,0.0,0.0,0.0,0.0,0.584489574,352.6548348
18.7,0.0,0.815613874,598.4149709,24405.31795,1.39E-5,0.0,32.12369665,0.0,0.0,-0.078143862,0.0,0.0,0.0,-35904.89826,1018.599453,0.001088937,807.0151555,431.7377879,0.0,0.0,0.0,0.0,0.0,0.0,0.587488561,354.5515053
18.8,0.0,0.824364655,601.6161995,24345.31639,1.41E-5,0.0,32.12388086,0.0,0.0,-0.078561893,0.0,0.0,0.0,-36096.97197,1018.851292,0.001091267,809.1419172,431.9513004,0.0,0.0,0.0,0.0,0.0,0.0,0.590485353,356.4481867
18.9,0.0,0.833162161,604.8174465,24284.99471,1.43E-5,0.0,32.12406605,0.0,0.0,-0.078979927,0.0,0.0,0.0,-36289.04679,1019.104412,0.00109361,811.2816702,432.1659526,0.0,0.0,0.0,0.0,0.0,0.0,0.593479935,358.344879
19.0,0.0,0.842006393,608.0187119,24224.3529,1.46E-5,0.0,32.12425223,0.0,0.0,-0.079397963,0.0,0.0,0.0,-36481.12272,1019.358813,0.001095965,813.4345471,432.3817447,0.0,0.0,0.0,0.0,0.0,0.0,0.596472299,360.2415823
19.1,0.0,0.850897352,611.2199959,24163.39097,1.48E-5,0.0,32.12443939,0.0,0.0,-0.079816002,0.0,0.0,0.0,-36673.19976,1019.614495,0.001098332,815.6005754,432.5986766,0.0,0.0,0.0,0.0,0.0,0.0,0.599462435,362.1382967
19.2,0.0,0.859835038,614.4212986,24102.10891,1.5E-5,0.0,32.12462753,0.0,0.0,-0.080234043,0.0,0.0,0.0,-36865.27792,1019.871455,0.001100712,817.7797305,432.8167484,0.0,0.0,0.0,0.0,0.0,0.0,0.602450336,364.0350223
19.3,0.0,0.868819452,617.6226201,24040.50671,1.53E-5,0.0,32.12481666,0.0,0.0,-0.080652086,0.0,0.0,0.0,-37057.35721,1020.129692,0.001103104,819.9720929,433.0359599,0.0,0.0,0.0,0.0,0.0,0.0,0.605435991,365.931759
19.4,0.0,0.877850595,620.8239605,23978.58438,1.55E-5,0.0,32.12500678,0.0,0.0,-0.081070132,0.0,0.0,0.0,-37249.43763,1020.389199,0.001105508,822.1776249,433.2563045,0.0,0.0,0.0,0.0,0.0,0.0,0.608419397,367.828507
19.5,0.0,0.886928468,624.0253198,23916.34192,1.58E-5,0.0,32.12519788,0.0,0.0,-0.081488181,0.0,0.0,0.0,-37441.51919,1020.64999,0.001107925,824.3963808,433.4777957,0.0,0.0,0.0,0.0,0.0,0.0,0.611400535,369.7252662
19.6,0.0,0.896053071,627.2266982,23853.77932,1.6E-5,0.0,32.12538997,0.0,0.0,-0.081906232,0.0,0.0,0.0,-37633.60189,1020.912055,0.001110355,826.6284287,433.7004268,0.0,0.0,0.0,0.0,0.0,0.0,0.614379402,371.6220368
19.7,0.0,0.905224404,630.4280957,23790.89658,1.62E-5,0.0,32.12558304,0.0,0.0,-0.082324285,0.0,0.0,0.0,-37825.68574,1021.175387,0.001112797,828.8737839,433.9241908,0.0,0.0,0.0,0.0,0.0,0.0,0.617355994,373.5188188
19.8,0.0,0.91444247,633.6295126,23727.6937,1.65E-5,0.0,32.1257771,0.0,0.0,-0.082742341,0.0,0.0,0.0,-38017.77075,1021.439995,0.001115251,831.1324421,434.1490981,0.0,0.0,0.0,0.0,0.0,0.0,0.620330294,375.4156124
19.9,0.0,0.923707267,636.8309488,23664.17067,1.67E-5,0.0,32.12597214,0.0,0.0,-0.0831604,0.0,0.0,0.0,-38209.85693,1021.705872,0.001117718,833.4044716,434.3751418,0.0,0.0,0.0,0.0,0.0,0.0,0.623302299,377.3124174
20.0,0.0,0.933018798,640.0324044,23600.32751,1.7E-5,0.0,32.12616817,0.0,0.0,-0.083578461,0.0,0.0,0.0,-38401.94426,1021.973019,0.001120197,835.6898552,434.6023254,0.0,0.0,0.0,0.0,0.0,0.0,0.626271998,379.209234
20.1,0.0,0.942377062,643.2338796,23536.16419,1.73E-5,0.0,32.12636518,0.0,0.0,-0.083996525,0.0,0.0,0.0,-38594.03278,1022.241441,0.001122688,837.9886285,434.8306522,0.0,0.0,0.0,0.0,0.0,0.0,0.62923938,381.1060623
20.2,0.0,0.95178206,646.4353745,23471.68073,1.75E-5,0.0,32.12656318,0.0,0.0,-0.084414591,0.0,0.0,0.0,-38786.12247,1022.511127,0.001125193,840.3008605,435.0601154,0.0,0.0,0.0,0.0,0.0,0.0,0.632204441,383.0029023
20.3,0.0,0.961233794,649.6368891,23406.87712,1.78E-5,0.0,32.12676216,0.0,0.0,-0.08483266,0.0,0.0,0.0,-38978.21335,1022.782078,0.001127709,842.6265805,435.290715,0.0,0.0,0.0,0.0,0.0,0.0,0.635167172,384.899754
20.4,0.0,0.970732264,652.8384236,23341.75335,1.8E-5,0.0,32.12696213,0.0,0.0,-0.085250731,0.0,0.0,0.0,-39170.30542,1023.054299,0.001130238,844.9657784,435.5224578,0.0,0.0,0.0,0.0,0.0,0.0,0.638127562,386.7966176
20.5,0.0,0.98027747,656.039978,23276.30943,1.83E-5,0.0,32.12716308,0.0,0.0,-0.085668805,0.0,0.0,0.0,-39362.39868,1023.327782,0.001132779,847.3185235,435.7553371,0.0,0.0,0.0,0.0,0.0,0.0,0.641085605,388.6934931
20.6,0.0,0.989869413,659.2415525,23210.54535,1.86E-5,0.0,32.12736502,0.0,0.0,-0.086086881,0.0,0.0,0.0,-39554.49315,1023.602535,0.001135333,849.6848061,435.9893596,0.0,0.0,0.0,0.0,0.0,0.0,0.644041289,390.5903804
20.7,0.0,0.999508095,662.4431471,23144.46112,1.89E-5,0.0,32.12756795,0.0,0.0,-0.086504961,0.0,0.0,0.0,-39746.58883,1023.878547,0.001137899,852.0646426,436.2245185,0.0,0.0,0.0,0.0,0.0,0.0,0.64699461,392.4872798
20.8,0.0,1.009193515,665.644762,23078.05672,1.91E-5,0.0,32.12777186,0.0,0.0,-0.086923042,0.0,0.0,0.0,-39938.68572,1024.155822,0.001140478,854.4581229,436.4608173,0.0,0.0,0.0,0.0,0.0,0.0,0.649945558,394.3841913
20.9,0.0,1.018925675,668.8463972,23011.33217,1.94E-5,0.0,32.12797676,0.0,0.0,-0.087341127,0.0,0.0,0.0,-40130.78383,1024.434359,0.001143069,856.8652774,436.6982558,0.0,0.0,0.0,0.0,0.0,0.0,0.652894124,396.2811149
21.0,0.0,1.028704575,672.0480529,22944.28744,1.97E-5,0.0,32.12818264,0.0,0.0,-0.087759214,0.0,0.0,0.0,-40322.88317,1024.714153,0.00114571,859.3140228,436.9368308,0.0,0.0,0.0,0.0,0.0,0.0,0.655840303,398.1780506
21.1,0.0,1.038530216,675.2497291,22876.92256,2.0E-5,0.0,32.12838951,0.0,0.0,-0.088177304,0.0,0.0,0.0,-40514.98374,1024.995211,0.001148442,861.8357067,437.1765491,0.0,0.0,0.0,0.0,0.0,0.0,0.658784081,400.0749986
21.2,0.0,1.048402599,678.4514259,22809.2375,2.03E-5,0.0,32.12859736,0.0,0.0,-0.088595397,0.0,0.0,0.0,-40707.08555,1025.277523,0.001151187,864.3716712,437.4174037,0.0,0.0,0.0,0.0,0.0,0.0,0.661725455,401.9719589
21.3,0.0,1.058321724,681.6531435,22741.23227,2.05E-5,0.0,32.1288062,0.0,0.0,-0.089013492,0.0,0.0,0.0,-40899.18861,1025.561094,0.001153945,866.9219022,437.6593982,0.0,0.0,0.0,0.0,0.0,0.0,0.664664416,403.8689315
21.4,0.0,1.068287592,684.8548819,22672.90687,2.08E-5,0.0,32.12901602,0.0,0.0,-0.08943159,0.0,0.0,0.0,-41091.29291,1025.845921,0.001156716,869.4864319,437.9025325,0.0,0.0,0.0,0.0,0.0,0.0,0.667600954,405.7659165
21.5,0.0,1.078300205,688.0566412,22604.26129,2.11E-5,0.0,32.12922683,0.0,0.0,-0.08984969,0.0,0.0,0.0,-41283.39847,1026.132004,0.0011595,872.0653463,438.1468066,0.0,0.0,0.0,0.0,0.0,0.0,0.670535062,407.662914
21.6,0.0,1.088359563,691.2584216,22535.29554,2.14E-5,0.0,32.12943863,0.0,0.0,-0.090267794,0.0,0.0,0.0,-41475.5053,1026.419341,0.001162297,874.6586247,438.3922206,0.0,0.0,0.0,0.0,0.0,0.0,0.673466731,409.559924
21.7,0.0,1.098465666,694.4602231,22466.00961,2.17E-5,0.0,32.12965141,0.0,0.0,-0.0906859,0.0,0.0,0.0,-41667.61338,1026.707932,0.001165107,877.2662999,438.6387744,0.0,0.0,0.0,0.0,0.0,0.0,0.676395955,411.4569466
21.8,0.0,1.108618515,697.6620458,22396.40349,2.2E-5,0.0,32.12986518,0.0,0.0,-0.091104009,0.0,0.0,0.0,-41859.72275,1026.997771,0.00116793,879.888398,438.8864646,0.0,0.0,0.0,0.0,0.0,0.0,0.679322727,413.3539819
21.9,0.0,1.118818111,700.8638899,22326.4772,2.23E-5,0.0,32.13007993,0.0,0.0,-0.091522121,0.0,0.0,0.0,-42051.83339,1027.288866,0.001170766,882.5250192,439.1352981,0.0,0.0,0.0,0.0,0.0,0.0,0.682247035,415.2510298
22.0,0.0,1.129064456,704.0657553,22256.23072,2.26E-5,0.0,32.13029567,0.0,0.0,-0.091940235,0.0,0.0,0.0,-42243.94532,1027.581207,0.001173615,885.1761296,439.3852679,0.0,0.0,0.0,0.0,0.0,0.0,0.685168876,417.1480905
22.1,0.0,1.139357549,707.2676423,22185.66405,2.29E-5,0.0,32.1305124,0.0,0.0,-0.092358353,0.0,0.0,0.0,-42436.05854,1027.874798,0.001176477,887.8418231,439.6363776,0.0,0.0,0.0,0.0,0.0,0.0,0.688088239,419.0451641
22.2,0.0,1.149697392,710.4695509,22114.77719,2.33E-5,0.0,32.13073011,0.0,0.0,-0.092776473,0.0,0.0,0.0,-42628.17306,1028.169637,0.001179351,890.5220264,439.8886272,0.0,0.0,0.0,0.0,0.0,0.0,0.691005118,420.9422505
22.3,0.0,1.160083984,713.6714813,22043.57013,2.36E-5,0.0,32.13094881,0.0,0.0,-0.093194596,0.0,0.0,0.0,-42820.28888,1028.465723,0.001182239,893.2169334,440.1420165,0.0,0.0,0.0,0.0,0.0,0.0,0.693919504,422.8393498
22.4,0.0,1.170517328,716.8734334,21972.04289,2.39E-5,0.0,32.13116849,0.0,0.0,-0.093612722,0.0,0.0,0.0,-43012.406,1028.763051,0.00118514,895.9264108,440.3965423,0.0,0.0,0.0,0.0,0.0,0.0,0.696831392,424.7364621
22.5,0.0,1.180997424,720.0754074,21900.19545,2.42E-5,0.0,32.13138916,0.0,0.0,-0.09403085,0.0,0.0,0.0,-43204.52445,1029.061628,0.001188054,898.6506135,440.6522113,0.0,0.0,0.0,0.0,0.0,0.0,0.69974077,426.6335875
22.6,0.0,1.191524272,723.2774035,21828.02781,2.45E-5,0.0,32.13161082,0.0,0.0,-0.094448982,0.0,0.0,0.0,-43396.64421,1029.361445,0.001190981,901.3894546,440.9090167,0.0,0.0,0.0,0.0,0.0,0.0,0.702647635,428.530726
22.7,0.0,1.202097874,726.4794217,21755.53997,2.49E-5,0.0,32.13183346,0.0,0.0,-0.094867117,0.0,0.0,0.0,-43588.7653,1029.662509,0.001193921,904.1431433,441.1669654,0.0,0.0,0.0,0.0,0.0,0.0,0.705551974,430.4278776
22.8,0.0,1.21271823,729.6814621,21682.73192,2.52E-5,0.0,32.13205709,0.0,0.0,-0.095285254,0.0,0.0,0.0,-43780.88772,1029.964811,0.001196874,906.9115391,441.4260505,0.0,0.0,0.0,0.0,0.0,0.0,0.708453786,432.3250425
22.9,0.0,1.223385342,732.8835248,21609.60367,2.55E-5,0.0,32.13228171,0.0,0.0,-0.095703394,0.0,0.0,0.0,-43973.01149,1030.268353,0.001199839,909.6947911,441.6862754,0.0,0.0,0.0,0.0,0.0,0.0,0.71135306,434.2222207
23.0,0.0,1.234099209,736.0856099,21536.15522,2.59E-5,0.0,32.13250731,0.0,0.0,-0.096121537,0.0,0.0,0.0,-44165.13659,1030.573135,0.001202818,912.492934,441.9476402,0.0,0.0,0.0,0.0,0.0,0.0,0.714249789,436.1194122
23.1,0.0,1.244859833,739.2877174,21462.38655,2.62E-5,0.0,32.1327339,0.0,0.0,-0.096539684,0.0,0.0,0.0,-44357.26305,1030.879155,0.00120581,915.306003,442.2101447,0.0,0.0,0.0,0.0,0.0,0.0,0.717143966,438.0166171
23.2,0.0,1.255667214,742.4898476,21388.29767,2.65E-5,0.0,32.13296147,0.0,0.0,-0.096957833,0.0,0.0,0.0,-44549.39086,1031.186413,0.001208815,918.1339255,442.4737891,0.0,0.0,0.0,0.0,0.0,0.0,0.720035582,439.9138355
23.3,0.0,1.266521354,745.6920005,21313.88858,2.69E-5,0.0,32.13319003,0.0,0.0,-0.097375985,0.0,0.0,0.0,-44741.52003,1031.494919,0.001211853,920.9925858,442.7385837,0.0,0.0,0.0,0.0,0.0,0.0,0.722924623,441.8110674
23.4,0.0,1.277422253,748.8941762,21239.15927,2.72E-5,0.0,32.13341958,0.0,0.0,-0.09779414,0.0,0.0,0.0,-44933.65057,1031.804744,0.001215018,923.9527433,443.0045901,0.0,0.0,0.0,0.0,0.0,0.0,0.725811031,443.7083128
23.5,0.0,1.288369912,752.0963748,21164.10974,2.76E-5,0.0,32.13365011,0.0,0.0,-0.098212298,0.0,0.0,0.0,-45125.78249,1032.1158,0.001218197,926.9285164,443.271733,0.0,0.0,0.0,0.0,0.0,0.0,0.72869486,445.6055719
23.6,0.0,1.299364332,755.2985964,21088.74,2.79E-5,0.0,32.13388163,0.0,0.0,-0.098630459,0.0,0.0,0.0,-45317.91578,1032.428092,0.001221389,929.9198487,443.5400191,0.0,0.0,0.0,0.0,0.0,0.0,0.731576097,447.5028447
23.7,0.0,1.310405513,758.500841,21013.05002,2.83E-5,0.0,32.13411414,0.0,0.0,-0.099048623,0.0,0.0,0.0,-45510.05046,1032.741611,0.001224595,932.9269793,443.8094417,0.0,0.0,0.0,0.0,0.0,0.0,0.734454741,449.4001313
23.8,0.0,1.321493457,761.7031089,20937.03983,2.87E-5,0.0,32.13434763,0.0,0.0,-0.09946679,0.0,0.0,0.0,-45702.18653,1033.056366,0.001227814,935.9497443,444.0800075,0.0,0.0,0.0,0.0,0.0,0.0,0.737330779,451.2974316
23.9,0.0,1.332628165,764.9054,20860.7094,2.9E-5,0.0,32.13458211,0.0,0.0,-0.09988496,0.0,0.0,0.0,-45894.324,1033.372346,0.001231047,938.9881669,444.3517097,0.0,0.0,0.0,0.0,0.0,0.0,0.74020421,453.1947458
24.0,0.0,1.343809637,768.1077146,20784.05875,2.94E-5,0.0,32.13481758,0.0,0.0,-0.100303133,0.0,0.0,0.0,-46086.46287,1033.689558,0.001234293,942.0425159,444.6245551,0.0,0.0,0.0,0.0,0.0,0.0,0.743075021,455.092074
24.1,0.0,1.355037873,771.3100526,20707.08786,2.98E-5,0.0,32.13505403,0.0,0.0,-0.100721309,0.0,0.0,0.0,-46278.60315,1034.007998,0.001237553,945.1126057,444.8985404,0.0,0.0,0.0,0.0,0.0,0.0,0.745943208,456.9894161
24.2,0.0,1.366312876,774.5124142,20629.79673,3.01E-5,0.0,32.13529147,0.0,0.0,-0.101139489,0.0,0.0,0.0,-46470.74485,1034.327659,0.001240827,948.1985756,445.1736621,0.0,0.0,0.0,0.0,0.0,0.0,0.748808767,458.8867723
24.3,0.0,1.377634646,777.7147994,20552.18537,3.05E-5,0.0,32.1355299,0.0,0.0,-0.101557671,0.0,0.0,0.0,-46662.88797,1034.64855,0.001244114,951.3004786,445.4499271,0.0,0.0,0.0,0.0,0.0,0.0,0.751671685,460.7841426
24.4,0.0,1.389003184,780.9172085,20474.25377,3.09E-5,0.0,32.13576932,0.0,0.0,-0.101975857,0.0,0.0,0.0,-46855.03251,1034.970665,0.001247414,954.4182378,445.7273318,0.0,0.0,0.0,0.0,0.0,0.0,0.75453196,462.6815271
24.5,0.0,1.40041849,784.1196414,20396.00193,3.13E-5,0.0,32.13600972,0.0,0.0,-0.102394045,0.0,0.0,0.0,-47047.17848,1035.293998,0.001250729,957.5519926,446.005873,0.0,0.0,0.0,0.0,0.0,0.0,0.757389585,464.5789257
24.6,0.0,1.411880565,787.3220983,20317.42984,3.17E-5,0.0,32.1362511,0.0,0.0,-0.102812237,0.0,0.0,0.0,-47239.3259,1035.618557,0.001254056,960.701797,446.2855575,0.0,0.0,0.0,0.0,0.0,0.0,0.760244551,466.4763387
24.7,0.0,1.423389411,790.5245793,20238.53751,3.2E-5,0.0,32.13649348,0.0,0.0,-0.103230432,0.0,0.0,0.0,-47431.47476,1035.944336,0.001257398,963.8676826,446.5663818,0.0,0.0,0.0,0.0,0.0,0.0,0.763096851,468.3737659
24.8,0.0,1.434945028,793.7270844,20159.32493,3.24E-5,0.0,32.13673684,0.0,0.0,-0.10364863,0.0,0.0,0.0,-47623.62506,1036.27133,0.001260753,967.0495726,446.8483424,0.0,0.0,0.0,0.0,0.0,0.0,0.765946484,470.2712076
24.9,0.0,1.446547417,796.9296138,20079.79209,3.28E-5,0.0,32.13698119,0.0,0.0,-0.104066831,0.0,0.0,0.0,-47815.77683,1036.599547,0.001264121,970.2476298,447.1314464,0.0,0.0,0.0,0.0,0.0,0.0,0.768793435,472.1686638
25.0,0.0,1.458196579,800.1321676,19999.939,3.32E-5,0.0,32.13722653,0.0,0.0,-0.104485035,0.0,0.0,0.0,-48007.93005,1036.92898,0.001267503,973.4618864,447.4156902,0.0,0.0,0.0,0.0,0.0,0.0,0.771637703,474.0661344
25.1,0.0,1.469892515,803.3347458,19919.76566,3.36E-5,0.0,32.13747285,0.0,0.0,-0.104903243,0.0,0.0,0.0,-48200.08475,1037.25963,0.001270899,976.6922734,447.7010738,0.0,0.0,0.0,0.0,0.0,0.0,0.774479279,475.9636196
25.2,0.0,1.481635225,806.5373486,19839.27205,3.4E-5,0.0,32.13772016,0.0,0.0,-0.105321454,0.0,0.0,0.0,-48392.24092,1037.591494,0.001274308,979.9390482,447.9875972,0.0,0.0,0.0,0.0,0.0,0.0,0.777318159,477.8611195
25.3,0.0,1.493424712,809.7399761,19758.45819,3.44E-5,0.0,32.13796846,0.0,0.0,-0.105739668,0.0,0.0,0.0,-48584.39856,1037.924571,0.001277731,983.2020332,448.2752605,0.0,0.0,0.0,0.0,0.0,0.0,0.780154335,479.758634
25.4,0.0,1.505260975,812.9426283,19677.32406,3.48E-5,0.0,32.13821774,0.0,0.0,-0.106157885,0.0,0.0,0.0,-48776.5577,1038.258861,0.001281181,986.4921771,448.5640636,0.0,0.0,0.0,0.0,0.0,0.0,0.782987801,481.6561633
25.5,0.0,1.517144015,816.1453054,19595.86966,3.53E-5,0.0,32.13846802,0.0,0.0,-0.106576105,0.0,0.0,0.0,-48968.71832,1038.594361,0.001284779,989.9024346,448.8540065,0.0,0.0,0.0,0.0,0.0,0.0,0.78581855,483.5537074
25.6,0.0,1.529073834,819.3480074,19514.095,3.57E-5,0.0,32.13871928,0.0,0.0,-0.106994329,0.0,0.0,0.0,-49160.88045,1038.931072,0.001288392,993.3297178,449.1450893,0.0,0.0,0.0,0.0,0.0,0.0,0.788646577,485.4512663
25.7,0.0,1.541050432,822.5507345,19432.00006,3.61E-5,0.0,32.13897152,0.0,0.0,-0.107412556,0.0,0.0,0.0,-49353.04407,1039.268992,0.001292019,996.7740691,449.4373119,0.0,0.0,0.0,0.0,0.0,0.0,0.791471876,487.3488402
25.8,0.0,1.55307381,825.7534868,19349.58485,3.65E-5,0.0,32.13922476,0.0,0.0,-0.107830786,0.0,0.0,0.0,-49545.20921,1039.608119,0.00129566,1000.235531,449.7306743,0.0,0.0,0.0,0.0,0.0,0.0,0.794294439,489.246429
25.9,0.0,1.565143969,828.9562643,19266.84936,3.69E-5,0.0,32.13947898,0.0,0.0,-0.10824902,0.0,0.0,0.0,-49737.37586,1039.948456,0.001299315,1003.714154,450.02518,0.0,0.0,0.0,0.0,0.0,0.0,0.797114258,491.1440329
26.0,0.0,1.577260911,832.1590671,19183.79359,3.74E-5,0.0,32.13973419,0.0,0.0,-0.108667257,0.0,0.0,0.0,-49929.54403,1040.289995,0.001302984,1007.209857,450.3208221,0.0,0.0,0.0,0.0,0.0,0.0,0.799931332,493.0416519
26.1,0.0,1.589424635,835.3618954,19100.41755,3.78E-5,0.0,32.13999039,0.0,0.0,-0.109085497,0.0,0.0,0.0,-50121.71372,1040.632742,0.001306668,1010.722916,450.6176074,0.0,0.0,0.0,0.0,0.0,0.0,0.802745651,494.939286
26.2,0.0,1.601635143,838.5647492,19016.72121,3.82E-5,0.0,32.14024757,0.0,0.0,-0.109503741,0.0,0.0,0.0,-50313.88495,1040.976687,0.001310366,1014.253141,450.9155292,0.0,0.0,0.0,0.0,0.0,0.0,0.805557213,496.8369354
26.3,0.0,1.613892436,841.7676287,18932.7046,3.87E-5,0.0,32.14050574,0.0,0.0,-0.109921988,0.0,0.0,0.0,-50506.05772,1041.321839,0.001314077,1017.800699,451.2145942,0.0,0.0,0.0,0.0,0.0,0.0,0.808366006,498.7346
26.4,0.0,1.626196515,844.9705339,18848.36769,3.91E-5,0.0,32.14076491,0.0,0.0,-0.110340238,0.0,0.0,0.0,-50698.23204,1041.668186,0.001317803,1021.36562,451.5147956,0.0,0.0,0.0,0.0,0.0,0.0,0.811172031,500.63228
26.5,0.0,1.638547381,848.173465,18763.71049,3.96E-5,0.0,32.14102505,0.0,0.0,-0.110758491,0.0,0.0,0.0,-50890.4079,1042.015737,0.001321543,1024.947962,451.8161403,0.0,0.0,0.0,0.0,0.0,0.0,0.813975276,502.5299753
26.6,0.0,1.650945034,851.376422,18678.73299,4.0E-5,0.0,32.14128619,0.0,0.0,-0.111176748,0.0,0.0,0.0,-51082.58532,1042.364486,0.001325297,1028.547761,452.1186248,0.0,0.0,0.0,0.0,0.0,0.0,0.816775738,504.4276861
26.7,0.0,1.663389476,854.579405,18593.4352,4.05E-5,0.0,32.14154831,0.0,0.0,-0.111595009,0.0,0.0,0.0,-51274.7643,1042.714432,0.001329066,1032.165062,452.4222491,0.0,0.0,0.0,0.0,0.0,0.0,0.819573411,506.3254124
26.8,0.0,1.675880707,857.7824142,18507.81711,4.09E-5,0.0,32.14181142,0.0,0.0,-0.112013273,0.0,0.0,0.0,-51466.94485,1043.065574,0.001332848,1035.799799,452.7270133,0.0,0.0,0.0,0.0,0.0,0.0,0.822368289,508.2231543
26.9,0.0,1.68841873,860.9854496,18421.87872,4.14E-5,0.0,32.14207552,0.0,0.0,-0.11243154,0.0,0.0,0.0,-51659.12698,1043.41791,0.001336645,1039.452236,453.0329173,0.0,0.0,0.0,0.0,0.0,0.0,0.825160367,510.1209118
27.0,0.0,1.701003543,864.1885113,18335.62002,4.19E-5,0.0,32.14234061,0.0,0.0,-0.112849811,0.0,0.0,0.0,-51851.31068,1043.771439,0.001340456,1043.122198,453.3399612,0.0,0.0,0.0,0.0,0.0,0.0,0.827949638,512.018685
27.1,0.0,1.713635149,867.3915995,18249.04102,4.23E-5,0.0,32.14260669,0.0,0.0,-0.113268085,0.0,0.0,0.0,-52043.49597,1044.12616,0.001344281,1046.809839,453.6481448,0.0,0.0,0.0,0.0,0.0,0.0,0.830736098,513.9164739
27.2,0.0,1.726313548,870.5947142,18162.1417,4.28E-5,0.0,32.14287375,0.0,0.0,-0.113686362,0.0,0.0,0.0,-52235.68285,1044.482072,0.00134812,1050.515315,453.9574683,0.0,0.0,0.0,0.0,0.0,0.0,0.83351974,515.8142786
27.3,0.0,1.739038742,873.7978555,18074.92207,4.33E-5,0.0,32.1431418,0.0,0.0,-0.114104643,0.0,0.0,0.0,-52427.87133,1044.839178,0.001351973,1054.238459,454.2679351,0.0,0.0,0.0,0.0,0.0,0.0,0.836300557,517.7120992
27.4,0.0,1.751810731,877.0010236,17987.38213,4.37E-5,0.0,32.14341084,0.0,0.0,-0.114522928,0.0,0.0,0.0,-52620.06141,1045.197543,0.00135595,1058.064906,454.5796035,0.0,0.0,0.0,0.0,0.0,0.0,0.839078487,519.6099357
27.5,0.0,1.764629517,880.2042184,17899.52187,4.42E-5,0.0,32.14368087,0.0,0.0,-0.114941216,0.0,0.0,0.0,-52812.25311,1045.557131,0.00136,1061.955203,454.8924426,0.0,0.0,0.0,0.0,0.0,0.0,0.841853555,521.5077881
27.6,0.0,1.777495099,883.4074402,17811.34128,4.47E-5,0.0,32.14395189,0.0,0.0,-0.115359508,0.0,0.0,0.0,-53004.44641,1045.917908,0.001364064,1065.864039,455.206425,0.0,0.0,0.0,0.0,0.0,0.0,0.844625779,523.4056566
27.7,0.0,1.79040748,886.610689,17722.84038,4.52E-5,0.0,32.14422389,0.0,0.0,-0.115777803,0.0,0.0,0.0,-53196.64134,1046.279874,0.001368143,1069.791462,455.5215507,0.0,0.0,0.0,0.0,0.0,0.0,0.847395156,525.3035412
27.8,0.0,1.803366661,889.813965,17634.01915,4.57E-5,0.0,32.14449688,0.0,0.0,-0.116196101,0.0,0.0,0.0,-53388.8379,1046.64302,0.001372237,1073.737615,455.8378127,0.0,0.0,0.0,0.0,0.0,0.0,0.850161684,527.201442
27.9,0.0,1.816372641,893.0172681,17544.87758,4.62E-5,0.0,32.14477087,0.0,0.0,-0.116614404,0.0,0.0,0.0,-53581.03609,1047.007351,0.001376346,1077.702451,456.155218,0.0,0.0,0.0,0.0,0.0,0.0,0.852925354,529.0993589
28.0,0.0,1.829425423,896.2205986,17455.41569,4.67E-5,0.0,32.14504584,0.0,0.0,-0.117032709,0.0,0.0,0.0,-53773.23591,1047.37286,0.001380469,1081.685892,456.4737598,0.0,0.0,0.0,0.0,0.0,0.0,0.855686165,530.9972921
28.1,0.0,1.842525008,899.4239564,17365.63346,4.72E-5,0.0,32.14532179,0.0,0.0,-0.117451019,0.0,0.0,0.0,-53965.43739,1047.739552,0.001384607,1085.688334,456.7934447,0.0,0.0,0.0,0.0,0.0,0.0,0.858444106,532.8952417
28.2,0.0,1.855671395,902.6273418,17275.5309,4.77E-5,0.0,32.14559874,0.0,0.0,-0.117869332,0.0,0.0,0.0,-54157.64051,1048.107427,0.00138876,1089.709494,457.114273,0.0,0.0,0.0,0.0,0.0,0.0,0.861199173,534.7932076
28.3,0.0,1.868864587,905.8307548,17185.10799,4.82E-5,0.0,32.14587668,0.0,0.0,-0.118287648,0.0,0.0,0.0,-54349.84529,1048.476475,0.001392928,1093.749514,457.4362376,0.0,0.0,0.0,0.0,0.0,0.0,0.863951366,536.69119
28.4,0.0,1.882104584,909.0341955,17094.36475,4.87E-5,0.0,32.1461556,0.0,0.0,-0.118705968,0.0,0.0,0.0,-54542.05173,1048.846703,0.00139711,1097.808572,457.7593456,0.0,0.0,0.0,0.0,0.0,0.0,0.866700674,538.5891889
