time,eiPosition_ft_X,eiPosition_ft_Y,eiPosition_ft_Z,gePosition_ft_X,gePosition_ft_Y,gePosition_ft_Z,eiVelocity_ft_s_X,eiVelocity_ft_s_Y,eiVelocity_ft_s_Z,feVelocity_ft_s_X,feVelocity_ft_s_Y,feVelocity_ft_s_Z,altitudeMsl_ft,longitude_deg,latitude_deg,localGravity_ft_s2,eulerAngle_deg_Yaw,eulerAngle_deg_Pitch,eulerAngle_deg_Roll,bodyAngularRateWrtEi_deg_s_Roll,bodyAngularRateWrtEi_deg_s_Pitch,bodyAngularRateWrtEi_deg_s_Yaw,altitudeRateWrtMsl_ft_min,speedOfSound_ft_s,airDensity_slug_ft3,ambientPressure_lbf_ft2,ambientTemperature_dgR,aero_bodyForce_lbf_X,aero_bodyForce_lbf_Y,aero_bodyForce_lbf_Z,aero_bodyMoment_ftlbf_L,aero_bodyMoment_ftlbf_M,aero_bodyMoment_ftlbf_N,mach,dynamicPressure_lbf_ft2,trueAirspeed_nmi_h
0.0,2.0955646325460006E7,0.0,0.0,2.0955646325460006E7,0.0,0.0,0.0,1528.1098290458178,0.0,0.0,0.0,0.0,30000.000000003725,0.0,0.0,32.10653595184196,0.0,1.2722218725854067E-14,0.0,0.0,0.0,9.277188200394804E-19,-0.0,994.8490287717559,8.907042526446323E-4,629.6799295020096,411.8388729485991,0.0,0.0,-0.0,0.0,0.0,0.0,0.0,0.0,0.0
0.10000000000000007,2.0955646164930005E7,152.81098251439366,0.0,2.0955646165487163E7,7.777068645464791E-7,0.0,-3.210653611521433,1528.1098173397852,0.0,0.0,2.3331197874107552E-5,3.199510458858786,29999.840027160943,2.1263634957843716E-12,0.0,32.106536442829196,0.0,1.2722218726192321E-14,-4.178074153504028E-4,0.0,0.0,9.277188200394804E-19,-191.97062753152716,994.8497158374269,8.907094884926739E-4,629.6845007129103,411.83944179963294,0.0,0.0,0.0,0.0,0.0,0.0,0.003216074154728613,0.00455903736344806,1.8956351674821494
0.20000000000000015,2.0955645683331955E7,305.62196268754184,0.0,2.0955645685560584E7,6.221652278870504E-6,0.0,-6.421307321071237,1528.1097822211004,0.0,0.0,9.332479457836497E-5,6.3990210154062686,29999.360100582242,1.701090114454732E-11,0.0,32.10653791581568,0.0,1.2722218727207072E-14,-8.356148434589834E-4,0.0,0.0,9.277188200394804E-19,-383.94126092437614,994.851777066231,8.907251964420477E-4,629.698214737304,411.8411483814131,0.0,0.0,0.0,0.0,0.0,0.0,0.006432135081426102,0.018236471613887157,3.7912703931449694
0.3000000000000002,2.0955644880668536E7,458.43293817819824,0.0,2.095564488568295E7,2.0998079841683115E-5,0.0,-9.631961226677792,1528.1097236899543,0.0,0.0,2.099807941289824E-4,9.598531767331153,29998.560222949833,5.7411802851705224E-11,0.0,32.10654037079338,0.0,1.2722218728898329E-14,-0.001253422297083919,0.0,0.0,9.277188200394804E-19,-575.9119060398691,994.8552124382968,8.907513768302549E-4,629.7210719835098,411.84399268455877,0.0,0.0,0.0,0.0,0.0,0.0,0.00964816955233401,0.04103326925347087,5.686905735169135
0.4000000000000003,2.0955643756939705E7,611.2439066451167,0.0,2.095564376585423E7,4.9773226901250744E-5,0.0,-12.842615426369525,1528.1096417463398,0.0,0.0,3.732992062512964E-4,12.798042812322189,29997.44039422646,1.3608724532889246E-10,0.0,32.10654380776276,0.0,1.2722218731266093E-14,-0.0016712297889833949,0.0,0.0,9.277188200394804E-19,-767.8825687393313,994.8600219398647,8.907880303673495E-4,629.7530732608918,411.84797470946387,0.0,0.0,0.0,0.0,0.0,0.0,0.012864164340237265,0.07295104119211478,7.582541251735349
0.5000000000000003,2.0955642312145434E7,764.0548657470504,0.0,2.0955642326074377E7,9.721332813855676E-5,0.0,-16.053270018174892,1528.109536390247,0.0,0.0,5.832800438786631E-4,15.997554248068157,29996.000614374876,2.6579540383876566E-10,0.0,32.10654822672439,0.0,1.272221873431036E-14,-0.0020890373319156024,0.0,0.0,9.277188200394804E-19,-959.8532548840894,994.866205551608,8.908351580469462E-4,629.7942197021822,411.8530944566269,0.0,0.0,0.0,0.0,0.0,0.0,0.016080106218736828,0.11399204285696264,9.478177001024333
0.6000000000000004,2.095564054628568E7,916.8658131427502,0.0,2.095564056634336E7,1.6798462729961106E-4,0.0,-19.263925100122435,1528.1094076216634,0.0,0.0,8.399233229250913E-4,19.197066172257927,29994.240883357823,4.592944862207712E-10,0.0,32.10655362767901,0.0,1.2722218738031126E-14,-0.002506844938638737,0.0,0.0,9.277188200394804E-19,-1151.8239703354757,994.8737632486326,8.90892761146259E-4,629.8445127635375,411.8593519266508,0.0,0.0,0.0,0.0,0.0,0.0,0.019295981962522385,0.16415917434559985,11.373813041216852
0.7000000000000005,2.095563845936039E7,1069.6767464909656,0.0,2.0955638486661118E7,2.6675336592052457E-4,0.0,-22.474580770240756,1528.1092554405725,0.0,0.0,0.0011432290620578766,22.396578682580422,29992.161201115698,7.293427040117895E-10,0.0,32.106560010627526,0.0,1.2722218742428398E-14,-0.002924652621911008,0.0,0.0,9.277188200394804E-19,-1343.7947209548254,994.8826950005741,8.909608412268694E-4,629.9039542252411,411.8667471203227,0.0,0.0,0.0,0.0,0.0,0.0,0.022511778347642737,0.22345598062320396,13.26944943049373
0.8000000000000006,2.0955636051369503E7,1222.487663450447,0.0,2.09556360870276E7,3.9818578736239285E-4,0.0,-25.68523712655859,1528.1090798469563,0.0,0.0,0.0014931972851987268,25.5960918767247,29989.761567596346,1.0886982854260279E-9,0.0,32.10656737557101,0.0,1.2722218747502168E-14,-0.0033424603944906418,0.0,0.0,9.277188200394804E-19,-1535.765512603482,994.8930007714707,8.910394001337979E-4,629.9725461909309,411.8752800385079,0.0,0.0,0.0,0.0,0.0,0.0,0.025727482151780112,0.29188665176324036,15.165086227035829
0.9000000000000007,2.095563332231294E7,1375.2985616799401,0.0,2.095563336744272E7,5.669481411135768E-4,0.0,-28.895894267104765,1528.1088808407933,0.0,0.0,0.001889828019250031,28.795605852379918,29987.041982717812,1.5501194890660312E-9,0.0,32.106575722510705,0.0,1.2722218753252448E-14,-0.003760268269135874,0.0,0.0,9.277188200394804E-19,-1727.736351142795,994.9046805199227,8.911284399967882E-4,630.0502910887633,411.8849506822821,0.0,0.0,0.0,0.0,0.0,0.0,0.028943080154518474,0.36945602323245247,17.06072348902411
1.0000000000000007,2.095563027219062E7,1528.1094388381875,0.0,2.0955630327906396E7,7.777066645978659E-4,0.0,-32.10655228990824,1528.1086584220584,0.0,0.0,0.002333121293412752,31.995120707235348,29984.002446394414,2.1263645561314766E-9,0.0,32.10658505144802,0.0,1.2722218759679228E-14,-0.0041780762586049545,0.0,0.0,9.277188200394804E-19,-1919.7072424341209,994.9177341989825,8.912279632295149E-4,630.1371916707748,411.89575905283886,0.0,0.0,0.0,0.0,0.0,0.0,0.032158559137617414,0.45616957621926063,18.956361274639587
1.0999999999999897,2.095562690100245E7,1680.9202925839325,0.0,2.0955626968418546E7,0.0010351275965331252,0.0,-35.3172112929981,1528.108412590725,0.0,0.0,0.0028230771419149336,35.19463653898041,29980.642958544195,2.8301917488916155E-9,0.0,32.10659536238448,0.0,1.2722218766782512E-14,-0.004595884375656161,0.0,0.0,9.277188200394804E-19,-2111.678192338825,994.9321617561236,8.913379725294211E-4,630.2332510127972,411.907705151463,0.0,0.0,0.0,0.0,0.0,0.0,0.03537390588528528,0.5520334380059589,20.85199964206335
1.1999999999999786,2.0955623208748326E7,1833.7311205759115,0.0,2.0955623288979053E7,0.0013438771792909643,0.0,-38.52787137440364,1528.1081433467627,0.0,0.0,0.0033596956026474695,38.3941534453047,29976.96351905167,3.67435935908492E-9,0.0,32.106606655321904,0.0,1.2722218774562298E-14,-0.0050136926330477845,0.0,0.0,9.277188200394804E-19,-2303.649206718282,994.9479631334008,8.914584708790168E-4,630.3384725156578,411.92078897966326,0.0,0.0,0.0,0.0,0.0,0.0,0.03858910718444542,0.6570543823856719,22.74763864947661
1.2999999999999676,2.0955619195428133E7,1986.5419204728626,0.0,2.0955619289587814E7,0.0017086216587385294,0.0,-41.73853263215431,1528.1078506901374,0.0,0.0,0.0039429767146630205,41.59367152389802,29972.964127812535,4.6716257094344906E-9,0.0,32.106618930262144,0.0,1.2722218783018589E-14,-0.005431501043538149,0.0,0.0,9.277188200394804E-19,-2495.620291433881,994.96513826726,8.915894615445173E-4,630.4528599040617,411.9350105390132,0.0,0.0,0.0,0.0,0.0,0.0,0.04180414982501391,0.771239830121778,24.64327835506069
1.3999999999999566,2.0955614861041754E7,2139.3526899335175,0.0,2.0955614970244706E7,0.0021340272803609395,0.0,-44.94919516427976,1528.107534620817,0.0,0.0,0.00457292052636148,44.79319087245032,29968.64478470385,5.834749144994207E-9,0.0,32.10663218720724,0.0,1.2722218792151386E-14,-0.005849309619885599,0.0,0.0,9.277188200394804E-19,-2687.591452347019,994.9836870886676,8.917309480769161E-4,630.5764172276076,411.9503698312571,0.0,0.0,0.0,0.0,0.0,0.0,0.04501902060016637,0.89459784945262,26.538918816997025
1.4999999999999456,2.0955610205589052E7,2292.1634266166006,0.0,2.095561033094959E7,0.0026247602862217168,0.0,-48.15985906880985,1528.1071951387596,0.0,0.0,0.005249527082757063,47.99271158865179,29964.005489587784,7.176488026786076E-9,0.0,32.10664642615948,0.0,1.2722218801960682E-14,-0.006267118374848495,0.0,0.0,9.277188200394804E-19,-2879.562695319107,995.0036095230959,8.918829343119788E-4,630.709148860869,411.9668668582969,0.0,0.0,0.0,0.0,0.0,0.0,0.04823370630660916,1.0271371566396905,28.434560093467145
1.5999999999999346,2.0955605229069885E7,2444.9741281808424,0.0,2.095560537170233E7,0.003185486929790704,0.0,-51.370524443774734,1528.106832243925,0.0,0.0,0.005972796436619686,51.19223377019288,29959.046242326498,8.709600774289973E-9,0.0,32.10666164712122,0.0,1.272221881244648E-14,-0.006684927321185255,0.0,0.0,9.277188200394804E-19,-3071.534026211573,995.0249054904599,8.92045424369873E-4,630.8510595031638,411.9845016221391,0.0,0.0,0.0,0.0,0.0,0.0,0.051448193744853314,1.1688671165592663,30.330202242652792
1.6999999999999236,2.0955599931484107E7,2597.7847922849605,0.0,2.0955600092502784E7,0.00382087345569615,0.0,-54.581191387204754,1528.106445936269,0.0,0.0,0.006742728643017967,54.39175751476427,29953.767042782158,1.0446845812030827E-8,0.0,32.106677850095,0.0,1.2722218823608783E-14,-0.007102736471654307,0.0,0.0,9.277188200394804E-19,-3263.505450885856,995.0475749051202,8.922184226553029E-4,631.0021541787705,412.0032741248947,0.0,0.0,0.0,0.0,0.0,0.0,0.05466246971948571,1.3197977433383379,32.225845322735815
1.7999999999999126,2.0955594312831555E7,2750.5954165876706,0.0,2.0955594493350774E7,0.004535586113737056,0.0,-57.791859997130416,1528.1060362157439,0.0,0.0,0.007559323760456141,57.59128292005679,29948.167890772223,1.2400981609838518E-8,0.0,32.1066950350836,0.0,1.2722218835447589E-14,-0.007520545839014118,0.0,0.0,9.277188200394804E-19,-3455.4769752034076,995.0716176760759,8.924019338591105E-4,631.1624382384343,412.0231843689383,0.0,0.0,0.0,0.0,0.0,0.0,0.05787652103942906,1.479939701036981,34.12148939189813
1.8999999999999015,2.0955588373112053E7,2903.4059987476817,0.0,2.0955588574246142E7,0.005334291153401338,0.0,-61.0025303715827,1528.1056030822995,0.0,0.0,0.00842258185132887,60.79081008376172,29942.248786140233,1.4584766669807722E-8,0.0,32.10671320208987,0.0,1.2722218847962902E-14,-0.007938355436023191,0.0,0.0,9.277188200394804E-19,-3647.4486050257033,995.0970337066627,8.925959629561051E-4,631.3319173575845,412.04423235665644,0.0,0.0,0.0,0.0,0.0,0.0,0.0610903345182287,1.6493043043694968,36.01713450832196
1.9999999999998905,2.095558211232542E7,3056.216536423699,0.0,2.0955582335188694E7,0.006221654826201739,0.0,-64.21320260859277,1528.1051465358835,0.0,0.0,0.009332502982148612,63.99033910357054,29936.009728692472,1.7010959534632733E-8,0.0,32.1067323511169,0.0,1.272221886115471E-14,-0.008356165275440072,0.0,0.0,9.277188200394804E-19,-3839.4203462142323,995.123822894827,8.928005152072938E-4,631.5105975384037,412.0664180906726,0.0,0.0,0.0,0.0,0.0,0.0,0.06430389697430726,1.8279035194760673,37.91278073018964
2.0999999999998797,2.0955575530471463E7,3209.0270272744247,0.0,2.0955575776178256E7,0.00720234338822201,0.0,-67.42387680619217,1528.104666576439,0.0,3.1554436208840472E-30,0.010289087221499326,67.18987007717513,29929.45071825385,1.969231879651715E-8,0.0,32.10675248216788,0.0,1.2722218875023026E-14,-0.008773975370023349,0.0,0.0,9.277188200394804E-19,-4031.392204630508,995.1519851328876,8.930155961582234E-4,631.6984851085048,412.08974157364855,0.0,0.0,0.0,0.0,0.0,0.0,0.06751719523124906,2.015749964732276,39.80842811568372
2.1999999999998687,2.0955568627549987E7,3361.8374689585517,0.0,2.095556889721461E7,0.008281023091104567,0.0,-70.63455306241259,1528.1041632039075,0.0,0.0,0.011292334642082806,70.38940310226745,29922.571754608303,2.2641603074480902E-8,0.0,32.10677359524623,0.0,1.2722218889567849E-14,-0.009191785732531639,0.0,0.0,9.277188200394804E-19,-4223.3641861360475,995.1815203077948,8.932412116410995E-4,631.8955867229196,412.1142028084965,0.0,0.0,0.0,0.0,0.0,0.0,0.07073021611805316,2.212856911609912,41.704076722986834
2.2999999999998577,2.095556140356079E7,3514.6478591347686,0.0,2.0955561698297575E7,0.009462360190414021,0.0,-73.84523147528627,1528.1036364182287,0.0,0.0,0.012342245320946181,73.5889382765401,29915.37283757329,2.5871571039175427E-8,0.0,32.106795690355426,0.0,1.272221890478917E-14,-0.009609596375723617,0.0,0.0,9.277188200394804E-19,-4415.336296592406,995.2124283008119,8.934773677725375E-4,632.1019093622724,412.139801798114,0.0,0.0,0.0,0.0,0.0,0.0,0.07394294646942472,2.4192382855728236,43.599726610281955
2.3999999999998467,2.0955553858503625E7,3667.4581954617543,0.0,2.095555417942689E7,0.01075102094504099,0.0,-77.05591214284577,1528.103086219338,0.0,0.0,0.013438819340164032,76.78847569768593,29907.85396688804,2.9394981413201882E-8,0.0,32.106818767499306,0.0,1.2722218920686995E-14,-0.010027407312358004,0.0,0.0,9.277188200394804E-19,-4607.308541861155,995.2447089879978,8.93724070957413E-4,632.3174603362941,412.1665385457812,0.0,0.0,0.0,0.0,0.0,0.0,0.07715537312600956,2.634908667031673,45.49537783575224
2.4999999999998357,2.0955545992378283E7,3820.2684755981904,0.0,2.0955546340602357E7,0.012151671615754589,0.0,-80.26659516312398,1528.1025126071668,0.0,0.0,0.01458205678047197,79.98801546339813,29900.015142355114,3.322459296910141E-8,0.0,32.10684282668166,0.0,1.2722218937261325E-14,-0.010445218555193576,0.0,0.0,9.277188200394804E-19,-4799.280927803888,995.2783622396022,8.939813278844293E-4,632.5422472801027,412.19441305465784,0.0,0.0,0.0,0.0,0.0,0.0,0.08036748293470725,2.8598832923218915,47.39103045758102
2.5999999999998247,2.0955537805184513E7,3973.0786972027427,0.0,2.095553818182372E7,0.013668978463712955,0.0,-83.47728063415428,1528.1019155816455,0.0,0.0,0.015771957730589006,83.18755767137039,29891.856363717467,3.737316452723096E-8,0.0,32.10686786790658,0.0,1.2722218954512156E-14,-0.01086303011698915,0.0,0.0,9.277188200394804E-19,-4991.253460282223,995.3133879205952,8.942491455303537E-4,632.7762781580693,412.2234253282202,0.0,0.0,0.0,0.0,0.0,0.0,0.0835792627489005,3.094178054749159,49.286684533951956
2.6999999999998137,2.095552929692207E7,4125.888857934073,0.0,2.095552970309073E7,0.015307607751079644,0.0,-86.68796865397029,1528.1012951427017,0.0,0.0,0.01700852228153324,86.38710241929665,29883.37763072923,4.1853454959396775E-8,0.0,32.10689389117829,0.0,1.2722218972439492E-14,-0.011280842010503594,0.0,0.0,9.277188200394804E-19,-5183.226145157799,995.3497858903673,8.945275311579218E-4,633.0195612621536,412.2535753700092,0.0,0.0,0.0,0.0,0.0,0.0,0.086790699428746,3.3378095056619133,51.18234012304882
2.7999999999998026,2.0955520467590697E7,4278.698955450835,0.0,2.095552090440315E7,0.017072225741414204,0.0,-89.89865932060627,1528.1006512902597,0.0,0.0,0.018291750527304064,89.58664980487148,29874.578943148255,4.667822319187043E-8,0.0,32.10692089650108,0.0,1.2722218991043331E-14,-0.011698654248495841,0.0,0.0,9.277188200394804E-19,-5375.198988292289,995.3875560027633,8.948164923163063E-4,633.2721052124913,412.2848631836573,0.0,0.0,0.0,0.0,0.0,0.0,0.09000177984144128,3.590794855575091,53.077997283055794
2.8999999999997916,2.0955511317190118E7,4431.508987411677,0.0,2.0955511785760686E7,0.018967498705550145,0.0,-93.10935273209674,1528.0999840242403,0.0,0.0,0.019621642566246426,92.78619992578967,29865.460300683975,5.186022822340848E-8,0.0,32.10694888387961,0.0,1.2722219010323672E-14,-0.012116466843724884,0.0,0.0,9.277188200394804E-19,-5567.17199554738,995.4266981063097,8.95116036843073E-4,633.5339189592848,412.31728877307364,0.0,0.0,0.0,0.0,0.0,0.0,0.09321249086147171,3.8531519753451575,54.97365607215717
2.9999999999997806,2.0955501845720056E7,4584.31895147523,0.0,2.095550234716307E7,0.020998092903480536,0.0,-96.32004898647673,1528.0992933445616,0.0,0.0,0.02099819849923186,95.98575287974658,29856.021703068167,5.7412229077672956E-8,0.0,32.10697785331851,0.0,1.2722219030280517E-14,-0.012534279808949753,0.0,0.0,9.277188200394804E-19,-5759.145172784795,995.467212043914,8.954261728621015E-4,633.8050117811781,412.3508521421926,0.0,0.0,0.0,0.0,0.0,0.0,0.09642281937090466,4.124899397374328,56.8693165485376
3.0999999999997696,2.095549205318022E7,4737.128845300131,0.0,2.0955492588610012E7,0.02316867461205785,0.0,-99.53074818178185,1528.098579251141,0.0,0.0,0.022421418433069256,99.18530876443812,29846.263150010258,6.334698488091548E-8,0.0,32.10700780482271,0.0,1.2722219050913867E-14,-0.01295209315692957,0.0,0.0,9.277188200394804E-19,-5951.118525866287,995.5090976530598,8.95746908785309E-4,634.0853932869588,412.3855532951324,0.0,0.0,0.0,0.0,0.0,0.0,0.0996327522596393,4.406056316874072,58.764978770382
3.1999999999997586,2.095548193957033E7,4889.938666544997,0.0,2.095548251010123E7,0.02548391009944373,0.0,-102.74145041604802,1528.097841743888,0.0,0.0,0.02389130247231932,102.38486767756049,29836.184641227126,6.967725479406708E-8,0.0,32.10703873839714,0.0,1.2722219072223715E-14,-0.013369906900423497,0.0,0.0,9.277188200394804E-19,-6143.092060653629,995.5523547656823,8.960782533119403E-4,634.3750734151425,412.4213922360897,0.0,0.0,0.0,0.0,0.0,0.0,0.10284227642568518,4.696642593163359,60.66064279587557
3.2999999999997476,2.0955471504890054E7,5042.748412868443,0.0,2.0955472111636393E7,0.027948465642726017,0.0,-105.95215578731187,1528.0970808227146,0.0,0.0,0.02540785073270981,105.58442971681065,29825.786176390946,7.641579806285454E-8,0.0,32.10707065404713,0.0,1.272221909421007E-14,-0.013787721052190782,0.0,0.0,9.277188200394804E-19,-6335.065783008638,995.596983208395,8.964202154305517E-4,634.6740624359181,412.4583689695243,0.0,0.0,0.0,0.0,0.0,0.0,0.1060513787754058,4.996678751024963,62.55630868320386
3.3999999999997366,2.0955460749139074E7,5195.558081929072,0.0,2.0955461393215187E7,0.030567007494122667,0.0,-109.16286439361046,1528.096296487527,0.0,0.0,0.026971063329084725,108.78399497988592,29815.067755185068,8.357537392734433E-8,0.0,32.107103551778,0.0,1.272221911687293E-14,-0.014205535624990736,0.0,0.0,9.277188200394804E-19,-6527.039698793155,995.6429828022548,8.967728044174663E-4,634.982370950015,412.4964834999613,0.0,0.0,0.0,0.0,0.0,0.0,0.10926004622380796,5.306185982089285,64.45197649055268
3.4999999999997256,2.095544967231707E7,5348.367671385479,0.0,2.095545035483729E7,0.03334420193332077,0.0,-112.37357633298133,1528.0954887382302,0.0,0.0,0.028580940381316044,111.98356356448413,29804.029377289116,9.116874176699479E-8,0.0,32.10713743159529,0.0,1.272221914021229E-14,-0.014623350631582745,0.0,0.0,9.277188200394804E-19,-6719.013813869048,995.6903533628279,8.971360298375477E-4,635.3000098896056,412.5357358320433,0.0,0.0,0.0,0.0,0.0,0.0,0.11246826569480127,5.625186146274069,66.34764627610816
3.5999999999997145,2.09554382744237E7,5501.177178896246,0.0,2.0955438996502366E7,0.03628471526673627,0.0,-115.58429170346268,1528.0946575747248,0.0,0.0,0.030237482011802735,115.18313556830381,29792.67104236409,9.920866110058056E-8,0.0,32.1071722935047,0.0,1.2722219164228155E-14,-0.015041166084726248,0.0,0.0,9.277188200394804E-19,-6910.988134098228,995.739094700259,8.975099015449983E-4,635.6269905192349,412.5761259705838,0.0,0.0,0.0,0.0,0.0,0.0,0.11567602412145589,5.953701773270396,68.2433180980568
3.6999999999997035,2.0955426555458616E7,5653.986602119948,0.0,2.0955427318210065E7,0.039393213781174996,0.0,-118.79501060309325,1528.0938029969093,0.0,0.0,0.03194068834706243,118.38271108904395,29780.99275006354,1.0770789146144259E-7,0.0,32.10720813751209,0.0,1.2722219188920522E-14,-0.015458981997180779,0.0,0.0,9.277188200394804E-19,-7102.962665342637,995.7892066192268,8.978944296833008E-4,635.9633244360098,412.6176539205276,0.0,0.0,0.0,0.0,0.0,0.0,0.11888330844627205,6.29175606406895,70.1389920145854
3.7999999999996925,2.0955414515421465E7,5806.79593871515,0.0,2.0955415319960035E7,0.04267436376372924,0.0,-122.00573312991244,1528.0929250046795,0.0,0.0,0.0336905595170494,121.58229022440426,29768.994500033557,1.1667919245383697E-7,0.0,32.107244963623494,0.0,1.272221921428939E-14,-0.01587679838170594,0.0,0.0,9.277188200394804E-19,-7294.937413464256,995.8406889189474,8.982896246855408E-4,636.309023570126,412.6603196869503,0.0,0.0,0.0,0.0,0.0,0.0,0.12209010562144416,6.639372892533636,72.0346680838812
3.8999999999996815,2.095540215431187E7,5959.605186340402,0.0,2.09554030017519E7,0.04613283150286218,0.0,-125.2164593819601,1528.0920235979274,0.0,0.0,0.03548709565560923,124.78187307208488,29756.676291897893,1.2613532375784865E-7,0.0,32.10728277184513,0.0,1.2722219240334765E-14,-0.016294615251061413,0.0,0.0,9.277188200394804E-19,-7486.912384325093,995.8935413932435,8.986954972752231E-4,636.6641001858375,412.7041232751117,0.0,0.0,0.0,0.0,0.0,0.0,0.12529640260911604,6.9965768070243906,73.93034636413165
3.9999999999996705,2.0955389472129457E7,6112.414342654249,0.0,2.0955390363585286E7,0.04977328329269115,0.0,-128.42718945727702,1528.0910987765433,0.0,0.0,0.037330296899569654,127.98145972978686,29744.038125284016,1.3608904514305113E-7,0.0,32.10732156218334,0.0,1.2722219267056641E-14,-0.016712432618006968,0.0,0.0,9.277188200394804E-19,-7678.887583787212,995.9477638304357,8.99112058465754E-4,637.0285668812638,412.7490646903631,0.0,0.0,0.0,0.0,0.0,0.0,0.12850218638165803,7.36339303205583,75.82602691352483
4.099999999999704,2.0955376468873836E7,6265.223405315222,0.0,2.095537740545981E7,0.05360038543115131,0.0,-131.63792345390428,1528.0901505404138,0.0,0.0,0.03922016339010458,131.18105029521155,29731.079999808222,1.46553116465434E-7,0.0,32.10736133464465,0.0,1.2722219294455019E-14,-0.017130250495302465,0.0,0.0,9.277188200394804E-19,-7870.863017712692,996.0033560134118,8.995393195612804E-4,637.4024365893915,412.7951439382,0.0,0.0,0.0,0.0,0.0,0.0,0.1317074439219212,7.739847470010945,77.72170979024888
4.199999999999737,2.0955363144544628E7,6418.032371981836,0.0,2.0955364127375092E7,0.057618804203759755,0.0,-134.84866146988358,1528.0891788894269,0.0,0.0,0.041156695273643726,134.38064486606098,29717.80191509053,1.5754029762495987E-7,0.0,32.10740208923573,0.0,1.2722219322529903E-14,-0.01754806889570779,0.0,0.0,9.277188200394804E-19,-8062.838691963659,996.0603177195661,8.999772921565533E-4,637.7857225782303,412.8423610242092,0.0,0.0,0.0,0.0,0.0,0.0,0.1349121622235084,8.125966702892994,79.61739505249245
4.299999999999771,2.095534949914141E7,6570.841240312604,0.0,2.0955350529330708E7,0.061833205921550505,0.0,-138.0594036032577,1528.0881838234563,0.0,0.0,0.04313989269209591,137.58024354003817,29704.20387070626,1.690633486712344E-7,0.0,32.10744382596345,0.0,1.272221935128129E-14,-0.017965887831983007,0.0,0.0,9.277188200394804E-19,-8254.81461240229,996.1186487210131,9.004259881388947E-4,638.1784384528158,412.8907159542412,0.0,0.0,0.0,0.0,0.0,0.0,0.13811632829100795,8.521777994141795,81.51308275844472
4.399999999999804,2.0955335532663766E7,6723.650007966027,0.0,2.0955336611326244E7,0.06624825689395397,0.0,-141.2701499520697,1528.087165342385,0.0,0.0,0.045169755801038665,140.77984641484645,29690.285866241902,1.811350297313021E-7,0.0,32.10748654483484,0.0,1.2722219380709181E-14,-0.018383707316888234,0.0,0.0,9.277188200394804E-19,-8446.790784890787,996.1783487843513,9.008854196867255E-4,638.5805981542121,412.94020873421135,0.0,0.0,0.0,0.0,0.0,0.0,0.14131992914028566,8.927309290465915,83.4087729662951
4.4999999999998375,2.095532124511128E7,6876.458672600579,0.0,2.0955322373361282E7,0.07086862341554223,0.0,-144.48090061436363,1528.0861234460874,0.0,0.0,0.04724628475380229,143.97945358819018,29676.047901280224,1.9376810097535435E-7,0.0,32.107530245857106,0.0,1.2722219410813572E-14,-0.018801527363183648,0.0,0.0,9.277188200394804E-19,-8638.767215291411,996.239417670733,9.013555992704437E-4,638.9922159605755,412.9908393701528,0.0,0.0,0.0,0.0,0.0,0.0,0.14452295179873798,9.342589223740518,85.30446573423352
4.599999999999871,2.0955306636483505E7,7029.267231874734,0.0,2.0955307815435387E7,0.07569897180036733,0.0,-147.69165568818406,1528.0850581344366,0.0,0.0,0.049369479710110166,147.17906515777415,29661.489975385368,2.069753227125654E-7,0.0,32.10757492903756,0.0,1.2722219441594467E-14,-0.019219347983629554,0.0,0.0,9.277188200394804E-19,-8830.74390946645,996.3018551359319,9.018365396533103E-4,639.4133064882349,413.04260786826956,0.0,0.0,0.0,0.0,0.0,0.0,0.14772538330554233,9.7676471129525,87.20016112045029
4.699999999999904,2.0955291706779994E7,7182.075683446952,0.0,2.095529293754811E7,0.08074396836850006,0.0,-150.90241527157656,1528.0839694073022,0.0,0.0,0.05153934083221357,150.3786812213042,29646.612088106573,2.207694553562359E-7,0.0,32.107620594383754,0.0,1.2722219473051866E-14,-0.019637169190986365,0.0,0.0,9.277188200394804E-19,-9022.720873278251,996.3656609303331,9.023282538917287E-4,639.8438846922465,413.0955142349232,0.0,0.0,0.0,0.0,0.0,0.0,0.15092721071191872,10.202512966186514,89.09585918313628
4.799999999999938,2.095527645600029E7,7334.884024975675,0.0,2.0955277739698984E7,0.08600827942967015,0.0,-154.11317946258714,1528.0828572645516,0.0,0.0,0.05375586828580096,153.57830187648662,29631.414238981903,2.3516325938101086E-7,0.0,32.10766724190337,0.0,1.2722219505185768E-14,-0.020054990998014558,0.0,0.0,9.277188200394804E-19,-9214.698112589198,996.4308347989223,9.028307553355342E-4,640.2839658669672,413.14955847661986,0.0,0.0,0.0,0.0,0.0,0.0,0.15412842108139002,10.647217482656965,90.9915599804826
4.899999999999971,2.0955260884143937E7,7487.692254119336,0.0,2.0955262221887566E7,0.0914965713051199,0.0,-157.32394835926308,1528.0817217060483,0.0,0.0,0.056019062239316346,156.777927221029,29615.896427564323,2.5016949538458E-7,0.0,32.107714871604244,0.0,1.272221953799617E-14,-0.02047281341747473,0.0,0.0,9.277188200394804E-19,-9406.675633261739,996.4973764811782,9.033440576275527E-4,640.733565645992,413.20474059991705,0.0,0.0,0.0,0.0,0.0,0.0,0.15732900149005843,11.101792054777297,92.88726357068118
5.000000000000004,2.0955244991210457E7,7640.500368536356,0.0,2.0955246384113375E7,0.09721351031997916,0.0,-160.53472205965187,1528.0805627316536,0.0,0.0,0.05832892286577797,159.97755735263897,29600.05865337327,2.6580092406877916E-7,0.0,32.1077634834944,0.0,1.2722219571483077E-14,-0.020890636462127587,0.0,0.0,9.277188200394804E-19,-9598.653441158338,996.5652857112865,9.038681747056308E-4,641.1927000042666,413.26106061159624,0.0,0.0,0.0,0.0,0.0,0.0,0.16052893902683027,11.56626877030462,94.78297001192404
5.100000000000038,2.095522877719936E7,7793.308365885133,0.0,2.0955230226375934E7,0.1031637627965094,0.0,-163.74550066180188,1528.0793803412262,0.0,0.0,0.060685450341869035,163.17719236902525,29583.90091593191,2.8207030622306696E-7,0.0,32.10781307758197,0.0,1.2722219605646492E-14,-0.021308460144733907,0.0,0.0,9.277188200394804E-19,-9790.631542141515,996.6345622179855,9.044031208018478E-4,641.661385257736,413.31851851853025,0.0,0.0,0.0,0.0,0.0,0.0,0.16372822079369806,12.040680414498542,96.67867936240363
5.200000000000071,2.0955212242110163E7,7946.116243824063,0.0,2.0955213748674743E7,0.10935199507001236,0.0,-166.95628426376283,1528.07817453462,0.0,0.0,0.06308864484589174,166.37683236789778,29567.42321474105,2.9899040276997093E-7,0.0,32.107863653875334,0.0,1.2722219640486402E-14,-0.021726284478054626,0.0,0.0,9.277188200394804E-19,-9982.609942073866,996.7052057246827,9.049489104438232E-4,642.1396380648383,413.37711432777604,0.0,0.0,0.0,0.0,0.0,0.0,0.16692683390597976,12.52506047235204,98.57439168031334
5.300000000000105,2.0955195385942344E7,8098.924000011513,0.0,2.0955196951009296E7,0.11578287347295868,0.0,-170.16707296358476,1528.0769453116893,0.0,0.0,0.06553850656322392,169.57647744696686,29550.625549294055,3.1657397472364163E-7,0.0,32.10791521238304,0.0,1.272221967600282E-14,-0.022144109474850748,0.0,0.0,9.277188200394804E-19,-10174.588646818012,996.7772159493976,9.055055584546849E-4,642.6274754268319,413.4368480465217,0.0,0.0,0.0,0.0,0.0,0.0,0.1701247654925833,13.019443130852466,100.4701070238467
5.400000000000138,2.0955178208695397E7,8251.731632105852,0.0,2.095517983337908E7,0.12246106434521398,0.0,-173.37786685931871,1528.075692672283,0.0,0.0,0.06803503567995285,172.77612770394379,29533.50791907683,3.348337832197615E-7,0.0,32.107967753113726,0.0,1.2722219712195743E-14,-0.02256193514788342,0.0,0.0,9.277188200394804E-19,-10366.567662236626,996.8505926047669,9.060730799535346E-4,643.1249146885656,413.49771968208637,0.0,0.0,0.0,0.0,0.0,0.0,0.1733220026962624,13.523863281295737,102.36582545119785
5.500000000000171,2.0955160710368793E7,8404.539137765423,0.0,2.0955162395783577E7,0.1293912340312593,0.0,-176.58866604901698,1528.0744166162478,0.0,0.0,0.07057823238719561,175.97578323654105,29516.070323575288,3.537825895098939E-7,0.0,32.108021276076215,0.0,1.2722219749065163E-14,-0.02297976150991387,0.0,0.0,9.277188200394804E-19,-10558.546994192462,996.9253353980183,9.066514903556796E-4,643.6319735390508,413.5597292418939,0.0,0.0,0.0,0.0,0.0,0.0,0.1765185326738772,14.038356521644008,104.2615470205616
5.600000000000205,2.095514289096201E7,8557.346514648541,0.0,2.0955144638222255E7,0.13657804885833702,0.0,-179.79947063073166,1528.0731171434281,0.0,0.0,0.07316809687814262,179.17544414247106,29498.312762252986,3.7343315490367963E-7,0.0,32.108075781279545,0.0,1.2722219786611091E-14,-0.023397588573703432,0.0,0.0,9.277188200394804E-19,-10750.526648548264,997.001444031073,9.072408053738577E-4,644.1486700129133,413.6228767335522,0.0,0.0,0.0,0.0,0.0,0.0,0.1797143425966299,14.562959158945521,106.1572717901327
5.700000000000238,2.0955124750474487E7,8710.153760413543,0.0,2.0955126560694568E7,0.144026175201998,0.0,-183.010280702517,1528.071794253666,0.0,0.0,0.07580462935260651,182.37511051944824,29480.235234566033,3.937982409500047E-7,0.0,32.108131268732876,0.0,1.2722219824833519E-14,-0.023815416352013657,0.0,0.0,9.277188200394804E-19,-10942.506631166894,997.0789182004869,9.078410410182403E-4,644.6750224907797,413.6871621648002,0.0,0.0,0.0,0.0,0.0,0.0,0.18290941965033092,15.097708211784642,108.05299981810722
5.800000000000272,2.0955106288905673E7,8862.960872718711,0.0,2.0955108163199954E7,0.15174027940140178,0.0,-186.22109636242755,1528.0704479468002,0.0,0.0,0.07848783001247349,185.57478246518735,29461.83773995191,4.148906092073634E-7,0.0,32.10818773844557,0.0,1.2722219863732455E-14,-0.024233244857606074,0.0,0.0,9.277188200394804E-19,-11134.486947911242,997.1577575975057,9.084522135973083E-4,645.2110497004387,413.75258554354804,0.0,0.0,0.0,0.0,0.0,0.0,0.18610375103564064,15.642641412792246,109.94873116268131
5.900000000000305,2.095508750625502E7,9015.767849222326,0.0,2.095508944573788E7,0.1597250278059903,0.0,-189.4319177085189,1528.0690782226625,0.0,0.0,0.08121769905761131,188.77446007740434,29443.120277877897,4.367230213734225E-7,0.0,32.108245190427056,0.0,1.2722219903307889E-14,-0.024651074103242413,0.0,0.0,9.277188200394804E-19,-11326.46760464426,997.2379619078631,9.090743397167565E-4,645.7567707162783,413.8191468777042,0.0,0.0,0.0,0.0,0.0,0.0,0.18929732396836077,16.19779721117041,111.84446588205182
6.000000000000338,2.095506840252198E7,9168.574687582664,0.0,2.095507040830779E7,0.16798508677953006,0.0,-192.6427448388477,1528.067685081088,0.0,0.0,0.08399423669723804,191.97414345381597,29424.08284778893,4.59308239298023E-7,0.0,32.108303624686954,0.0,1.2722219943559824E-14,-0.02506890410168451,0.0,0.0,9.277188200394804E-19,-11518.448607228958,997.319530812011,9.097074362817481E-4,646.3122049616705,413.88684617536137,0.0,0.0,0.0,0.0,0.0,0.0,0.1924901256796447,16.76321477532076,113.74020403441618
6.100000000000372,2.0955048977705855E7,9321.381385457966,0.0,2.095505105090899E7,0.17652512272703103,0.0,-195.8535778514713,1528.0662685219063,0.0,0.0,0.08681744315128673,195.17383269213988,29404.725448988378,4.826590250587357E-7,0.0,32.108363041235414,0.0,1.272221998448827E-14,-0.02548673486569444,0.0,0.0,9.277188200394804E-19,-11710.429961528393,997.4024639856362,9.103515205014169E-4,646.8773722133371,413.95568344522036,0.0,0.0,0.0,0.0,0.0,0.0,0.19568214341614645,17.33893399556984,115.63594567797226
6.200000000000405,2.0955029231806174E7,9474.187940506472,0.0,2.0955031373541016E7,0.1853498019787807,0.0,-199.0644168444483,1528.064828544944,0.0,-2.8411318539600503E-30,0.0896873186267575,198.37352789009478,29385.048081014305,5.067881406457252E-7,0.0,32.10842344008208,0.0,1.2722220026093212E-14,-0.025904566408034187,0.0,0.0,9.277188200394804E-19,-11902.411673405686,997.486761098056,9.110066098768917E-4,647.4522925912635,414.025658695252,0.0,0.0,0.0,0.0,0.0,0.0,0.19887336444058298,17.924995486633637,117.53169087091864
6.300000000000439,2.095500916482229E7,9626.994350386363,0.0,2.0955011376203224E7,0.19446379089374766,0.0,-202.2752619158384,1528.0633651500248,0.0,-2.683975970498052E-30,0.09260386334523107,201.57322914540077,29365.050743222237,5.31708348246437E-7,0.0,32.108484821237234,0.0,1.2722220068374662E-14,-0.026322398741465962,0.0,0.0,9.277188200394804E-19,-12094.393748724047,997.5724218140116,9.116727222157276E-4,648.0369865717903,414.09677193418077,0.0,0.0,0.0,0.0,0.0,0.0,0.20206377603163758,18.521440590619427,119.42743967145461
6.400000000000472,2.095498877675359E7,9779.800612755856,0.0,2.095499105889499E7,0.20387175587406325,0.0,-205.48611316370167,1528.0618783369703,0.0,0.0,0.09556707753013553,204.77293655577796,29344.733434986323,5.574324102871387E-7,0.0,32.108547184711256,0.0,1.2722220111332613E-14,-0.02674023187875217,0.0,0.0,9.277188200394804E-19,-12286.376193346678,997.659445792813,9.123498756257767E-4,648.6314749826739,414.16902317076966,0.0,0.0,0.0,0.0,0.0,0.0,0.20525336548437254,19.128311379697802,121.32319213777961
6.500000000000505,2.0954968067599453E7,9932.606725273143,0.0,2.0954970421615705E7,0.21357836331419833,0.0,-208.69697068609992,1528.0603681055984,0.0,0.0,0.09857696140720137,207.97265021894847,29324.096155703068,5.839730892959079E-7,0.0,32.10861053051457,0.0,1.2722220154967065E-14,-0.027158065832655356,0.0,0.0,9.277188200394804E-19,-12478.35901313691,997.7478326883313,9.1303808851563E-4,649.235779003919,414.242412413807,0.0,0.0,0.0,0.0,0.0,0.0,0.20844212011048302,19.745650658940196,123.21894832809419
6.600000000000539,2.095494703735925E7,10085.412685596364,0.0,2.095494946436474E7,0.22358827958288074,0.0,-211.90783458109604,1528.0588344557248,0.0,0.0,0.10163351520650764,211.17237023263536,29303.13890473917,6.11343147855141E-7,0.0,32.10867485865785,0.0,1.2722220199278021E-14,-0.02757590061593808,0.0,0.0,9.277188200394804E-19,-12670.342213958122,997.8375821492273,9.13737379596939E-4,649.8499201702671,414.3169396722914,0.0,0.0,0.0,0.0,0.0,0.0,0.21163002723849783,20.37350196924612,125.11470830059945
6.700000000000572,2.095492568603233E7,10238.218491383665,0.0,2.095492818714145E7,0.23390617108500766,0.0,-215.11870494675338,1528.057277387161,0.0,0.0,0.10473673916089048,214.37209669456217,29281.861681446433,6.395553487727849E-7,0.0,32.108740169151964,0.0,1.2722220244265481E-14,-0.027993736241363153,0.0,0.0,9.277188200394804E-19,-12862.32580167373,997.9286938188964,9.144477678845024E-4,650.473920371736,414.39260495537945,0.0,0.0,0.0,0.0,0.0,0.0,0.21481707421403656,21.011909590274914,127.01047211349682
6.800000000000606,2.095490401361805E7,10391.024140293162,0.0,2.095490658994519E7,0.24453670431748264,0.0,-218.32958188113702,1528.0556968997173,0.0,0.0,0.10788663350708053,217.5718297024542,29260.26448518783,6.686224552369593E-7,0.0,32.10880646200784,0.0,1.2722220289929445E-14,-0.028411572721693475,0.0,0.0,9.277188200394804E-19,-13054.309782147253,998.021167335363,9.151692726960019E-4,651.1078018538532,414.4694082722924,0.0,0.0,0.0,0.0,0.0,0.0,0.21800324840008012,21.66091854341677,128.90623982498875
6.900000000000639,2.0954882020115737E7,10543.829629982974,0.0,2.0954884672775295E7,0.2554845455896775,0.0,-221.54046548231247,1528.0540929932013,0.0,1.7379591818150416E-30,0.11108319848729419,220.77156935403715,29238.34731529653,6.985572300535829E-7,0.0,32.10887373723666,0.0,1.2722220336269904E-14,-0.02882941006969215,0.0,0.0,9.277188200394804E-19,-13246.29416124223,998.1150023314644,9.159019136539728E-4,651.751587219864,414.5473496324623,0.0,0.0,0.0,0.0,0.0,0.0,0.22118853717717582,22.32057459486334,130.802011493278
7.000000000000672,2.0954859705524728E7,10696.634958111174,0.0,2.09548624356311E7,0.26675436129541996,0.0,-224.75135584834698,1528.0524656674163,0.0,0.0,0.11432643434445916,223.97131574703855,29216.110171098262,7.293724363920014E-7,0.0,32.108941994849786,0.0,1.272222038328688E-14,-0.029247248298122343,0.0,0.0,9.277188200394804E-19,-13438.278944822312,998.2101984347617,9.166457106856772E-4,652.4052994311033,414.62642904545237,0.0,0.0,0.0,0.0,0.0,0.0,0.22437292794370206,22.990924258681474,132.69778717656823
7.100000000000706,2.0954837069844335E7,10849.440122335813,0.0,2.0954839878511913E7,0.2783508178383327,0.0,-227.96225307730865,1528.0508149221635,0.0,0.0,0.11761634132698921,227.17106897918646,29193.55305191502,7.610808375827975E-7,0.0,32.10901123485866,0.0,1.2722220430980347E-14,-0.029665087419747396,0.0,0.0,9.277188200394804E-19,-13630.264138751187,998.3067552675316,9.174006840236108E-4,653.0689618079316,414.7066465209436,0.0,0.0,0.0,0.0,0.0,0.0,0.22755640811611383,23.672014799949366,134.59356693306367
7.200000000000739,2.0954814113073863E7,11002.245120314947,0.0,2.0954817001417052E7,0.29027858165300824,0.0,-231.17315726726676,1528.0491407572397,0.0,0.0,0.1209529196849195,230.37082914821065,29170.675957050174,7.936951971776377E-7,0.0,32.109081457274996,0.0,1.2722220479350325E-14,-0.03008292744733086,0.0,0.0,9.277188200394804E-19,-13822.249748892638,998.404672446838,9.181668542066299E-4,653.7425980312255,414.788002068788,0.0,0.0,0.0,0.0,0.0,0.0,0.23073896512917014,24.3638942379587,136.48935082096932
7.3000000000007725,2.0954790835212637E7,11155.0499497066,0.0,2.0954793804345842E7,0.30254231914384366,0.0,-234.38406851629196,1528.0474431724415,0.0,1.1062541600560283E-30,0.12433616967217961,233.57059635184166,29147.47888584435,8.272282787839815E-7,0.0,32.10915266211047,0.0,1.2722220528396799E-14,-0.030500768393636326,0.0,0.0,9.277188200394804E-19,-14014.2357811105,998.503949584301,9.189442420787329E-4,654.4262321418122,414.87049569880975,0.0,0.0,0.0,0.0,0.0,0.0,0.23392058643623043,25.066611349404933,138.3851388984909
7.400000000000806,2.0954767236259907E7,11307.854608168767,0.0,2.095477028729753E7,0.3151466967522607,0.0,-237.59498692245566,1528.0457221675606,0.0,0.0,0.12776609154909543,236.77037068781124,29123.961837530136,8.616928462508308E-7,0.0,32.10922484937724,0.0,1.272222057811978E-14,-0.030918610271427633,0.0,0.0,9.277188200394804E-19,-14206.222241268675,998.6045862867255,9.197328687945805E-4,655.1198885458388,414.95412742132197,0.0,0.0,0.0,0.0,0.0,0.0,0.23710125950934924,25.780215671808058,140.28093122383459
7.500000000000839,2.0954743316214994E7,11460.659093359427,0.0,2.0954746450271443E7,0.3280963808895745,0.0,-240.80591258383072,1528.0439777423878,0.0,0.0,0.1312426855762498,239.97015225385238,29100.12481144443,8.9710166348712E-7,0.0,32.1092980190873,0.0,1.2722220628519262E-14,-0.03133645309346874,0.0,0.0,9.277188200394804E-19,-14398.209135231142,998.7065821552012,9.205327558130461E-4,655.8235920096228,415.03889724637133,0.0,0.0,0.0,0.0,0.0,0.0,0.24028097183972813,26.50475750666147,142.1767278552075
7.600000000000873,2.0954719075077146E7,11613.463402936548,0.0,2.0954722293266833E7,0.3413960380076473,0.0,-244.01684559849133,1528.0422098967083,0.0,0.0,0.13476595201857597,243.16994114769943,29075.967806834728,9.334674946568595E-7,0.0,32.10937217125302,0.0,1.2722220679595247E-14,-0.03175429687252376,0.0,0.0,9.277188200394804E-19,-14590.196468861966,998.8099367859396,9.213439249043853E-4,656.5373676664881,415.1248051844273,0.0,0.0,0.0,0.0,0.0,0.0,0.24345971093775912,27.240287923001297,144.0725288508175
7.700000000000906,2.0954694512845624E7,11766.26753455808,0.0,2.095469781628297E7,0.3550503345617031,0.0,-247.227786064513,1528.0404186303074,0.0,0.0,0.13833589114694894,246.36973746708816,29051.490822970867,9.708031040794059E-7,0.0,32.109447305886874,0.0,1.2722220731347741E-14,-0.03217214162135704,0.0,0.0,9.277188200394804E-19,-14782.184248025289,998.9146497698039,9.221663981471709E-4,657.2612410146085,415.2118512459845,0.0,0.0,0.0,0.0,0.0,0.0,0.2466374643333746,27.986858760745857,145.96833426887312
7.8000000000009395,2.0954669629519686E7,11919.071485881923,0.0,2.09546730193191E7,0.3690639369800772,0.0,-250.43873407997194,1528.0386039429661,0.0,0.0,0.1419525032329555,249.56954130975475,29026.69385910034,1.0091212561487024E-6,0.0,32.10952342300152,0.0,1.2722220783776734E-14,-0.03258998735273297,0.0,0.0,9.277188200394804E-19,-14974.172478585286,999.0207206925081,9.230001979304879E-4,657.9952379194846,415.3000354417217,0.0,0.0,0.0,0.0,0.0,0.0,0.24981421957623748,28.744522634232265,147.86414416758348
7.900000000000973,2.0954644425098564E7,12071.875254565966,0.0,2.0954647902374458E7,0.3834415117119345,0.0,-253.6496897429464,1528.0367658344612,0.0,0.0,0.14561578855207857,252.76935277343773,29001.576914459467,1.0484347154657036E-6,0.0,32.10960052260977,0.0,1.2722220836882224E-14,-0.03300783407941614,0.0,0.0,9.277188200394804E-19,-15166.161166406264,999.1281491345785,9.23845346954266E-4,658.7393846147913,415.3893577824622,0.0,0.0,0.0,0.0,0.0,0.0,0.252989964235989,29.51333293575221,149.75995860515886
8.000000000001005,2.0954618899581484E7,12224.678838268093,0.0,2.095462246544829E7,0.3981877252310797,0.0,-256.86065315151507,1528.0349043045687,0.0,0.0,0.14932574738506105,255.96917195587596,28976.13998829201,1.0887562468507431E-6,0.0,32.10967860472457,0.0,1.2722220890664225E-14,-0.03342568181417139,0.0,0.0,9.277188200394804E-19,-15358.150317352558,999.236934671281,9.247018682293598E-4,659.4937077030113,415.47981827910723,0.0,0.0,0.0,0.0,0.0,0.0,0.2561646859025023,30.293343839128333,151.6557776398097
8.10000000000095,2.0954593052967675E7,12377.482234646157,0.0,2.095459670853981E7,0.41330724400241525,0.0,-260.07162440375856,1528.0330193530626,0.0,0.0,0.15308238001654184,259.1689989548101,28950.38307981193,1.1300986152537725E-6,0.0,32.10975766935909,0.0,1.2722220945122723E-14,-0.03384353056976366,0.0,0.0,9.277188200394804E-19,-15550.139937288606,999.3470768727906,9.255697850795327E-4,660.2582341577515,415.571416942769,0.0,0.0,0.0,0.0,0.0,0.0,0.2593383721860767,31.08461030340369,153.55160132974774
8.200000000000895,2.0954566885256335E7,12530.285441357975,0.0,2.095457063164823E7,0.4288047344913455,0.0,-263.2826035977587,1528.0311109797092,0.0,0.0,0.1568856867305086,262.3688338679822,28924.306188233197,1.1724745857820245E-6,0.0,32.10983771652666,0.0,1.2722221000257726E-14,-0.03426138035895804,0.0,0.0,9.277188200394804E-19,-15742.13003207893,999.4585753040717,9.264491211411804E-4,661.0329913240798,415.66415378466434,0.0,0.0,0.0,0.0,0.0,0.0,0.2625110107177023,31.887188076510878,155.44742973318534
8.30000000000084,2.0954540396446686E7,12683.088456061361,0.0,2.0954544234772764E7,0.44468486317476685,0.0,-266.49359083159834,1528.0291791842774,0.0,0.0,0.16073566781825555,265.5686767931352,28897.909312766045,1.2158969237320144E-6,0.0,32.109918746240695,0.0,1.2722221056069235E-14,-0.034679231194519836,0.0,0.0,9.277188200394804E-19,-15934.120607588111,999.5714295249028,9.273399003642034E-4,661.8180069198793,415.758028816128,0.0,0.0,0.0,0.0,0.0,0.0,0.2656825891492874,32.70113369902865,157.34326290833545
8.400000000000784,2.095451358653791E7,12835.891276414091,0.0,2.0954517517912608E7,0.46095229653149783,0.0,-269.70458620336177,1528.0272239665298,0.0,0.0,0.1646323235733819,268.76852782801353,28871.19245260954,1.2603783945653234E-6,0.0,32.11000075851482,0.0,1.2722221112557243E-14,-0.03509708308921455,0.0,0.0,9.277188200394804E-19,-16126.111669680811,999.6856390899173,9.282421470130053E-4,662.6133090373231,415.85304204863905,0.0,0.0,0.0,0.0,0.0,0.0,0.26885309515388184,33.526504507996066,159.23910091341202
8.500000000000728,2.0954486455529176E7,12988.693900073924,0.0,2.095449048106693E7,0.4776117010626635,0.0,-272.915589811135,1528.0252453262283,0.0,0.0,0.1685756542949753,271.9683870703633,28844.155606936663,1.305931763966289E-6,0.0,32.11008375336288,0.0,1.2722221169721754E-14,-0.03551493605580779,0.0,0.0,9.277188200394804E-19,-16318.103224221797,999.8012035486768,9.291558856677647E-4,663.418926144599,415.94919349387425,0.0,0.0,0.0,0.0,0.0,0.0,0.27202251642588915,34.36335864079027,161.1349438066298
8.600000000000673,2.0954459003419694E7,13141.496324698579,0.0,2.0954463124234945E7,0.4946677432265103,0.0,-276.1266017530057,1528.0232432631292,0.0,0.0,0.17256566027988085,275.16825461793235,28816.798774950206,1.3525697976657154E-6,0.0,32.11016773079877,0.0,1.2722221227562768E-14,-0.035932790107065356,0.0,0.0,9.277188200394804E-19,-16510.09527707594,999.91812244544,9.300811412233146E-4,664.2348870855327,416.0464831635089,0.0,0.0,0.0,0.0,0.0,0.0,0.27519084068136024,35.21175503896895,163.03079164620465
8.700000000000617,2.0954431230208557E7,13294.298547945775,0.0,2.0954435447415743E7,0.5121250895702092,0.0,-279.33762212706176,1528.0212177769906,0.0,0.0,0.17660234184043688,278.36813056846876,28789.121955748647,1.400305261803223E-6,0.0,32.110252690836795,0.0,1.2722221286080287E-14,-0.03635064525575335,0.0,0.0,9.277188200394804E-19,-16702.087834108126,1000.0363953197461,9.310179388944605E-4,665.0612210848969,416.14491106969405,0.0,0.0,0.0,0.0,0.0,0.0,0.2783580556580627,36.07175345240473,164.9266444903526
8.800000000000562,2.095440313589497E7,13447.100567473197,0.0,2.095440745060853E7,0.529988406574442,0.0,-282.5486510313936,1528.0191688675627,0.0,0.0,0.18068569927900863,281.5680150197229,28761.125148534775,1.449150922504239E-6,0.0,32.110338633491125,0.0,1.2722221345274307E-14,-0.03676850151463792,0.0,0.0,9.277188200394804E-19,-16894.080901183373,1000.1560217055322,9.319663042097154E-4,665.8979577435157,416.24447722431455,0.0,0.0,0.0,0.0,0.0,0.0,0.2815241491159543,36.94341444303837,166.8225023972911
8.900000000000507,2.0954374720478054E7,13599.902380938503,0.0,2.095437913381244E7,0.5482623607622097,0.0,-285.759688564092,1528.017096534596,0.0,0.0,0.18481573290958908,284.7679080694458,28732.80835244432,1.4991195461794746E-6,0.0,32.11042555877625,0.0,1.2722221405144832E-14,-0.03718635889648544,0.0,0.0,9.277188200394804E-19,-17086.074484166747,1000.2770011318747,9.32926263017898E-4,666.7451270447182,416.34518163959837,0.0,0.0,0.0,0.0,0.0,0.0,0.284689108837206,37.82679938916802,168.71836542523786
9.000000000000451,2.095434598395696E7,13752.703985999324,0.0,2.095435049702662E7,0.5669516186350911,0.0,-288.97073482325044,1528.0150007778377,0.0,0.0,0.18899244304734072,287.96780981539086,28704.171566624194,1.5502238993525815E-6,0.0,32.11051346670675,0.0,1.2722221465691861E-14,-0.037604217414062474,0.0,0.0,9.277188200394804E-19,-17278.068588923452,1000.3993331226645,9.338978414862976E-4,667.6027593533659,416.44702432783845,0.0,0.0,0.0,0.0,0.0,0.0,0.28785292262652123,38.72197048947453,170.6142336324121
9.100000000000396,2.0954316926330794E7,13905.505380313276,0.0,2.095432154025018E7,0.5860608467396284,0.0,-292.1817899069633,1528.0128815970297,0.0,0.0,0.1932158300101868,291.1677203553127,28675.21479018405,1.6024767488436262E-6,0.0,32.11060235729749,0.0,1.2722221526915387E-14,-0.03802207708013584,0.0,0.0,9.277188200394804E-19,-17470.063221318764,1000.523017196824,9.348810661031335E-4,668.4708854186769,416.55000530156497,0.0,0.0,0.0,0.0,0.0,0.0,0.2910155783112992,39.62899076726708,172.51010707703375
9.20000000000034,2.0954287547598675E7,14058.306561537918,0.0,2.0954292263482247E7,0.6055947115788909,0.0,-295.3928539133258,1528.0107389919135,0.0,0.0,0.19748589412062925,294.36763978696666,28645.938022252172,1.6558908615292259E-6,0.0,32.110692230563366,0.0,1.2722221588815419E-14,-0.03843993790747237,0.0,0.0,9.277188200394804E-19,-17662.058387218,1000.6480528680768,9.358759636764927E-4,669.3495363739491,416.6541245733466,0.0,0.0,0.0,0.0,0.0,0.0,0.2941770637419256,40.54792407463963,174.4059858173231
9.300000000000285,2.095425784775972E7,14211.107527330829,0.0,2.0954262666721936E7,0.6255578797059647,0.0,-298.60392694043617,1528.008572962228,0.0,-2.0522709487390385E-30,0.2018026357050696,297.5675682081109,28616.341261945665,1.7104790046001307E-6,0.0,32.11078308651948,0.0,1.2722221651391952E-14,-0.0388577999088393,0.0,0.0,9.277188200394804E-19,-17854.054092486655,1000.7744396450861,9.368825613361821E-4,670.238743738866,416.7593821558966,0.0,0.0,0.0,0.0,0.0,0.0,0.2973373667919604,41.47883509680073,176.30186991150228
9.40000000000023,2.095422782681299E7,14363.908275349537,0.0,2.0954232749968305E7,0.645955017678923,0.0,-301.8150090863923,1528.0063835077074,0.0,0.0,0.20616605509403352,300.7675057165036,28586.42450831458,1.7662539454400563E-6,0.0,32.110874925181285,0.0,1.2722221714644989E-14,-0.039275663097004004,0.0,0.0,9.277188200394804E-19,-18046.050342990216,1000.9021770317022,9.379008865364802E-4,671.1385394226058,416.8657780622712,0.0,0.0,0.0,0.0,0.0,0.0,0.3004964753582837,42.421789356502366,178.1977594177932
9.500000000000174,2.0954197484757587E7,14516.708803251537,0.0,2.0954202513220474E7,0.6667907920355303,0.0,-305.02610044929514,1528.0041706280838,0.0,0.0,0.2105761526194444,303.96745240990566,28556.187760483474,1.8232284515584553E-6,0.0,32.11096774656409,0.0,1.272222177857453E-14,-0.03969352748473397,0.0,0.0,9.277188200394804E-19,-18238.04714459434,1001.0312645263684,9.389309670521799E-4,672.0489557210342,416.9733123053667,0.0,0.0,0.0,0.0,0.0,0.0,0.30365437736149764,43.37685321822647,180.09365439441953
9.600000000000119,2.0954166821592584E7,14669.509108694318,0.0,2.0954171956477508E7,0.6880698693382135,0.0,-308.23720112724646,1528.001934323087,0.0,0.0,0.21503292861826095,307.16740838607893,28525.6310175173,1.8814152907154482E-6,0.0,32.11106155068356,0.0,1.2722221843180574E-14,-0.04011139308479699,0.0,0.0,9.277188200394804E-19,-18430.044503164736,1001.161701622703,9.399728309840274E-4,672.9700253222028,417.0819848983958,0.0,0.0,0.0,0.0,0.0,0.0,0.3068110607459733,44.344093892840256,181.98955489960554
9.700000000000063,2.0954135837317053E7,14822.309189335298,0.0,2.095414107973849E7,0.7097969161232234,0.0,-311.4483112183502,1527.9996745924443,0.0,0.0,0.21953638343134002,310.36737374278744,28494.754278499633,1.940827230784757E-6,0.0,32.11115633755544,0.0,1.2722221908463121E-14,-0.040529259909960924,0.0,0.0,9.277188200394804E-19,-18622.042424567248,1001.2934878091761,9.410265067569335E-4,673.9017813054758,417.1917958546099,0.0,0.0,0.0,0.0,0.0,0.0,0.309966513480169,45.32357944198588,183.88546099157662
9.800000000000008,2.0954104531930033E7,14975.109042831931,0.0,2.0954109883002453E7,0.7319765990004488,0.0,-314.65943082071055,1527.9973914358784,0.0,2.8411318539600503E-30,0.22408651740230068,313.5673485777954,28463.557542461902,2.00147704002859E-6,0.0,32.111252107195774,0.0,1.2722221974422169E-14,-0.04094712797299402,0.0,0.0,9.277188200394804E-19,-18814.040914667727,1001.4266225694215,9.420920231232806E-4,674.844257145166,417.30274518755067,0.0,0.0,0.0,0.0,0.0,0.0,0.31312072355675236,46.31537878275964,185.7813727285586
9.899999999999952,2.0954072905430574E7,15127.9086668416,0.0,2.095407836626846E7,0.7546135845320547,0.0,-317.8705600324348,1527.9950848531105,0.0,0.0,0.2286833308786612,316.7673329888701,28432.040808472782,2.063377486767741E-6,0.0,32.11134885962058,0.0,1.2722222041057716E-14,-0.04136499728666463,0.0,0.0,9.277188200394804E-19,-19006.039979332207,1001.5611053818656,9.431694091607733E-4,675.7974867093559,417.414832910732,0.0,0.0,0.0,0.0,0.0,0.0,0.31627367899293557,47.31956169218872,187.67729016877882
9.999999999999897,2.0954040957817715E7,15280.708059021672,0.0,2.0954046529535543E7,0.7777125393005235,0.0,-321.081698951631,1527.9927548438586,0.0,0.0,0.23332682421115636,319.9673270737798,28400.20407555625,2.1265413395695954E-6,0.0,32.1114465948462,0.0,1.272222210836977E-14,-0.041782867863741274,0.0,0.0,9.277188200394804E-19,-19198.03962442679,1001.696935720087,9.442586942761478E-4,676.7615042639089,417.5280590379314,0.0,0.0,0.0,0.0,0.0,0.0,0.31942536783057934,48.33619881204394,189.57321337046525
10.099999999999842,2.095400868909046E7,15433.507217029486,0.0,2.095401437280272E7,0.8012781299158558,0.0,-324.2928476764092,1527.990401407838,0.0,0.0,0.23801699775578522,323.1673309302945,28368.04734273255,2.1909813672697734E-6,0.0,32.111545312889106,0.0,1.2722222176358325E-14,-0.04220073971699284,0.0,0.0,9.277188200394804E-19,-19390.03985581767,1001.8341130526528,9.453599082046916E-4,677.7363444727857,417.64242358304466,0.0,0.0,0.0,0.0,0.0,0.0,0.32257577813646054,49.36536165350785,191.46914239184713
10.199999999999786,2.0953976099247843E7,15586.306138522346,0.0,2.095398189606902E7,0.8253150229587352,0.0,-327.5040063048813,1527.988024544761,0.0,0.0,0.24275385186994466,326.36734465618616,28335.570609033108,2.2567103388186675E-6,0.0,32.11164501376588,0.0,1.2722222245023383E-14,-0.04261861285918825,0.0,0.0,9.277188200394804E-19,-19582.04067937117,1001.972636843065,9.464730810106651E-4,678.722042399164,417.75792656003233,0.0,0.0,0.0,0.0,0.0,0.0,0.325724898002505,50.40712260193825,193.36507729115448
10.29999999999973,2.0953943188288867E7,15739.104821157538,0.0,2.0953949099333458E7,0.8498278850413188,0.0,-330.7151749351599,1527.9856242543367,0.0,0.0,0.24753738691515836,329.5673683492273,28302.77387347445,2.3237410234496234E-6,0.0,32.11174569749327,0.0,1.2722222314364945E-14,-0.043036487303096733,0.0,0.0,9.277188200394804E-19,-19774.042100953637,1002.1125065498828,9.475982430891318E-4,679.7186335078168,417.8745679830129,0.0,0.0,0.0,0.0,0.0,0.0,0.32887271554596215,51.46155492176172,195.26101812661813
10.399999999999675,2.0953909956212528E7,15891.903262592297,0.0,2.095391598259502E7,0.8748213827628568,0.0,-333.92635366536047,1527.9832005362712,0.0,0.0,0.25236760325571383,332.76740210719356,28269.657135035843,2.3920861905595415E-6,0.0,32.11184736408827,0.0,1.2722222384383013E-14,-0.0434543630614877,0.0,0.0,9.277188200394804E-19,-19966.044126431614,1002.253721626828,9.487354251676833E-4,680.7261536674048,417.992347866342,0.0,0.0,0.0,0.0,0.0,0.0,0.3320192189095846,52.52873276142416,197.1569649564703
10.49999999999962,2.0953876403017808E7,16044.701460483851,0.0,2.0953882545852702E7,0.9003001827537567,0.0,-337.1375425935992,1527.9807533902683,0.0,0.0,0.2572445012613896,335.96744602786123,28236.22039271891,2.4617586098313116E-6,0.0,32.11195001356798,0.0,1.272222245507758E-14,-0.043872240147130835,0.0,0.0,9.277188200394804E-19,-20158.046761671674,1002.3962815225424,9.498846583053514E-4,681.7446391502901,418.1112662244007,0.0,0.0,0.0,0.0,0.0,0.0,0.33516439626191774,53.60873115824419,199.05291783894376
10.599999999999564,2.0953842528703608E7,16197.499412489406,0.0,2.095384878910541E7,0.9262689517136762,0.0,-340.34874181799455,1527.9782828160296,0.0,0.0,0.2621680813108681,339.16750020900844,28202.463645432144,2.532771051339941E-6,0.0,32.11205364594985,0.0,1.2722222526448647E-14,-0.044290118572796196,0.0,0.0,9.277188200394804E-19,-20350.050012540505,1002.5401856810905,9.510459738975492E-4,682.7741266376981,418.2313230720059,0.0,0.0,0.0,0.0,0.0,0.0,0.33830823579734426,54.701626043658194,200.94887683227262
10.699999999999509,2.0953808333269026E7,16350.297116266114,0.0,2.0953814712352242E7,0.9527323561659635,0.0,-343.5599514366665,1527.9757888132503,0.0,0.0,0.26713834376740275,342.36756474841553,28168.386892262846,2.6051362848830168E-6,0.0,32.112158261251,0.0,1.272222259849622E-14,-0.0447079983512536,0.0,0.0,9.277188200394804E-19,-20542.053884904934,1002.6854335408112,9.522194036676999E-4,683.8146532130899,418.3525184234435,0.0,0.0,0.0,0.0,0.0,0.0,0.34145072573667923,55.80749424776852,202.844841994692
10.799999999999454,2.0953773816712968E7,16503.09456947109,0.0,2.0953780315592106E7,0.9796950627759653,0.0,-346.771171547737,1527.9732713816286,0.0,0.0,0.27215528901770375,345.5676397438643,28133.990132126957,2.6788670808530828E-6,0.0,32.11226385948916,0.0,1.2722222671220291E-14,-0.04512587949527344,0.0,0.0,9.277188200394804E-19,-20734.058384631855,1002.832024535822,9.534049796802742E-4,684.8662563745207,418.4748522937135,0.0,0.0,0.0,0.0,0.0,0.0,0.3445918543268745,56.926413505166636,204.740813384438
10.899999999999398,2.0953738979034364E7,16655.891769761452,0.0,2.0953745598823942E7,1.007161738231014,0.0,-349.9824022493293,1527.9707305208553,0.0,0.0,0.2772189174446514,348.767725293138,28099.273363966495,2.7539762099114017E-6,0.0,32.11237044068211,0.0,1.2722222744620868E-14,-0.045543762017626346,0.0,0.0,9.277188200394804E-19,-20926.06351758828,1002.9799580951882,9.54602734335E-4,685.9289740303212,418.59832469782816,0.0,0.0,0.0,0.0,0.0,0.0,0.347731609841503,58.05846245974865,206.63679105974757
10.999999999999343,2.095370382023216E7,16808.688714794273,0.0,2.095371056204669E7,1.035137049180321,0.0,-353.19364363956896,1527.9681662306195,0.0,0.0,0.28232922943389,351.9678214940222,28064.236586716026,2.830476442825559E-6,0.0,32.11247800484784,0.0,1.2722222818697948E-14,-0.045961645931083116,0.0,0.0,9.277188200394804E-19,-21118.06928964133,1003.1292336430768,9.558127003690346E-4,687.0028445018424,418.7229356509308,0.0,0.0,0.0,0.0,0.0,0.0,0.35086998058091484,59.203720670038415,208.53277507885906
11.099999999999287,2.0953668340305287E7,16961.485402226583,0.0,2.0953675205259293E7,1.063625662276932,0.0,-356.40489581658306,1527.965578510608,0.0,0.0,0.28748622537610174,355.16792844430404,28028.87979931757,2.9083805505861416E-6,0.0,32.11258655200439,0.0,1.2722222893451532E-14,-0.04637953124841474,0.0,0.0,9.277188200394804E-19,-21310.07570665824,1003.2798505987048,9.570349108574642E-4,688.0879065247296,418.84868516824326,0.0,0.0,0.0,0.0,0.0,0.0,0.35400695487246064,60.36226861447102,210.42876550001174
11.199999999999232,2.095363253925264E7,17114.28182971541,0.0,2.095363952846064E7,1.0926322442413188,0.0,-359.6161588785003,1527.9629673605039,0.0,0.0,0.2926899056658708,358.3680462417719,27993.203000668436,2.9877013045825743E-6,0.0,32.112696082170096,0.0,1.2722222968881613E-14,-0.04679741798239259,0.0,0.0,9.277188200394804E-19,-21502.082774506314,1003.4318083765726,9.582693992161463E-4,689.1841992522837,418.97557326525094,0.0,0.0,0.0,0.0,0.0,0.0,0.35714252107061323,61.53418769688251,212.32476238144568
11.299999999999176,2.0953596417073146E7,17267.077994917698,0.0,2.095360353164968E7,1.1221614616958622,0.0,-362.8274329234518,1527.9603327799887,0.0,0.0,0.2979402707000906,361.56817498421725,27957.20618970692,3.068451476152478E-6,0.0,32.11280659536333,0.0,1.2722223044988202E-14,-0.04721530614578802,0.0,0.0,9.277188200394804E-19,-21694.090499053036,1003.5851063861106,9.595161991997872E-4,690.2917622546033,419.1035999573986,0.0,0.0,0.0,0.0,0.0,0.0,0.36027666755729665,62.7195602517606,214.22076578140255
11.399999999999121,2.095355997376569E7,17419.873895490375,0.0,2.095356721482528E7,1.1522179813394864,0.0,-366.03871804957043,1527.9576747687395,0.0,-5.3617889651740646E-30,0.30323732088001204,364.7683147694327,27920.889365311712,3.1506438370611554E-6,0.0,32.112918091602765,0.0,1.2722223121771291E-14,-0.047633195751372794,0.0,0.0,9.277188200394804E-19,-21886.098886165964,1003.7397440321188,9.607753449064769E-4,691.4106355234695,419.23276526044754,0.0,0.0,0.0,0.0,0.0,0.0,0.36340938274193146,63.91846954996341,216.11677575812504
11.499999999999066,2.0953523209329166E7,17572.669529090388,0.0,2.095353057798635E7,1.1828064698911263,0.0,-369.2500143549903,1527.9549933264311,0.0,0.0,0.30858105660942353,367.9684656952125,27884.25252638012,3.23429115934895E-6,0.0,32.113030570907135,0.0,1.2722223199230883E-14,-0.048051086811918935,0.0,0.0,9.277188200394804E-19,-22078.10794171275,1003.8957207144457,9.620468707760469E-4,692.540859471755,419.36306919019785,0.0,0.0,0.0,0.0,0.0,0.0,0.3665406550617489,65.13099980410468,218.01279236985664
