time,gePosition_ft_X,gePosition_ft_Y,gePosition_ft_Z,feVelocity_ft_s_X,feVelocity_ft_s_Y,feVelocity_ft_s_Z,altitudeMsl_ft,longitude_deg,latitude_deg,localGravity_ft_s2,eulerAngle_deg_Yaw,eulerAngle_deg_Pitch,eulerAngle_deg_Roll,bodyAngularRateWrtEi_deg_s_Roll,bodyAngularRateWrtEi_deg_s_Pitch,bodyAngularRateWrtEi_deg_s_Yaw,altitudeRateWrtMsl_ft_min,speedOfSound_ft_s,airDensity_slug_ft3,ambientPressure_lbf_ft2,ambientTemperature_dgR,aero_bodyForce_lbf_X,aero_bodyForce_lbf_Y,aero_bodyForce_lbf_Z,aero_bodyMoment_ftlbf_L,aero_bodyMoment_ftlbf_M,aero_bodyMoment_ftlbf_N,mach,dynamicPressure_lbf_ft2,trueAirspeed_nmi_h
0.0,2.09556463253E7,0.0,0.0,0.0,0.0,0.0,30000.0,0.0,0.0,32.1065364063,0.0,-0.0,0.0,0.0,0.0,0.0,0.0,994.853991834,8.91300230208E-4,630.333405472,411.83924,0.0,0.0,-0.0,0.0,0.0,0.0,0.0,0.0,0.0
0.1,2.09556461659E7,7.77706631909E-7,0.0,0.0,2.32534282532E-5,3.19951050252,29999.8405577,2.12636285968E-12,0.0,32.1065368662,0.0,0.0,-4.1780742375497725E-4,0.0,0.0,0.0,-191.9706301512,994.85468063,8.91305280419E-4,630.337770167,411.839806896,0.0,0.0,-0.0,0.0,0.0,0.0,0.0032160581489,0.00456208700938,1.89565814162
0.2,2.09556456859E7,6.22165305763E-6,0.0,0.0,9.32470270527E-5,6.3990210999,29999.3606311,1.70109032735E-11,0.0,32.1065383065,0.0,0.0,-8.356148602685786E-4,0.0,0.0,0.0,-383.941265994,994.856753928,8.91320481722E-4,630.350908046,411.841513271,0.0,0.0,-0.0,0.0,0.0,0.0,0.00643210298902,0.0182486598089,3.79131633973
0.3,2.09556448861E7,2.09980791367E-5,0.0,0.0,2.09903031191E-4,9.59853188979,29998.5607535,5.74118009231E-11,0.0,32.1065407287,0.0,0.0,-0.0012534223222965635,0.0,0.0,0.0,-575.9119133874,994.860209425,8.91345817228E-4,630.372804512,411.844357229,0.0,0.0,-0.0,0.0,0.0,0.0,0.00964812121458,0.0410606537367,5.68697465252
0.4,2.09556437662E7,4.97732248721E-5,0.0,0.0,3.73221449308E-4,12.7980429699,29997.4409248,1.36087239779E-10,0.0,32.106544133,0.0,0.0,-0.001671229822603859,0.0,0.0,0.0,-767.882578194,994.86504712,8.91381286938E-4,630.403459565,411.848338772,0.0,0.0,-0.0,0.0,0.0,0.0,0.0128640995202,0.0729996277068,7.58263313815
0.5,2.09556423265E7,9.72133304695E-5,0.0,0.0,5.83202293683E-4,15.9975544379,29996.0011449,2.65795410207E-10,0.0,32.1065485192,0.0,0.0,-0.002089037373938775,0.0,0.0,0.0,-959.853266274,994.871267015,8.91426890853E-4,630.442873206,411.853457897,0.0,0.0,-0.0,0.0,0.0,0.0,0.0160800246011,0.114067764209,9.47829185481
0.6,2.09556405667E7,1.67984636415E-4,0.0,0.0,8.39845580231E-4,19.1970663914,29994.2414139,4.59294511135E-10,0.0,32.1065538874,0.0,0.0,-0.0025068449890668127,0.0,0.0,0.0,-1151.823983484,994.878869109,8.91482628973E-4,630.491045436,411.859714607,0.0,0.0,-0.0,0.0,0.0,0.0,0.0192958831531,0.16426786931,11.3739508607
0.7,2.0955638487E7,2.66753383551E-4,0.0,0.0,0.00114315132873,22.3965789283,29992.1617316,7.29342752202E-10,0.0,32.1065602376,0.0,0.0,-0.002924652680742012,0.0,0.0,0.0,-1343.7947356979998,994.887853403,8.91548501302E-4,630.547976257,411.867108901,0.0,0.0,-0.0,0.0,0.0,0.0,0.0225116618731,0.223603372655,13.2696102139
0.8,2.09556360874E7,3.98185813144E-4,0.0,0.0,0.00149311956261,25.5960921461,29989.762098,1.0886983559E-9,0.0,32.1065675699,0.0,0.0,-0.0033424604617298716,0.0,0.0,0.0,-1535.765528766,994.898219896,8.9162450784E-4,630.61366567,411.875640778,0.0,0.0,-0.0,0.0,0.0,0.0,0.025727347459,0.292078327469,15.1652699728
0.9,2.09556333678E7,5.66948166948E-4,0.0,0.0,0.00188975030778,28.7956061425,29987.0425131,1.55011955967E-9,0.0,32.1065758841,0.0,0.0,-0.003760268344778703,0.0,0.0,0.0,-1727.73636855,994.90996859,8.9171064859E-4,630.688113678,411.885310241,0.0,0.0,-0.0,0.0,0.0,0.0,0.0289429266101,0.369697410557,17.0609301954
1.0,2.09556303283E7,7.77706687291E-4,0.0,0.0,0.0023330435954,31.9951210153,29984.0029768,2.12636461814E-9,0.0,32.1065851803,0.0,0.0,-0.004178076342654007,0.0,0.0,0.0,-1919.707260918,994.923099483,8.91806923554E-4,630.771320283,411.896117288,0.0,0.0,-0.0,0.0,0.0,0.0,0.032158386027,0.456465922306,18.9565909399
1.1,2.09556269688E7,0.00103512761714,0.0,0.0,0.00282299945843,35.1946368621,29980.6434889,2.83019180518E-9,0.0,32.1065954585,0.0,0.0,-0.004595884468109823,0.0,0.0,0.0,-2111.678211726,994.937612578,8.91913332737E-4,630.863285487,411.90806192,0.0,0.0,-0.0,0.0,0.0,0.0,0.0353737124121,0.552389786689,20.8522522645
1.2,2.09556232894E7,0.00134387720015,0.0,0.0,0.00335961793462,38.3941537806,29976.9640494,3.67435941606E-9,0.0,32.1066067187,0.0,0.0,-0.005013692733905921,0.0,0.0,0.0,-2303.649226836,994.953507874,8.9202987614E-4,630.964009293,411.921144138,0.0,0.0,-0.0,0.0,0.0,0.0,0.0385888924696,0.657475551267,22.7479142275
1.3,2.095561929E7,0.00170862168079,0.0,0.0,0.00394289906512,41.5936718685,29972.9646581,4.67162576963E-9,0.0,32.1066189609,0.0,0.0,-0.005431501152802072,0.0,0.0,0.0,-2495.62031211,994.970785371,8.92156553767E-4,631.073491705,411.935363942,0.0,0.0,-0.0,0.0,0.0,0.0,0.0418039129057,0.771730387188,24.6435768869
1.4,2.09556149706E7,0.00213402730433,0.0,0.0,0.00457284289359,44.7931912235,29968.645315,5.83474921042E-9,0.0,32.1066321851,0.0,0.0,-0.005849309737529398,0.0,0.0,0.0,-2687.59147341,994.989445071,8.92293365623E-4,631.191732724,411.950721332,0.0,0.0,-0.0,0.0,0.0,0.0,0.0450187604289,0.895162089194,26.539240301
1.5,2.09556103313E7,0.00262476031701,0.0,0.0,0.00524944946892,47.9927119433,29964.0060198,7.17648811084E-9,0.0,32.1066463913,0.0,0.0,-0.006267118500927882,0.0,0.0,0.0,-2879.562716598,995.009486974,8.92440311711E-4,631.318732356,411.967216309,0.0,0.0,-0.0,0.0,0.0,0.0,0.0482334217499,1.02777907562,28.4349045279
1.6,2.09556053721E7,0.00318548696605,0.0,0.0,0.00597271884271,51.1922341256,29959.0467725,8.70960087327E-9,0.0,32.1066615795,0.0,0.0,-0.0066849274556369746,0.0,0.0,0.0,-3071.5340475360003,995.03091108,8.92597392036E-4,631.454490604,411.984848873,0.0,0.0,-0.0,0.0,0.0,0.0,0.0514478835823,1.1695903884,30.3305696259
1.7,2.09556000929E7,0.00382087349972,0.0,0.0,0.00674265106954,54.391757868,29953.7675729,1.04468459322E-8,0.0,32.1066777498,0.0,0.0,-0.007102736614548224,0.0,0.0,0.0,-3263.50547208,995.05371739,8.92764606603E-4,631.599007472,412.003619025,0.0,0.0,-0.0,0.0,0.0,0.0,0.0546621326421,1.32060569308,32.2262356531
1.8,2.09555944937E7,0.00453558616744,0.0,0.0,0.00755924620876,57.5912832683,29948.1684209,1.24009817564E-8,0.0,32.106694902,0.0,0.0,-0.007520545990324,0.0,0.0,0.0,-3455.476996098,995.077905905,8.92941955417E-4,631.752282965,412.023526765,0.0,0.0,-0.0,0.0,0.0,0.0,0.0578761556484,1.4808352788,34.1219026676
1.9,2.09555885746E7,0.00533429121981,0.0,0.0,0.00842250432197,60.7908104242,29942.2493162,1.45847668511E-8,0.0,32.1067130363,0.0,0.0,-0.00793835559574126,0.0,0.0,0.0,-3647.4486254519998,995.103476626,8.93129438482E-4,631.914317086,412.044572094,0.0,0.0,-0.0,0.0,0.0,0.0,0.0610899393235,1.6502900583,36.0175707278
2.0,2.09555823356E7,0.00622165490875,0.0,0.0,0.00933242547512,63.9903394332,29936.0102588,1.701095976E-8,0.0,32.1067321526,0.0,0.0,-0.008356165443519668,0.0,0.0,0.0,-3839.420365992,995.130429552,8.93327055806E-4,632.085109842,412.066755013,0.0,0.0,-0.0,0.0,0.0,0.0,0.0643034703929,1.82898156796,37.9132398917
2.1,2.09555757766E7,0.0072023434875,0.0,0.0,0.0102890097387,67.1898703933,29929.4512483,1.96923190676E-8,0.0,32.1067522509,0.0,0.0,-0.008773975546550771,0.0,0.0,0.0,-4031.392223598,995.158764686,8.93534807393E-4,632.264661237,412.090075522,0.0,0.0,-0.0,0.0,0.0,0.0,0.0675167355856,2.01692196775,39.8089102176
2.2,2.09555688976E7,0.00828102321071,0.0,0.0,0.0112922571846,70.3894034019,29922.5722846,2.26416034011E-8,0.0,32.1067733313,0.0,0.0,-0.009191785917439646,0.0,0.0,0.0,-4223.364204114,995.188482028,8.93752693251E-4,632.452971277,412.114533623,0.0,0.0,-0.0,0.0,0.0,0.0,0.0707297216345,2.21412404129,41.7045817635
2.3,2.09555616987E7,0.00946236033457,0.0,0.0,0.0123421678898,73.5889385569,29915.3733675,2.58715714328E-8,0.0,32.1067953936,0.0,0.0,-0.009609596569020544,0.0,0.0,0.0,-4415.336313414,995.219581579,8.93980713386E-4,632.650039968,412.140129315,0.0,0.0,-0.0,0.0,0.0,0.0,0.0739424152759,2.42060119581,43.6002545878
2.4,2.09555541798E7,0.0107510211168,0.0,0.0,0.0134387419339,76.7884759558,29907.8544968,2.93949818823E-8,0.0,32.1068184381,0.0,0.0,-0.010027407514070425,0.0,0.0,0.0,-4607.308557347999,995.25206334,8.94218867804E-4,632.855867315,412.166862599,0.0,0.0,-0.0,0.0,0.0,0.0,0.0771548032506,2.63636746218,45.4959287486
2.5,2.0955546341E7,0.0121516718167,0.0,0.0,0.0145819794011,79.9880156965,29900.0156723,3.3224593518E-8,0.0,32.1068424645,0.0,0.0,-0.010445218765308953,0.0,0.0,0.0,-4799.28094179,995.285927312,8.94467156514E-4,633.070453324,412.194733477,0.0,0.0,-0.0,0.0,0.0,0.0,0.0803668723034,2.8614374949,47.3916043041
2.6,2.09555381822E7,0.0136689786954,0.0,0.0,0.0157718803785,83.1875578766,29891.8568936,3.73731651601E-8,0.0,32.106867473,0.0,0.0,-0.010863030335513082,0.0,0.0,0.0,-4991.2534725959995,995.321173495,8.94725579522E-4,633.293798004,412.22374195,0.0,0.0,-0.0,0.0,0.0,0.0,0.0835786091836,3.09582657213,49.2872813124
2.7,2.09555297035E7,0.0153076080157,0.0,0.0,0.0170084449571,86.3871025937,29883.3781606,4.18534556823E-8,0.0,32.1068934635,0.0,0.0,-0.011280842237459777,0.0,0.0,0.0,-5183.226155622,995.357801891,8.94994136837E-4,633.525901359,412.253888017,0.0,0.0,-0.0,0.0,0.0,0.0,0.0867900006449,3.33955059565,51.1829598318
2.8,2.09555209048E7,0.0170722260424,0.0,0.0,0.0182916732308,89.5866499456,29874.579473,4.66782240139E-8,0.0,32.1069204361,0.0,0.0,-0.011698654483811402,0.0,0.0,0.0,-5375.1989967360005,995.395812502,8.95272828466E-4,633.766763398,412.28517168,0.0,0.0,-0.0,0.0,0.0,0.0,0.090001033446,3.59262609094,53.0786399204
2.9,2.09555117861E7,0.0189674990419,0.0,0.0,0.0196215652979,92.7862000301,29865.4608305,5.18602291421E-8,0.0,32.1069483908,0.0,0.0,-0.012116467087459507,0.0,0.0,0.0,-5567.1720018060005,995.435205327,8.95561654419E-4,634.016384127,412.317592941,0.0,0.0,-0.0,0.0,0.0,0.0,0.0932116943505,3.85507020709,54.9743216364
3.0,2.09555023475E7,0.0209980932829,0.0,0.0,0.0209981212595,95.9857529446,29856.0222329,5.74122301141E-8,0.0,32.1069773275,0.0,0.0,-0.012534280061066463,0.0,0.0,0.0,-5759.145176676,995.47598037,8.95860614704E-4,634.274763554,412.351151799,0.0,0.0,-0.0,0.0,0.0,0.0,0.0964219701271,4.12690071691,56.870005038
3.1,2.0955492589E7,0.0231686750361,0.0,0.0,0.0224213412209,99.1853087871,29846.2636798,6.33469860391E-8,0.0,32.1070072462,0.0,0.0,-0.01295209341746652,0.0,0.0,0.0,-5951.118527226,995.518137629,8.9616970933E-4,634.541901688,412.385848256,0.0,0.0,-0.0,0.0,0.0,0.0,0.0996318475498,4.40813601684,58.7656901835
3.2,2.09554825105E7,0.0254839105742,0.0,0.0,0.0238912252908,102.384867655,29836.185171,6.96772560909E-8,0.0,32.1070381471,0.0,0.0,-0.013369907169379342,0.0,0.0,0.0,-6143.092059299999,995.561677108,8.96488938307E-4,634.817798536,412.421682314,0.0,0.0,-0.0,0.0,0.0,0.0,0.102841313398,4.69879512704,60.6613771308
3.3,2.0955472112E7,0.0279484661723,0.0,0.0,0.0254077735815,105.584429646,29825.7867062,7.64157995093E-8,0.0,32.10707003,0.0,0.0,-0.013787721329524596,0.0,0.0,0.0,-6335.06577876,995.606598807,8.96818301644E-4,635.102454107,412.458653972,0.0,0.0,-0.0,0.0,0.0,0.0,0.106050354457,4.99889769133,62.5570659384
3.4,2.09554613936E7,0.0305670081075,0.0,0.0,0.026970986208,108.783994859,29815.068285,8.35753756029E-8,0.0,32.107102895,0.0,0.0,-0.014205535910736533,0.0,0.0,0.0,-6527.039691540001,995.652902728,8.97157799351E-4,635.395868408,412.496763233,0.0,0.0,-0.0,0.0,0.0,0.0,0.109258957518,5.30846397725,64.4527566643
3.5,2.09554503552E7,0.0333442026596,0.0,0.0,0.0285808632905,111.98356339,29804.0299071,9.11687437511E-8,0.0,32.1071367421,0.0,0.0,-0.014623350925734814,0.0,0.0,0.0,-6719.0138034,995.700588871,8.9750743144E-4,635.698041451,412.536010097,0.0,0.0,-0.0,0.0,0.0,0.0,0.112467109379,5.62751487604,66.3484493667
3.6,2.09554389969E7,0.0362847161105,0.0,0.0,0.0302374049511,115.183135337,29792.6715722,9.92086634058E-8,0.0,32.1071715712,0.0,0.0,-0.015041166387296401,0.0,0.0,0.0,-6910.9881202199995,995.74965724,8.97867197919E-4,636.008973242,412.576394566,0.0,0.0,-0.0,0.0,0.0,0.0,0.115674796841,5.95607190263,68.2441441039
3.7,2.09554273186E7,0.0393932147448,0.0,0.0,0.0319406113163,118.382710798,29780.9932799,1.07707894094E-7,0.0,32.1072073825,0.0,0.0,-0.01545898230814096,0.0,0.0,0.0,-7102.96264788,995.800107834,8.98237098801E-4,636.328663793,412.617916641,0.0,0.0,-0.0,0.0,0.0,0.0,0.118882006716,6.29415719571,70.1398409339
3.8,2.09554153203E7,0.0426743648495,0.0,0.0,0.0336904825169,121.582289871,29768.9950299,1.1667919542E-7,0.0,32.1072441759,0.0,0.0,-0.01587679870110274,0.0,0.0,0.0,-7294.93739226,995.851940656,8.98617134097E-4,636.657113113,412.660576323,0.0,0.0,-0.0,0.0,0.0,0.0,0.122088725819,6.64179351767,72.0355399151
3.9,2.09554030021E7,0.0461328327144,0.0,0.0,0.0354870186859,124.781872654,29756.6768219,1.26135327068E-7,0.0,32.1072819514,0.0,0.0,-0.01629461557884411,0.0,0.0,0.0,-7486.91235924,995.905155707,8.99007303818E-4,636.994321211,412.704373613,0.0,0.0,-0.0,0.0,0.0,0.0,0.125294940974,6.99900425465,73.9312411055
4.0,2.0955390364E7,0.0497732846319,0.0,0.0,0.03733021996,127.981459243,29744.0386553,1.36089048802E-7,0.0,32.107320709,0.0,0.0,-0.016712432954199326,0.0,0.0,0.0,-7678.88755458,995.959752988,8.99407607976E-4,637.340288098,412.749308513,0.0,0.0,-0.0,0.0,0.0,0.0,0.128500639011,7.36581341654,75.8269445634
4.1,2.09553774058E7,0.0536003868971,0.0,0.0,0.0392200864801,131.181049738,29731.0805299,1.46553120471E-7,0.0,32.1073604487,0.0,0.0,-0.017130250839888048,0.0,0.0,0.0,-7870.862984280001,996.015732503,8.99818046583E-4,637.695013785,412.795381025,0.0,0.0,-0.0,0.0,0.0,0.0,0.131705806766,7.74224563697,77.722650347
4.2,2.09553641278E7,0.0576188058081,0.0,0.0,0.0411566183909,134.380644235,29717.8024452,1.57540302009E-7,0.0,32.1074011706,0.0,0.0,-0.017548069248687237,0.0,0.0,0.0,-8062.8386541,996.073094251,9.00238619653E-4,638.058498283,412.842591148,0.0,0.0,-0.0,0.0,0.0,0.0,0.134910431085,8.12832617336,79.6183585144
4.3,2.09553505297E7,0.0618332076659,0.0,0.0,0.0431398158398,137.580242833,29704.2044009,1.69063353437E-7,0.0,32.1074428745,0.0,0.0,-0.017965888193373858,0.0,0.0,0.0,-8254.81456998,996.131838235,9.00669327197E-4,638.430741601,412.890938886,0.0,0.0,-0.0,0.0,0.0,0.0,0.13811449882,8.52408090689,81.5140691239
4.4,2.09553366117E7,0.0662482587743,0.0,0.0,0.045169678978,140.779845628,29690.2863965,1.81135034869E-7,0.0,32.1074855607,0.0,0.0,-0.018383707686724857,0.0,0.0,0.0,-8446.79073768,996.191964457,9.01110169229E-4,638.811743753,412.94042424,0.0,0.0,-0.0,0.0,0.0,0.0,0.141317996829,8.92953634253,83.4097822336
4.5,2.09553223737E7,0.0708686254404,0.0,0.0,0.0472462079608,143.979452719,29676.0484316,1.93768106508E-7,0.0,32.107529229,0.0,0.0,-0.018801527741402608,0.0,0.0,0.0,-8638.767163139999,996.253472918,9.01561145763E-4,639.20150475,412.99104721,0.0,0.0,-0.0,0.0,0.0,0.0,0.144520911981,9.34471960905,85.3054979017
4.6,2.09553078158E7,0.0756989739743,0.0,0.0,0.0493694029469,147.179064203,29661.4905058,2.06975328653E-7,0.0,32.1075738794,0.0,0.0,-0.01921934837024137,0.0,0.0,0.0,-8830.74385218,996.316363621,9.02022256811E-4,639.600024603,413.042807798,0.0,0.0,-0.0,0.0,0.0,0.0,0.147723231152,9.76965845902,87.2012161864
4.7,2.09552929379E7,0.0807439706892,0.0,0.0,0.0515392640975,150.378680179,29646.6126186,2.20769461698E-7,0.0,32.107619512,0.0,0.0,-0.019637169586018095,0.0,0.0,0.0,-9022.72081074,996.380636567,9.02493502389E-4,640.007303324,413.095706007,0.0,0.0,-0.0,0.0,0.0,0.0,0.150924941224,10.2043812688,89.096937146
4.8,2.09552777401E7,0.0860082819019,0.0,0.0,0.0537557915795,153.578300743,29631.4147696,2.35163266136E-7,0.0,32.1076661268,0.0,0.0,-0.020054991401452445,0.0,0.0,0.0,-9214.69804458,996.446291758,9.0297488251E-4,640.423340926,413.149741838,0.0,0.0,-0.0,0.0,0.0,0.0,0.154126029091,10.6489170387,90.9926608385
4.9,2.09552622223E7,0.0914965739323,0.0,0.0,0.0560189855603,156.777925994,29615.8969583,2.50169502563E-7,0.0,32.1077137238,0.0,0.0,-0.020472813829321385,0.0,0.0,0.0,-9406.67555964,996.513329197,9.0346639719E-4,640.848137422,413.204915292,0.0,0.0,-0.0,0.0,0.0,0.0,0.157326481652,11.1032953927,92.8883873222
5.0,2.09552463845E7,0.0972135131036,0.0,0.0,0.058328846214,159.977556029,29600.0591843,2.65800931675E-7,0.0,32.1077623029,0.0,0.0,-0.020890636882344576,0.0,0.0,0.0,-9598.65336174,996.581748885,9.03968046442E-4,641.281692825,413.261226371,0.0,0.0,-0.0,0.0,0.0,0.0,0.160526285818,11.5675465786,94.7841166553
5.1,2.09552302268E7,0.103163765743,0.0,0.0,0.0606853737163,163.177190946,29583.901447,2.82070314274E-7,0.0,32.1078118643,0.0,0.0,-0.021308460573356273,0.0,0.0,0.0,-9790.63145676,996.651550824,9.04479830284E-4,641.724007148,413.318675077,0.0,0.0,-0.0,0.0,0.0,0.0,0.163725428506,12.0417014684,96.679848896
5.2,2.09552137491E7,0.10935199818,0.0,0.0,0.0630885682472,166.376830842,29567.4237459,2.98990411269E-7,0.0,32.1078624078,0.0,0.0,-0.021726284915133433,0.0,0.0,0.0,-9982.60985052,996.722735017,9.05001748729E-4,642.175080404,413.377261411,0.0,0.0,-0.0,0.0,0.0,0.0,0.166923896645,12.5257915576,98.5755841024
5.3,2.09551969514E7,0.11578287675,0.0,0.0,0.0655384299907,169.576475816,29550.6260806,3.16573983678E-7,0.0,32.1079139336,0.0,0.0,-0.022144109920281124,0.0,0.0,0.0,-10174.58854896,996.795301466,9.05533801795E-4,642.634912607,413.436985375,0.0,0.0,-0.0,0.0,0.0,0.0,0.17012167717,13.0198489658,100.471322333
5.4,2.09551798338E7,0.12246106779,0.0,0.0,0.0680349591332,172.776125965,29533.5084506,3.34833792631E-7,0.0,32.1079664416,0.0,0.0,-0.0225619356017482,0.0,0.0,0.0,-10366.5675579,996.869250172,9.06075989497E-4,643.103503772,413.497846972,0.0,0.0,-0.0,0.0,0.0,0.0,0.173318757029,13.5239064363,102.367063645
5.5,2.09551623962E7,0.129391237641,0.0,0.0,0.070578155865,175.975781386,29516.0708553,3.53782599373E-7,0.0,32.1080199318,0.0,0.0,-0.022979761972197026,0.0,0.0,0.0,-10558.54688316,996.943893091,9.06663351517E-4,643.621165134,413.559856707,0.0,0.0,-0.0,0.0,0.0,0.0,0.176515245,14.0385398816,104.262808098
5.6,2.09551446386E7,0.136578052649,0.0,0.0,0.0731680203808,179.175442178,29498.3132941,3.73433165261E-7,0.0,32.1080744043,0.0,0.0,-0.023397589044347262,0.0,0.0,0.0,-10750.52653068,997.019542789,9.07279970117E-4,644.169584199,413.623009812,0.0,0.0,-0.0,0.0,0.0,0.0,0.179711078297,14.5635875091,106.15855575
5.7,2.09551265611E7,0.144026179163,0.0,0.0,0.0758045528778,182.375108439,29480.2357667,3.93798251773E-7,0.0,32.108129859,0.0,0.0,-0.02381541683109046,0.0,0.0,0.0,-10942.50650634,997.096555588,9.07907699319E-4,644.727885007,413.687300846,0.0,0.0,-0.0,0.0,0.0,0.0,0.182906182125,15.0988164177,108.054306658
5.8,2.09551081636E7,0.151740283536,0.0,0.0,0.0784877535577,185.574780265,29461.8382723,4.14890620505E-7,0.0,32.1081862959,0.0,0.0,-0.02423324534508899,0.0,0.0,0.0,-11134.4868159,997.174931491,9.08546539143E-4,645.296067575,413.752729813,0.0,0.0,-0.0,0.0,0.0,0.0,0.186100543648,15.6442652337,109.950060881
5.9,2.09550894461E7,0.159725032126,0.0,0.0,0.0812176226254,188.774457755,29443.1208104,4.36723033178E-7,0.0,32.1082437152,0.0,0.0,-0.024651074599119804,0.0,0.0,0.0,-11326.467465299998,997.254670501,9.09196489608E-4,645.87413192,413.819296714,0.0,0.0,-0.0,0.0,0.0,0.0,0.18929415004,16.1999732673,111.845818477
6.0,2.09550704087E7,0.167985091294,0.0,0.0,0.0839941602885,191.974141006,29424.0833805,4.59308251634E-7,0.0,32.1083021167,0.0,0.0,-0.025068904605959865,0.0,0.0,0.0,-11518.44846036,997.335772619,9.09857550734E-4,646.462078059,413.887001551,0.0,0.0,-0.0,0.0,0.0,0.0,0.192486988486,16.7659805127,113.741579505
6.1,2.09550510513E7,0.176525127406,0.0,0.0,0.08681736676,195.173830116,29404.725982,4.82659037843E-7,0.0,32.1083615005,0.0,0.0,-0.025486735378386135,0.0,0.0,0.0,-11710.42980696,997.418237848,9.10529722542E-4,647.059906011,413.955844327,0.0,0.0,-0.0,0.0,0.0,0.0,0.19567904618,17.342327648,115.637344022
6.2,2.09550313739E7,0.185349806831,0.0,0.0,0.0896872422541,198.373525183,29385.0486143,5.06788153903E-7,0.0,32.1084218666,0.0,0.0,-0.025904566929118272,0.0,0.0,0.0,-11902.41151098,997.502066191,9.11213005051E-4,647.667615793,414.025825044,0.0,0.0,-0.0,0.0,0.0,0.0,0.198870310329,17.9290560354,117.533112087
6.3,2.09550113766E7,0.194463795944,0.0,0.0,0.0926037869908,201.573226304,29365.0512768,5.31708362044E-7,0.0,32.108483215,0.0,0.0,-0.026322399270990532,0.0,0.0,0.0,-12094.39357824,997.587257651,9.11907398283E-4,648.285207425,414.096943703,0.0,0.0,-0.0,0.0,0.0,0.0,0.202060768148,18.526207721,119.428883758
6.4,2.09549910593E7,0.203871761123,0.0,0.0,0.0955670011924,204.772933578,29344.7339688,5.57432424628E-7,0.0,32.1085455458,0.0,0.0,-0.026740232416665285,0.0,0.0,0.0,-12286.37601468,997.673812229,9.12612902259E-4,648.912680925,414.169200307,0.0,0.0,-0.0,0.0,0.0,0.0,0.205250406865,19.1338254349,121.324659093
6.5,2.0954970422E7,0.213578368752,0.0,0.0,0.0985768850851,207.972647101,29324.0966899,5.83973104152E-7,0.0,32.1086088588,0.0,0.0,-0.027158066378976782,0.0,0.0,0.0,-12478.35882606,997.761729928,9.13329516999E-4,649.550036313,414.242594858,0.0,0.0,-0.0,0.0,0.0,0.0,0.208439213718,19.7519525914,123.22043815
6.6,2.09549494647E7,0.223588285217,0.0,0.0,0.101633438899,211.172366973,29303.1394392,6.1134316325E-7,0.0,32.1086731542,0.0,0.0,-0.027575901170644686,0.0,0.0,0.0,-12670.34201838,997.851010752,9.14057242527E-4,650.197273607,414.317127358,0.0,0.0,-0.0,0.0,0.0,0.0,0.211627175956,20.3806332886,125.116220988
6.7,2.09549281875E7,0.233906176913,0.0,0.0,0.104736662867,214.372093289,29281.8622163,6.39555364695E-7,0.0,32.108738432,0.0,0.0,-0.027993736804503257,0.0,0.0,0.0,-12862.32559734,997.941654702,9.14796078865E-4,650.854392827,414.39279781,0.0,0.0,-0.0,0.0,0.0,0.0,0.21481428084,21.0199123088,127.012007665
6.8,2.09549065903E7,0.244536710234,0.0,0.0,0.107886557226,217.571826149,29260.2650203,6.68622471403E-7,0.0,32.1088046921,0.0,0.0,-0.028411573293214854,0.0,0.0,0.0,-13054.30956894,998.033661782,9.15546026034E-4,651.521393995,414.469606216,0.0,0.0,-0.0,0.0,0.0,0.0,0.218000515643,21.6698351185,128.907798238
6.9,2.09548846732E7,0.255484551584,0.0,0.0,0.111083122217,220.771565649,29238.3478508,6.98557246432E-7,0.0,32.1088719346,0.0,0.0,-0.028829410649613738,0.0,0.0,0.0,-13246.29393894,998.127031995,9.16307084058E-4,652.198277129,414.547552578,0.0,0.0,-0.0,0.0,0.0,0.0,0.221185867649,22.3304478681,130.803592767
7.0,2.0954862436E7,0.266754367369,0.0,0.0,0.114326358084,223.971311888,29216.110707,7.29372452986E-7,0.0,32.1089401594,0.0,0.0,-0.029247248886476868,0.0,0.0,0.0,-13438.27871328,998.221765342,9.17079252961E-4,652.885042251,414.626636899,0.0,0.0,-0.0,0.0,0.0,0.0,0.224370324154,23.0017973921,132.699391309
7.1,2.09548398789E7,0.278350824,0.0,0.0,0.117616265074,227.171064964,29193.5535882,7.61080854417E-7,0.0,32.1090093667,0.0,0.0,-0.02966508801646661,0.0,0.0,0.0,-13630.263897840001,998.317861828,9.17862532764E-4,653.581689381,414.70685918,0.0,0.0,-0.0,0.0,0.0,0.0,0.227553872466,23.6839312093,134.595193923
7.2,2.09548170018E7,0.290278587894,0.0,0.0,0.120952843438,230.370824973,29170.6764938,7.93695214228E-7,0.0,32.1090795564,0.0,0.0,-0.030082928052474502,0.0,0.0,0.0,-13822.24949838,998.415321455,9.18656923494E-4,654.288218541,414.788219425,0.0,0.0,-0.0,0.0,0.0,0.0,0.230736499906,24.3768975226,136.491000666
7.3,2.09547938047E7,0.302542325472,0.0,0.0,0.124336093431,233.570592014,29147.479423,8.27228296073E-7,0.0,32.1091507284,0.0,0.0,-0.030500769007220232,0.0,0.0,0.0,-14014.23552084,998.514144226,9.19462425173E-4,655.004629753,414.870717636,0.0,0.0,-0.0,0.0,0.0,0.0,0.233918193807,25.0807452191,138.386811597
7.4,2.09547702877E7,0.315146703162,0.0,0.0,0.127766015312,236.770366185,29123.9623751,8.6169286376E-7,0.0,32.109222883,0.0,0.0,-0.030918610893366148,0.0,0.0,0.0,-14206.2219711,998.614330145,9.20279037827E-4,655.730923038,414.954353816,0.0,0.0,-0.0,0.0,0.0,0.0,0.237098941513,25.7955238699,140.282626775
7.5,2.09547464507E7,0.328096387394,0.0,0.0,0.131242609341,239.970147582,29100.1253495,8.97101681255E-7,0.0,32.1092960199,0.0,0.0,-0.0313364537238611,0.0,0.0,0.0,-14398.20885492,998.715879213,9.21106761479E-4,656.467098418,415.039127966,0.0,0.0,-0.0,0.0,0.0,0.0,0.240278730384,26.5212837306,142.178446257
7.6,2.09547222937E7,0.341396044606,0.0,0.0,0.134765875785,243.169936305,29075.9683454,9.33467512681E-7,0.0,32.1093701393,0.0,0.0,-0.03175429751131017,0.0,0.0,0.0,-14590.196178299999,998.818791435,9.21945596157E-4,657.213155916,415.12504009,0.0,0.0,-0.0,0.0,0.0,0.0,0.24345754779,27.2580757408,144.074270101
7.7,2.09546978167E7,0.355050341241,0.0,0.0,0.138335814913,246.369732451,29051.491362,9.70803122323E-7,0.0,32.1094452412,0.0,0.0,-0.032172142268547595,0.0,0.0,0.0,-14782.18394706,998.923066813,9.22795541884E-4,657.969095555,415.212090191,0.0,0.0,-0.0,0.0,0.0,0.0,0.246635381115,28.0059515245,145.970098366
7.8,2.09546730197E7,0.369063943745,0.0,0.0,0.141952426997,249.569536116,29026.6943986,1.00912127463E-6,0.0,32.1095213256,0.0,0.0,-0.03258998800829305,0.0,0.0,0.0,-14974.17216696,999.02870535,9.23656598688E-4,658.734917358,415.30027827,0.0,0.0,-0.0,0.0,0.0,0.0,0.249812217757,28.7649633898,147.865931111
7.9,2.09546479028E7,0.383441518574,0.0,0.0,0.145615712313,252.7693474,29001.5774545,1.04843473421E-6,0.0,32.1095983925,0.0,0.0,-0.03300783474338078,0.0,0.0,0.0,-15166.160844,999.135707051,9.24528766594E-4,659.510621348,415.389604331,0.0,0.0,-0.0,0.0,0.0,0.0,0.252988045127,29.5351643293,149.761768392
8.0,2.09546224658E7,0.398187732185,0.0,0.0,0.14932567114,255.9691664,28976.1405289,1.08875626585E-6,0.0,32.1096764418,0.0,0.0,-0.03342568248658776,0.0,0.0,0.0,-15358.149984,999.244071917,9.25412045629E-4,660.296207548,415.480068376,0.0,0.0,-0.0,0.0,0.0,0.0,0.256162850649,30.3166080197,151.657610269
8.1,2.09545967089E7,0.413307251044,0.0,0.0,0.153082303763,259.168993214,28950.383621,1.13009863449E-6,0.0,32.1097554737,0.0,0.0,-0.03384353125057635,0.0,0.0,0.0,-15550.139592840002,999.353799953,9.2630643582E-4,661.091675984,415.571670408,0.0,0.0,-0.0,0.0,0.0,0.0,0.259336621761,31.1093488221,153.5534568
8.2,2.0954570632E7,0.428804741619,0.0,0.0,0.156885610468,262.368827938,28924.30673,1.17247460525E-6,0.0,32.1098354881,0.0,0.0,-0.03426138104818079,0.0,0.0,0.0,-15742.12967628,999.464891162,9.27211937194E-4,661.897026678,415.66441043,0.0,0.0,-0.0,0.0,0.0,0.0,0.262509345915,31.9134417822,155.449308042
8.3,2.09545442352E7,0.444684870389,0.0,0.0,0.160735591545,265.568670672,28897.9098551,1.21589694343E-6,0.0,32.1099164851,0.0,0.0,-0.03467923189212077,0.0,0.0,0.0,-15934.12024032,999.577345546,9.2812854978E-4,662.712259656,415.758288445,0.0,0.0,-0.0,0.0,0.0,0.0,0.265681010577,32.7289426296,157.345164055
8.4,2.09545175183E7,0.460952303833,0.0,0.0,0.164632247288,268.768521513,28871.1929956,1.26037841451E-6,0.0,32.1099984646,0.0,0.0,-0.03509708379523052,0.0,0.0,0.0,-16126.11129078,999.691163111,9.29056273604E-4,663.537374943,415.853304455,0.0,0.0,-0.0,0.0,0.0,0.0,0.268851603228,33.5559077787,159.241024896
8.5,2.09544904815E7,0.47761170844,0.0,0.0,0.168575577995,271.968380559,28844.1561506,1.30593178411E-6,0.0,32.1100814267,0.0,0.0,-0.03551493677022972,0.0,0.0,0.0,-16318.10283354,999.806343858,9.29995108695E-4,664.372372563,415.949458463,0.0,0.0,-0.0,0.0,0.0,0.0,0.272021111362,34.3943943281,161.136890623
8.6,2.09544631246E7,0.494667750703,0.0,0.0,0.172565583966,275.168247906,28816.7993192,1.35256981808E-6,0.0,32.1101653714,0.0,0.0,-0.03593279082989532,0.0,0.0,0.0,-16510.09487436,999.922887792,9.30945055082E-4,665.217252543,416.046750474,0.0,0.0,-0.0,0.0,0.0,0.0,0.275189522488,35.2444600609,163.032761295
8.7,2.09544354478E7,0.512125097123,0.0,0.0,0.176602265507,278.368123654,28789.1225007,1.40030528243E-6,0.0,32.1102502987,0.0,0.0,-0.03635064598700427,0.0,0.0,0.0,-16702.08741924,1000.04079492,9.31906112794E-4,666.072014907,416.145180488,0.0,0.0,-0.0,0.0,0.0,0.0,0.278356824131,36.1061634446,164.92863697
8.8,2.0954407451E7,0.529988414206,0.0,0.0,0.180685622925,281.5680079,28761.1256942,1.44915094334E-6,0.0,32.1103362086,0.0,0.0,-0.036768502254276254,0.0,0.0,0.0,-16894.080474,1000.16006523,9.32878281861E-4,666.936659683,416.24474851,0.0,0.0,-0.0,0.0,0.0,0.0,0.281523003829,36.9795636313,166.824517706
8.9,2.09543791342E7,0.548262368462,0.0,0.0,0.184815656532,284.767900741,28732.8088989,1.4991195672E-6,0.0,32.1104231011,0.0,0.0,-0.037186359644545516,0.0,0.0,0.0,-17086.07404446,1000.28069875,9.33861562311E-4,667.811186896,416.345454542,0.0,0.0,-0.0,0.0,0.0,0.0,0.284688049135,37.8647204576,168.720403562
9.0,2.09543504974E7,0.566951626411,0.0,0.0,0.188992366644,287.967802276,28704.1721138,1.55022392058E-6,0.0,32.1105109763,0.0,0.0,-0.037604218170531716,0.0,0.0,0.0,-17278.06813656,1000.40269546,9.34855954175E-4,668.695596574,416.447298588,0.0,0.0,-0.0,0.0,0.0,0.0,0.28785194762,38.7616944444,170.616294595
9.1,2.09543215406E7,0.586060854577,0.0,0.0,0.19321575358,291.167712602,28675.2153381,1.60247677024E-6,0.0,32.1105998341,0.0,0.0,-0.03802207784501182,0.0,0.0,0.0,-17470.062756119998,1000.52605539,9.35861457484E-4,669.589888742,416.55028065,0.0,0.0,-0.0,0.0,0.0,0.0,0.291014686866,39.6705467974,172.512190864
9.2,2.09542922639E7,0.605594719492,0.0,0.0,0.197485817661,294.367631816,28645.938571,1.65589088313E-6,0.0,32.1106896746,0.0,0.0,-0.03843993868070549,0.0,0.0,0.0,-17662.057908960003,1000.65077851,9.36878072267E-4,670.494063429,416.654400732,0.0,0.0,-0.0,0.0,0.0,0.0,0.294176254475,40.5913394068,174.408092426
9.3,2.09542626671E7,0.625557887692,0.0,0.0,0.201802559215,297.567560018,28616.3418115,1.7104790264E-6,0.0,32.1107804978,0.0,0.0,-0.03885780069050427,0.0,0.0,0.0,-17854.05360108,1000.77686486,9.37905798557E-4,671.408120663,416.759658837,0.0,0.0,-0.0,0.0,0.0,0.0,0.297336638062,41.5241348473,176.303999342
9.4,2.09542327504E7,0.645955025723,0.0,0.0,0.206165978569,300.767497303,28586.4250587,1.7662539674E-6,0.0,32.1108723037,0.0,0.0,-0.03927566388707053,0.0,0.0,0.0,-18046.049838180003,1000.90431441,9.38944636383E-4,672.33206047,416.866054968,0.0,0.0,-0.0,0.0,0.0,0.0,0.300495825257,42.4689963785,178.199911667
9.5,2.09542025136E7,0.666790800134,0.0,0.0,0.210576076058,303.967443771,28556.1883117,1.82322847367E-6,0.0,32.1109650924,0.0,0.0,-0.03969352828318123,0.0,0.0,0.0,-18238.04662626,1001.03312719,9.39994585779E-4,673.265882879,416.973589129,0.0,0.0,-0.0,0.0,0.0,0.0,0.303653803709,43.4259879442,180.095829462
9.6,2.09541719569E7,0.688069877483,0.0,0.0,0.215032852019,307.167399519,28525.6315696,1.88141531295E-6,0.0,32.1110588637,0.0,0.0,-0.04011139389167063,0.0,0.0,0.0,-18430.04397114,1001.16330319,9.41055646776E-4,674.209587919,417.082261322,0.0,0.0,-0.0,0.0,0.0,0.0,0.30681056108,44.3951741733,181.991752783
9.7,2.09541410801E7,0.709796924334,0.0,0.0,0.219536306792,310.367364644,28494.7548315,1.9408272532E-6,0.0,32.1111536178,0.0,0.0,-0.04052926072525838,0.0,0.0,0.0,-18622.04187864,1001.29484242,9.42127819407E-4,675.163175619,417.192071551,0.0,0.0,-0.0,0.0,0.0,0.0,0.309966085051,45.3766203791,183.887681689
9.8,2.09541098834E7,0.731976607259,0.0,0.0,0.22408644072,313.567339245,28463.5580964,2.00147706257E-6,0.0,32.1112493547,0.0,0.0,-0.04094712879666415,0.0,0.0,0.0,-18814.040354700002,1001.42774489,9.43211103704E-4,676.126646007,417.303019819,0.0,0.0,-0.0,0.0,0.0,0.0,0.313120363318,46.3703925598,185.783616239
9.9,2.09540783667E7,0.754613592834,0.0,0.0,0.228683254151,316.767323419,28432.0413633,2.06337750943E-6,0.0,32.1113460744,0.0,0.0,-0.0413649981187795,0.0,0.0,0.0,-19006.03940514,1001.56201058,9.443054997E-4,677.099999114,417.41510613,0.0,0.0,-0.0,0.0,0.0,0.0,0.316273383593,47.3765573983,187.679556491
10.0,2.09540465299E7,0.777712547646,0.0,0.0,0.233326747436,319.967317264,28400.2046314,2.12654136235E-6,0.0,32.1114437768,0.0,0.0,-0.04178286870420948,0.0,0.0,0.0,-19198.03903584,1001.69763952,9.45411007429E-4,678.083234968,417.528330488,0.0,0.0,-0.0,0.0,0.0,0.0,0.319425133607,48.3951822621,189.575502502
10.1,2.09540143732E7,0.801278138285,0.0,0.0,0.23801692093,323.167320878,28368.0478995,2.19098139011E-6,0.0,32.1115424621,0.0,0.0,-0.042200740565902964,0.0,0.0,0.0,-19390.03925268,1001.8346317,9.46527626924E-4,679.0763536,417.642692895,0.0,0.0,-0.0,0.0,0.0,0.0,0.322575601105,49.4263352039,191.471454331
10.2,2.09539818965E7,0.825315031351,0.0,0.0,0.242753774989,326.367334358,28335.5711669,2.25671036172E-6,0.0,32.1116421302,0.0,0.0,-0.042618613716465,0.0,0.0,0.0,-19582.04006148,1001.97298713,9.4765535822E-4,680.07935504,417.758193354,0.0,0.0,-0.0,0.0,0.0,0.0,0.325724773851,50.4700849607,193.367412037
10.3,2.09539490997E7,0.849827893451,0.0,0.0,0.247537309978,329.567357802,28302.7744323,2.3237410464E-6,0.0,32.1117427812,0.0,0.0,-0.04303648816878714,0.0,0.0,0.0,-19774.04146812,1002.11270582,9.48794201351E-4,681.092239319,417.874831871,0.0,0.0,-0.0,0.0,0.0,0.0,0.328872639626,51.5265009547,195.263375677
10.4,2.0953915983E7,0.874821391197,0.0,0.0,0.25236752626,332.767391309,28269.657695,2.39208621357E-6,0.0,32.111844415,0.0,0.0,-0.04345436393558906,0.0,0.0,0.0,-19966.04347854,1002.25378776,9.49944156352E-4,682.115006467,417.992608448,0.0,0.0,-0.0,0.0,0.0,0.0,0.332019186228,52.595653293,197.15934531
10.5,2.09538825463E7,0.900300191211,0.0,0.0,0.257244424204,335.967434975,28236.2209538,2.46175863291E-6,0.0,32.1119470317,0.0,0.0,-0.043872241029647714,0.0,0.0,0.0,-20158.0460985,1002.39623296,9.51105223258E-4,683.147656516,418.111523088,0.0,0.0,-0.0,0.0,0.0,0.0,0.335164401474,53.6776127673,199.055320994
10.6,2.09538487895E7,0.92626896012,0.0,0.0,0.262168004183,339.167488899,28202.4642076,2.53277107428E-6,0.0,32.1120506314,0.0,0.0,-0.04429011946374006,0.0,0.0,0.0,-20350.049333939998,1002.54004143,9.52277402104E-4,684.190189498,418.231575796,0.0,0.0,-0.0,0.0,0.0,0.0,0.338308273195,54.7724508546,200.951302787
10.7,2.09538147128E7,0.95273236456,0.0,0.0,0.267138266573,342.367553179,28168.3874556,2.60513630778E-6,0.0,32.1121552139,0.0,0.0,-0.04470799925058575,0.0,0.0,0.0,-20542.05319074,1002.68521316,9.53460692926E-4,685.242605444,418.352766575,0.0,0.0,-0.0,0.0,0.0,0.0,0.341450789245,55.8802397166,202.847290748
10.8,2.0953780316E7,0.979695071175,0.0,0.0,0.272155211753,345.567627911,28133.9906967,2.67886710377E-6,0.0,32.1122607794,0.0,0.0,-0.04512588040301906,0.0,0.0,0.0,-20734.057674659998,1002.83174818,9.54655095761E-4,686.304904386,418.475095429,0.0,0.0,-0.0,0.0,0.0,0.0,0.344591937491,57.0010522,204.743284934
10.9,2.09537455992E7,1.00716174662,0.0,0.0,0.277218840107,348.767713195,28099.2739297,2.75397623278E-6,0.0,32.1123673278,0.0,0.0,-0.04554376293375965,0.0,0.0,0.0,-20926.0627917,1002.97964647,9.55860610644E-4,687.377086358,418.598562361,0.0,0.0,-0.0,0.0,0.0,0.0,0.347731705821,58.1349618367,206.639285404
11.0,2.09537105625E7,1.03513705754,0.0,0.0,0.28232915202,351.967809127,28064.2371537,2.83047646563E-6,0.0,32.1124748592,0.0,0.0,-0.04596164685564175,0.0,0.0,0.0,-21118.06854762,1003.12890804,9.57077237613E-4,688.45915139,418.723167376,0.0,0.0,-0.0,0.0,0.0,0.0,0.350870082141,59.2820428434,208.535292217
11.1,2.09536752057E7,1.06362567061,0.0,0.0,0.287486147884,355.167915806,28028.8803675,2.90838057333E-6,0.0,32.1125833736,0.0,0.0,-0.04637953218138504,0.0,0.0,0.0,-21310.07494836,1003.2795329,9.58304976705E-4,689.551099518,418.848910476,0.0,0.0,-0.0,0.0,0.0,0.0,0.354007054375,60.442370122,210.43130543
11.2,2.09536395289E7,1.09263225251,0.0,0.0,0.292689828091,358.368033329,27993.2035702,2.98770132714E-6,0.0,32.112692871,0.0,0.0,-0.04679741892376649,0.0,0.0,0.0,-21502.08199974,1003.43152106,9.59543827956E-4,690.652930773,418.975791667,0.0,0.0,-0.0,0.0,0.0,0.0,0.357142610466,61.6160192595,212.327325101
11.3,2.09536035321E7,1.12216146992,0.0,0.0,0.297940193041,361.568161795,27957.2067605,3.06845149857E-6,0.0,32.1128033514,0.0,0.0,-0.047215307095563035,0.0,0.0,0.0,-21694.089707699997,1003.58487251,9.60793791406E-4,691.76464519,419.103810951,0.0,0.0,-0.0,0.0,0.0,0.0,0.360276738374,62.8030665281,214.22335129
11.4,2.09535672152E7,1.15221798952,0.0,0.0,0.303237243132,364.7683013,27920.8899374,3.15064385937E-6,0.0,32.1129148149,0.0,0.0,-0.047633196709551656,0.0,0.0,0.0,-21886.098078000003,1003.73958726,9.62054867092E-4,692.886242802,419.232968333,0.0,0.0,-0.0,0.0,0.0,0.0,0.363409426082,64.0035888849,216.119384053
11.5,2.09535305784E7,1.18280647802,0.0,0.0,0.308580978771,367.968451943,27884.2530999,3.2342911815E-6,0.0,32.1130272614,0.0,0.0,-0.0480510877785093,0.0,0.0,0.0,-22078.10711658,1003.89566532,9.63327055053E-4,694.017723644,419.363263816,0.0,0.0,-0.0,0.0,0.0,0.0,0.366540661587,65.2176639724,218.01542345
11.6,2.09534936216E7,1.21393160211,0.0,0.0,0.313971400364,371.168613821,27847.2962467,3.3194062372E-6,0.0,32.113140691,0.0,0.0,-0.048468980315155626,0.0,0.0,0.0,-22270.11682926,1004.05310669,9.64610355327E-4,695.159087751,419.494697406,0.0,0.0,-0.0,0.0,0.0,0.0,0.369670432909,66.4453701183,219.911469539
11.7,2.09534563447E7,1.24559802852,0.0,0.0,0.319408508324,374.368787032,27810.0193767,3.40600179895E-6,0.0,32.1132551038,0.0,0.0,-0.048886874332382195,0.0,0.0,0.0,-22462.12722192,1004.21191138,9.65904767954E-4,696.310335156,419.627269104,0.0,0.0,-0.0,0.0,0.0,0.0,0.372798728085,67.6867863355,221.807522377
11.8,2.09534187478E7,1.27781042397,0.0,0.0,0.324892303066,377.568971675,27772.4224889,3.49409063946E-6,0.0,32.1133704996,0.0,0.0,-0.04930476984285137,0.0,0.0,0.0,-22654.1383005,1004.37207939,9.67210292973E-4,697.471465896,419.760978917,0.0,0.0,-0.0,0.0,0.0,0.0,0.375925535173,68.9419923221,223.703582024
11.9,2.09533808309E7,1.31057345519,0.0,0.0,0.330422785008,380.769167847,27734.505582,3.58368553172E-6,0.0,32.1134868786,0.0,0.0,-0.04972266685934011,0.0,0.0,0.0,-22846.15007082,1004.53361073,9.68526930424E-4,698.642480006,419.895826847,0.0,0.0,-0.0,0.0,0.0,0.0,0.379050842249,70.2110684617,225.599648537
12.0,2.0953342594E7,1.34389178891,0.0,0.0,0.335999954573,383.969375645,27696.268655,3.67479924894E-6,0.0,32.1136042407,0.0,0.0,-0.05014056539468267,0.0,0.0,0.0,-23038.162538700002,1004.69650539,9.69854680347E-4,699.823377521,420.031812899,0.0,0.0,-0.0,0.0,0.0,0.0,0.382174637412,71.494095823,227.495721975
12.1,2.0953304037E7,1.37777009189,0.0,0.0,0.341623812187,387.169595168,27657.7117065,3.76744456461E-6,0.0,32.113722586,0.0,0.0,-0.050558465461656,0.0,0.0,0.0,-23230.17571008,1004.86076339,9.71193542784E-4,701.014158478,420.168937078,0.0,0.0,-0.0,0.0,0.0,0.0,0.385296908776,72.7911561603,229.391802395
12.2,2.095326516E7,1.41221303088,0.0,0.0,0.34729435828,390.369826513,27618.8347355,3.86163425247E-6,0.0,32.1138419146,0.0,0.0,-0.05097636707297978,0.0,0.0,0.0,-23422.189590780003,1005.02638474,9.72543517774E-4,702.214822912,420.307199386,0.0,0.0,-0.0,0.0,0.0,0.0,0.38841764448,74.1023319132,231.287889857
12.3,2.09532259631E7,1.44722527265,0.0,0.0,0.353011593284,393.570069778,27579.6377408,3.95738108652E-6,0.0,32.1139622263,0.0,0.0,-0.05139427024143096,0.0,0.0,0.0,-23614.20418668,1005.19336942,9.73904605359E-4,703.425370862,420.446599829,0.0,0.0,-0.0,0.0,0.0,0.0,0.39153683268,75.4277062066,233.183984418
12.4,2.0953186446E7,1.48281148397,0.0,0.0,0.358775517636,396.770325062,27540.1207212,4.05469784101E-6,0.0,32.1140835213,0.0,0.0,-0.05181217497978649,0.0,0.0,0.0,-23806.21950372,1005.36171746,9.7527680558E-4,704.645802363,420.58713841,0.0,0.0,-0.0,0.0,0.0,0.0,0.394654461553,76.7673628511,235.080086137
12.5,2.0953146609E7,1.51897633162,0.0,0.0,0.364586131777,399.97059246,27500.2836754,4.15359729049E-6,0.0,32.1142057995,0.0,0.0,-0.05223008130088064,0.0,0.0,0.0,-23998.235547599998,1005.53142886,9.7666011848E-4,705.876117452,420.728815135,0.0,0.0,-0.0,0.0,0.0,0.0,0.397770519297,78.1213863426,236.976195071
12.6,2.09531064519E7,1.5557244824,0.0,0.0,0.370443436149,403.170872073,27460.1266023,4.25409220972E-6,0.0,32.1143290611,0.0,0.0,-0.052647989217433064,0.0,0.0,0.0,-24190.25232438,1005.70250362,9.78054544101E-4,707.116316168,420.871630007,0.0,0.0,-0.0,0.0,0.0,0.0,0.400884994131,79.4898618627,238.87231128
12.7,2.09530659748E7,1.5930606031,0.0,0.0,0.3763474312,406.371163997,27419.6495006,4.35619537378E-6,0.0,32.1144533059,0.0,0.0,-0.05306589874222072,0.0,0.0,0.0,-24382.26983982,1005.87494174,9.79460082485E-4,708.366398549,421.01558303,0.0,0.0,-0.0,0.0,0.0,0.0,0.403997874293,80.8728752783,240.768434821
12.8,2.09530251777E7,1.63098936053,0.0,0.0,0.382298117382,409.57146833,27378.8523691,4.45991955799E-6,0.0,32.114578534,0.0,0.0,-0.05348380988802058,0.0,0.0,0.0,-24574.2880998,1006.04874323,9.80876733675E-4,709.626364632,421.16067421,0.0,0.0,-0.0,0.0,0.0,0.0,0.407109148045,82.2705131422,242.664565753
12.9,2.09529840605E7,1.66951542151,0.0,0.0,0.388295495149,412.77178517,27337.7352065,4.56527753795E-6,0.0,32.1147047455,0.0,0.0,-0.05390172266766688,0.0,0.0,0.0,-24766.3071102,1006.22390811,9.82304497714E-4,710.896214455,421.30690355,0.0,0.0,-0.0,0.0,0.0,0.0,0.410218803667,83.6828626927,244.560704134
13.0,2.09529426233E7,1.70864345287,0.0,0.0,0.394339564959,415.972114615,27296.2980116,4.67228208954E-6,0.0,32.1148319404,0.0,0.0,-0.054319637093821996,0.0,0.0,0.0,-24958.3268769,1006.40043636,9.83743374646E-4,712.175948059,421.454271055,0.0,0.0,-0.0,0.0,0.0,0.0,0.413326829462,85.1100118536,246.456850022
13.1,2.09529008661E7,1.74837812145,0.0,0.0,0.400430327272,419.172456763,27254.5407832,4.78094598892E-6,0.0,32.1149601187,0.0,0.0,-0.05473755317937748,0.0,0.0,0.0,-25150.34740578,1006.578328,9.85193364516E-4,713.465565481,421.60277673,0.0,0.0,-0.0,0.0,0.0,0.0,0.416433213753,86.5520492346,248.353003475
13.2,2.09528587888E7,1.78872409408,0.0,0.0,0.406567782556,422.372811711,27212.4635199,4.8912820125E-6,0.0,32.1150892803,0.0,0.0,-0.0551554709369957,0.0,0.0,0.0,-25342.36870266,1006.75758304,9.86654467366E-4,714.765066762,421.752420578,0.0,0.0,-0.0,0.0,0.0,0.0,0.419537944886,88.0090641312,250.249164552
13.3,2.09528163915E7,1.82968603763,0.0,0.0,0.412751931278,425.573179557,27170.0662204,5.00330293701E-6,0.0,32.1152194254,0.0,0.0,-0.055573390379568204,0.0,0.0,0.0,-25534.39077342,1006.93820148,9.88126683243E-4,716.07445194,421.903202605,0.0,0.0,-0.0,0.0,0.0,0.0,0.422641011228,89.4811465243,252.145333311
13.4,2.09527736742E7,1.87126861896,0.0,0.0,0.418982773911,428.7735604,27127.3488835,5.11702153944E-6,0.0,32.1153505539,0.0,0.0,-0.05599131151981465,0.0,0.0,0.0,-25726.413624,1007.12018331,9.8961001219E-4,717.393721056,422.055122816,0.0,0.0,-0.0,0.0,0.0,0.0,0.425742401166,90.9683870809,254.04150981
13.5,2.09527306368E7,1.91347650495,0.0,0.0,0.42526031093,431.973954336,27084.3115079,5.23245059707E-6,0.0,32.1154826659,0.0,0.0,-0.05640923437045471,0.0,0.0,0.0,-25918.43726016,1007.30352856,9.91104454253E-4,718.72287415,422.208181214,0.0,0.0,-0.0,0.0,0.0,0.0,0.428842103112,92.4708771538,255.937694108
13.6,2.09526872794E7,1.95631436247,0.0,0.0,0.431584542816,435.174361465,27040.9540922,5.34960288747E-6,0.0,32.1156157615,0.0,0.0,-0.056827158944379924,0.0,0.0,0.0,-26110.4616879,1007.48823723,9.92610009478E-4,720.061911263,422.362377804,0.0,0.0,-0.0,0.0,0.0,0.0,0.431940105498,93.9887087815,257.833886263
13.7,2.09526436019E7,1.99978685842,0.0,0.0,0.43795547005,438.374781883,26997.2766352,5.4684911885E-6,0.0,32.1157498405,0.0,0.0,-0.05724508525430998,0.0,0.0,0.0,-26302.486912980003,1007.67430931,9.94126677911E-4,721.410832436,422.517712592,0.0,0.0,-0.0,0.0,0.0,0.0,0.435036396779,95.5219746887,259.730086333
13.8,2.09525996044E7,2.0438986597,0.0,0.0,0.444373093121,441.575215689,26953.2791354,5.58912827831E-6,0.0,32.1158849031,0.0,0.0,-0.057663013313308274,0.0,0.0,0.0,-26494.51294134,1007.86174483,9.95654459598E-4,722.769637709,422.674185582,0.0,0.0,-0.0,0.0,0.0,0.0,0.438130965432,97.0707682857,261.626294376
13.9,2.09525552869E7,2.08865443323,0.0,0.0,0.450837412517,444.77566298,26908.9615916,5.71152693533E-6,0.0,32.1160209492,0.0,0.0,-0.058080943133235065,0.0,0.0,0.0,-26686.5397788,1008.05054377,9.97193354585E-4,724.138327124,422.831796778,0.0,0.0,-0.0,0.0,0.0,0.0,0.441223799956,98.635183669,263.522510451
14.0,2.09525106493E7,2.13405884592,0.0,0.0,0.457348428733,447.976123854,26864.3240024,5.83569993832E-6,0.0,32.1161579789,0.0,0.0,-0.058498874728185116,0.0,0.0,0.0,-26878.56743124,1008.24070615,9.9874336292E-4,725.516900724,422.990546186,0.0,0.0,-0.0,0.0,0.0,0.0,0.444314888873,100.215315621,265.418734615
14.1,2.09524656917E7,2.18011656471,0.0,0.0,0.463906142267,451.176598409,26819.3663664,5.96166006631E-6,0.0,32.1162959923,0.0,0.0,-0.05891680810961755,0.0,0.0,0.0,-27070.59590454,1008.43223198,0.00100030448465,726.90535855,423.150433811,0.0,0.0,-0.0,0.0,0.0,0.0,0.447404220728,101.81125961,267.314966928
14.2,2.0952420414E7,2.22683225655,0.0,0.0,0.470510553618,454.377086743,26774.0886822,6.08942009863E-6,0.0,32.1164349892,0.0,0.0,-0.059334743291283396,0.0,0.0,0.0,-27262.62520458,1008.62512126,0.00100187671982,728.303700645,423.311459656,0.0,0.0,-0.0,0.0,0.0,0.0,0.450491784088,103.423111791,269.211207447
14.3,2.09523748163E7,2.27421058838,0.0,0.0,0.477161663292,457.577588954,26728.4909486,6.21899281492E-6,0.0,32.1165749698,0.0,0.0,-0.0597526802857877,0.0,0.0,0.0,-27454.65533724,1008.81937399,0.00100346006849,729.71192705,423.473623728,0.0,0.0,-0.0,0.0,0.0,0.0,0.453577567543,105.050969004,271.107456231
14.4,2.09523288985E7,2.32225622716,0.0,0.0,0.483859471797,460.77810514,26682.573164,6.35039099514E-6,0.0,32.1167159341,0.0,0.0,-0.06017061910573553,0.0,0.0,0.0,-27646.6863084,1009.01499019,0.00100505453069,731.130037811,423.636926031,0.0,0.0,-0.0,0.0,0.0,0.0,0.456661559709,106.694928777,273.003713338
14.5,2.09522826606E7,2.37097383987,0.0,0.0,0.490603979643,463.978635398,26636.3353271,6.48362741954E-6,0.0,32.1168578822,0.0,0.0,-0.060588559763731974,0.0,0.0,0.0,-27838.71812388,1009.21196985,0.00100666010648,732.558032968,423.80136657,0.0,0.0,-0.0,0.0,0.0,0.0,0.45974374922,108.355089322,274.899978826
14.6,2.09522361027E7,2.42036809349,0.0,0.0,0.497395187347,467.179179826,26589.7774364,6.61871486867E-6,0.0,32.1170008139,0.0,0.0,-0.06100650227238209,0.0,0.0,0.0,-28030.75078956,1009.41031299,0.00100827679591,733.995912567,423.96694535,0.0,0.0,-0.0,0.0,0.0,0.0,0.462824124738,110.031549538,276.796252754
14.7,2.09521892248E7,2.47044365501,0.0,0.0,0.504233095428,470.379738523,26542.8994907,6.7556661234E-6,0.0,32.1171447294,0.0,0.0,-0.06142444664543688,0.0,0.0,0.0,-28222.78431138,1009.6100196,0.00100990459902,735.443676651,424.133662377,0.0,0.0,-0.0,0.0,0.0,0.0,0.465902674945,111.724409011,278.692535179
14.8,2.09521420268E7,2.52120519144,0.0,0.0,0.511117704406,473.580311585,26495.7014883,6.89449396493E-6,0.0,32.1172896286,0.0,0.0,-0.06184239289492846,0.0,0.0,0.0,-28414.8186951,1009.8110897,0.00101154351587,736.901325265,424.301517655,0.0,0.0,-0.0,0.0,0.0,0.0,0.46897938855,113.433768013,280.588826161
14.9,2.09520945087E7,2.57265736979,0.0,0.0,0.518049014809,476.780899112,26448.1834279,7.03521117476E-6,0.0,32.1174355117,0.0,0.0,-0.062260341034034834,0.0,0.0,0.0,-28606.85394672,1010.0135233,0.00101319354651,738.368858452,424.470511189,0.0,0.0,-0.0,0.0,0.0,0.0,0.472054254283,115.159727502,282.485125757
15.0,2.09520466706E7,2.62480485709,0.0,0.0,0.525027027166,479.9815012,26400.345308,7.1778305347E-6,0.0,32.1175823786,0.0,0.0,-0.06267829107478813,0.0,0.0,0.0,-28798.890072000002,1010.21732039,0.00101485469098,739.846276258,424.640642985,0.0,0.0,-0.0,0.0,0.0,0.0,0.4751272609,116.902389123,284.381434026
15.1,2.09519985124E7,2.67765232037,0.0,0.0,0.532051742011,483.182117948,26352.1871271,7.32236482688E-6,0.0,32.1177302293,0.0,0.0,-0.06309624303093933,0.0,0.0,0.0,-28990.927076879998,1010.42248099,0.00101652694934,741.333578728,424.811913047,0.0,0.0,-0.0,0.0,0.0,0.0,0.478198397178,118.661855207,286.277751026
15.2,2.09519500342E7,2.73120442667,0.0,0.0,0.539123159879,486.382749454,26303.7088839,7.46882683378E-6,0.0,32.1178790639,0.0,0.0,-0.06351419691452057,0.0,0.0,0.0,-29182.96496724,1010.62900509,0.00101821032163,742.830765907,424.984321382,0.0,0.0,-0.0,0.0,0.0,0.0,0.481267651921,120.43822877,288.174076815
15.3,2.09519012359E7,2.78546584305,0.0,0.0,0.54624128131,489.583395815,26254.9105768,7.61722933818E-6,0.0,32.1180288825,0.0,0.0,-0.06393215273870984,0.0,0.0,0.0,-29375.003748900002,1010.83689272,0.00101990480792,744.337837841,425.157867993,0.0,0.0,-0.0,0.0,0.0,0.0,0.484335013957,122.231613517,290.070411452
15.4,2.09518521175E7,2.84044123658,0.0,0.0,0.553406106849,492.784057129,26205.7922042,7.76758512318E-6,0.0,32.1181796849,0.0,0.0,-0.06435011051611224,0.0,0.0,0.0,-29567.04342774,1011.04367875,0.00102174413302,746.011603572,425.33261526,0.0,0.0,-0.0,0.0,0.0,0.0,0.48740166051,124.058350462,291.966754994
15.5,2.09518026791E7,2.89613527434,0.0,0.0,0.560617637044,495.984733494,26156.3537648,7.91990697222E-6,0.0,32.1183314713,0.0,0.0,-0.06476807025933284,0.0,0.0,0.0,-29759.08400964,1011.25131565,0.00102362238264,747.727865351,425.508513787,0.0,0.0,-0.0,0.0,0.0,0.0,0.490466655177,125.906151961,293.863107501
15.6,2.09517529206E7,2.95255262341,0.0,0.0,0.567875872445,499.185425009,26106.595257,8.07420766908E-6,0.0,32.1184842417,0.0,0.0,-0.06518603198154967,0.0,0.0,0.0,-29951.12550054,1011.46029681,0.00102551279219,749.455238345,425.685551094,0.0,0.0,-0.0,0.0,0.0,0.0,0.493529750592,127.771926073,295.75946903
15.7,2.0951702842E7,3.0096979509,0.0,0.0,0.575180813605,502.38613177,26056.5166793,8.23049999785E-6,0.0,32.118637996,0.0,0.0,-0.06560399569594076,0.0,0.0,0.0,-30143.1679062,1011.67062223,0.00102741536175,751.193722607,425.863727188,0.0,0.0,-0.0,0.0,0.0,0.0,0.496590935817,129.655789246,297.655839641
15.8,2.09516524433E7,3.06757592392,0.0,0.0,0.582532461085,505.586853877,26006.1180302,8.38879674297E-6,0.0,32.1187927344,0.0,0.0,-0.06602196141396524,0.0,0.0,0.0,-30335.21123262,1011.88229192,0.00102933009135,752.943318191,426.043042074,0.0,0.0,-0.0,0.0,0.0,0.0,0.499650199936,131.55785868,299.55221939
15.9,2.09516017246E7,3.12619120959,0.0,0.0,0.589930815445,508.787591426,25955.3993081,8.54911068922E-6,0.0,32.1189484569,0.0,0.0,-0.06643992914937412,0.0,0.0,0.0,-30527.25548556,1012.09530589,0.00103125698107,754.704025149,426.223495758,0.0,0.0,-0.0,0.0,0.0,0.0,0.502707532058,133.478252325,301.448608336
16.0,2.09515506858E7,3.18554847503,0.0,0.0,0.59737587725,511.988344515,25904.3605114,8.7114546217E-6,0.0,32.1191051634,0.0,0.0,-0.06685789891534544,0.0,0.0,0.0,-30719.3006709,1012.30966415,0.00103319603096,756.475843536,426.405088244,0.0,0.0,-0.0,0.0,0.0,0.0,0.505762921318,135.417088883,303.345006538
16.1,2.09514993269E7,3.24565238741,0.0,0.0,0.60486764707,515.189113244,25853.0016386,8.87584132588E-6,0.0,32.119262854,0.0,0.0,-0.06727587072333832,0.0,0.0,0.0,-30911.346794640005,1012.52536669,0.00103514724108,758.258773406,426.587819539,0.0,0.0,-0.0,0.0,0.0,0.0,0.508816356874,137.374487807,305.241414055
16.2,2.0951447648E7,3.30650761387,0.0,0.0,0.612406125476,518.389897708,25801.3226882,9.04228358755E-6,0.0,32.1194215288,0.0,0.0,-0.06769384458767674,0.0,0.0,0.0,-31103.393862480003,1012.74241353,0.00103711061148,760.052814812,426.771689647,0.0,0.0,-0.0,0.0,0.0,0.0,0.511867827909,139.350569301,307.137830943
16.3,2.0951395649E7,3.36811882159,0.0,0.0,0.619991313045,521.590698007,25749.3236586,9.21079419284E-6,0.0,32.1195811877,0.0,0.0,-0.06811182051981984,0.0,0.0,0.0,-31295.44188042,1012.96080467,0.00103908614224,761.857967811,426.956698576,0.0,0.0,-0.0,0.0,0.0,0.0,0.514917323631,141.345454321,309.034257262
16.4,2.09513433299E7,3.43049067773,0.0,0.0,0.627623210356,524.791514239,25697.0045481,9.38138592826E-6,0.0,32.1197418309,0.0,0.0,-0.06852979853294565,0.0,0.0,0.0,-31487.490854339998,1013.18054013,0.00104107383341,763.674232456,427.142846329,0.0,0.0,-0.0,0.0,0.0,0.0,0.517964833272,143.359264575,310.93069307
16.5,2.09512906907E7,3.4936278495,0.0,0.0,0.635301817993,527.9923465,25644.3653552,9.55407158064E-6,0.0,32.1199034582,0.0,0.0,-0.06894777864023222,0.0,0.0,0.0,-31679.540790000003,1013.4016199,0.00104307368505,765.501608804,427.330132914,0.0,0.0,-0.0,0.0,0.0,0.0,0.52101034609,145.392122522,312.827138426
16.6,2.09512377314E7,3.55753500409,0.0,0.0,0.643027136542,531.193194889,25591.4060783,9.72886393718E-6,0.0,32.1200660698,0.0,0.0,-0.06936576085428457,0.0,0.0,0.0,-31871.59169334,1013.62404399,0.00104508569722,767.34009691,427.518558335,0.0,0.0,-0.0,0.0,0.0,0.0,0.524053851368,147.444151372,314.723593386
16.7,2.0951184452E7,3.62221680872,0.0,0.0,0.650799166592,534.394059505,25538.1267157,9.90577578542E-6,0.0,32.1202296656,0.0,0.0,-0.06978374518770783,0.0,0.0,0.0,-32063.6435703,1013.84781241,0.00104710986998,769.189696831,427.708122599,0.0,0.0,-0.0,0.0,0.0,0.0,0.527095338414,149.515475088,316.620058011
16.8,2.09511308526E7,3.68767793061,0.0,0.0,0.65861790874,537.594940444,25484.5272658,1.00848199133E-5,0.0,32.1203942457,0.0,0.0,-0.07020173165368,0.0,0.0,0.0,-32255.696426640003,1014.07292518,0.0010491462034,771.050408622,427.898825711,0.0,0.0,-0.0,0.0,0.0,0.0,0.530134796562,151.606218382,318.516532358
16.9,2.0951076933E7,3.75392303701,0.0,0.0,0.66648336358,540.795837805,25430.6077271,1.0266009109E-5,0.0,32.1205598102,0.0,0.0,-0.07061972026423319,0.0,0.0,0.0,-32447.750268300002,1014.29938228,0.00105119469753,772.922232342,428.090667677,0.0,0.0,-0.0,0.0,0.0,0.0,0.53317221517,153.716506721,320.413016485
17.0,2.09510226934E7,3.82095679516,0.0,0.0,0.674395531716,543.996751686,25376.3680977,1.04493561612E-5,0.0,32.120726359,0.0,0.0,-0.0710377110331184,0.0,0.0,0.0,-32639.805101160004,1014.52718374,0.00105325535245,774.805168046,428.283648503,0.0,0.0,-0.0,0.0,0.0,0.0,0.536207583623,155.846466322,322.309510451
17.1,2.09509681337E7,3.88878387232,0.0,0.0,0.682354413751,547.197682184,25321.8083762,1.06348738588E-5,0.0,32.1208938922,0.0,0.0,-0.07145570397236774,0.0,0.0,0.0,-32831.86093104,1014.75632955,0.0010553281682,776.699215793,428.477768195,0.0,0.0,-0.0,0.0,0.0,0.0,0.539240891332,157.996224154,324.206014315
17.2,2.09509132539E7,3.95740893577,0.0,0.0,0.690360010292,550.398629398,25266.9285608,1.08225749913E-5,0.0,32.1210624098,0.0,0.0,-0.07187369909515923,0.0,0.0,0.0,-33023.91776388,1014.98681973,0.00105741314487,778.60437564,428.673026759,0.0,0.0,-0.0,0.0,0.0,0.0,0.542272127732,160.165907937,326.102528133
17.3,2.0950858054E7,4.0268366528,0.0,0.0,0.698412321953,553.599593426,25211.7286498,1.10124723484E-5,0.0,32.1212319118,0.0,0.0,-0.07229169641409794,0.0,0.0,0.0,-33215.97560556,1015.21865428,0.0010595102825,780.520647646,428.8694242,0.0,0.0,-0.0,0.0,0.0,0.0,0.545301282285,162.355646144,327.999051966
17.4,2.0950802534E7,4.0970716907,0.0,0.0,0.706511349348,556.800574365,25156.2086415,1.120457872E-5,0.0,32.1214023983,0.0,0.0,-0.07270969594236193,0.0,0.0,0.0,-33408.0344619,1015.45183321,0.00106161958117,782.448031869,429.066960526,0.0,0.0,-0.0,0.0,0.0,0.0,0.548328344479,164.565568001,329.895585871
17.5,2.09507466938E7,4.16811871678,0.0,0.0,0.714657093097,560.001572313,25100.3685343,1.13989068968E-5,0.0,32.1215738693,0.0,0.0,-0.07312769769198327,0.0,0.0,0.0,-33600.09433878,1015.68635653,0.00106374104093,784.386528368,429.265635741,0.0,0.0,-0.0,0.0,0.0,0.0,0.551353303829,166.795803484,331.792129906
17.6,2.09506905336E7,4.23998239837,0.0,0.0,0.722849553822,563.202587369,25044.2083265,1.15954696694E-5,0.0,32.1217463248,0.0,0.0,-0.07354570167614002,0.0,0.0,0.0,-33792.15524214,1015.92222424,0.00106587466186,786.336137202,429.465449851,0.0,0.0,-0.0,0.0,0.0,0.0,0.554376149875,169.046483321,333.688684129
17.7,2.09506340533E7,4.31266740281,0.0,0.0,0.731088732148,566.40361963,24987.7280163,1.17942798292E-5,0.0,32.1219197649,0.0,0.0,-0.0739637079080102,0.0,0.0,0.0,-33984.2171778,1016.15943635,0.00106802044402,788.296858431,429.666402864,0.0,0.0,-0.0,0.0,0.0,0.0,0.557396872183,171.317738994,335.5852486
17.8,2.09505772529E7,4.38617839743,0.0,0.0,0.739374628705,569.604669194,24930.927602,1.19953501677E-5,0.0,32.1220941895,0.0,0.0,-0.07438171640019887,0.0,0.0,0.0,-34176.28015164001,1016.39799286,0.00107017838747,790.268692114,429.868494785,0.0,0.0,-0.0,0.0,0.0,0.0,0.560415460347,173.609702736,337.481823377
17.9,2.09505201324E7,4.46052004961,0.0,0.0,0.747707244127,572.80573616,24873.8070819,1.21986934769E-5,0.0,32.1222695988,0.0,0.0,-0.07479972716473818,0.0,0.0,0.0,-34368.3441696,1016.6378938,0.00107234849228,792.251638313,430.07172562,0.0,0.0,-0.0,0.0,0.0,0.0,0.563431903987,175.922507531,339.378408517
18.0,2.09504626918E7,4.53569702671,0.0,0.0,0.756086579051,576.006820624,24816.3664542,1.2404322549E-5,0.0,32.1224459927,0.0,0.0,-0.07521774021595204,0.0,0.0,0.0,-34560.409237440006,1016.87913915,0.00107453075852,794.245697086,430.276095375,0.0,0.0,-0.0,0.0,0.0,0.0,0.566446192748,178.256287118,341.275004079
18.1,2.0950404931E7,4.61171399612,0.0,0.0,0.764512634117,579.207922685,24758.6057172,1.2612250177E-5,0.0,32.1226233713,0.0,0.0,-0.07563575556472665,0.0,0.0,0.0,-34752.4753611,1017.12172893,0.00107672518625,796.250868497,430.481604057,0.0,0.0,-0.0,0.0,0.0,0.0,0.569458316305,180.611175985,343.171610122
18.2,2.09503468502E7,4.68857562524,0.0,0.0,0.772985409968,582.409042442,24700.5248691,1.28224891538E-5,0.0,32.1228017345,0.0,0.0,-0.07605377322538599,0.0,0.0,0.0,-34944.54254652,1017.36566316,0.00107893177554,798.267152605,430.688251672,0.0,0.0,-0.0,0.0,0.0,0.0,0.572468264356,182.987309377,345.068226703
18.3,2.09502884492E7,4.76628658148,0.0,0.0,0.781504907252,585.610179991,24642.1239081,1.30350522729E-5,0.0,32.1229810825,0.0,0.0,-0.07647179321053507,0.0,0.0,0.0,-35136.61079946,1017.61094182,0.00108115052645,800.294549472,430.896038227,0.0,0.0,-0.0,0.0,0.0,0.0,0.57547602663,185.384823285,346.964853882
18.4,2.09502297281E7,4.84485153227,0.0,0.0,0.790071126621,588.811335432,24583.4028325,1.32499523284E-5,0.0,32.1231614153,0.0,0.0,-0.07688981553220606,0.0,0.0,0.0,-35328.68012592,1017.85756494,0.00108338143906,802.33305916,431.104963727,0.0,0.0,-0.0,0.0,0.0,0.0,0.578481592881,187.803854459,348.861491716
18.5,2.0950170687E7,4.92427514504,0.0,0.0,0.798684068729,592.012508861,24524.3616404,1.34672021144E-5,0.0,32.1233427328,0.0,0.0,-0.07730784020357695,0.0,0.0,0.0,-35520.75053166,1018.10553252,0.00108562451344,804.382681732,431.315028179,0.0,0.0,-0.0,0.0,0.0,0.0,0.581484952889,190.244540397,350.758140264
18.6,2.09501113256E7,5.00456208725,0.0,0.0,0.807343734233,595.213700377,24465.0003301,1.36868144256E-5,0.0,32.1235250352,0.0,0.0,-0.07772586723725285,0.0,0.0,0.0,-35712.82202262,1018.35484456,0.00108787974964,806.443417249,431.526231589,0.0,0.0,-0.0,0.0,0.0,0.0,0.584486096464,192.707019352,352.654799584
18.7,2.09500516442E7,5.08571702636,0.0,0.0,0.816050123798,598.414910078,24405.3188998,1.39088020572E-5,0.0,32.1237083224,0.0,0.0,-0.07814389664641176,0.0,0.0,0.0,-35904.894604680005,1018.60550108,0.00109014714775,808.515265776,431.738573965,0.0,0.0,-0.0,0.0,0.0,0.0,0.587485013441,195.191430328,354.551469735
18.8,2.09499916427E7,5.16774462984,0.0,0.0,0.824803238086,601.616138062,24345.3173475,1.41331778046E-5,0.0,32.1238925945,0.0,0.0,-0.07856192844423172,0.0,0.0,0.0,-36096.96828372,1018.85750209,0.00109242670782,810.598227375,431.952055312,0.0,0.0,-0.0,0.0,0.0,0.0,0.590481693685,197.697913083,356.448150774
18.9,2.0949931321E7,5.25064956519,0.0,0.0,0.833603077769,604.817384426,24284.9956715,1.43599544637E-5,0.0,32.1240778515,0.0,0.0,-0.07897996264217187,0.0,0.0,0.0,-36289.04306556,1019.11084758,0.00109471842994,812.69230211,432.166675636,0.0,0.0,-0.0,0.0,0.0,0.0,0.593476127085,200.226608126,358.344842761
19.0,2.09498706792E7,5.33443649991,0.0,0.0,0.842449643517,608.01864927,24224.35387,1.45891448308E-5,0.0,32.1242640934,0.0,0.0,-0.07939799925455619,0.0,0.0,0.0,-36481.1189562,1019.36553757,0.00109702231416,814.797490045,432.382434946,0.0,0.0,-0.0,0.0,0.0,0.0,0.596468303562,202.777656721,360.241545753
19.1,2.09498097173E7,5.41911010152,0.0,0.0,0.851342936008,611.21993269,24163.3919411,1.48207617026E-5,0.0,32.1244513204,0.0,0.0,-0.07981603829284381,0.0,0.0,0.0,-36673.19596139999,1019.62157207,0.00109933836057,816.913791245,432.599333246,0.0,0.0,-0.0,0.0,0.0,0.0,0.599458213061,205.351200883,362.13825981
19.2,2.09497484352E7,5.50467503754,0.0,0.0,0.860282955921,614.421234785,24102.1098829,1.50548178761E-5,0.0,32.1246395323,0.0,0.0,-0.08023407977078571,0.0,0.0,0.0,-36865.2740871,1019.87895108,0.00110166656922,819.041205773,432.817370544,0.0,0.0,-0.0,0.0,0.0,0.0,0.602445845558,207.947383381,364.034984988
19.3,2.0949686833E7,5.59113597553,0.0,0.0,0.869269703938,617.622555652,24040.5076935,1.52913261489E-5,0.0,32.1248287293,0.0,0.0,-0.08065212370041402,0.0,0.0,0.0,-37057.353339119996,1020.13767461,0.0011040069402,821.179733695,433.036546846,0.0,0.0,-0.0,0.0,0.0,0.0,0.605431191054,210.566347736,365.931721347
