time,feVelocity_ft_s_X,feVelocity_ft_s_Y,feVelocity_ft_s_Z,altitudeMsl_ft,longitude_deg,latitude_deg,localGravity_ft_s2,eulerAngle_deg_Yaw,eulerAngle_deg_Pitch,eulerAngle_deg_Roll,bodyAngularRateWrtEi_deg_s_Roll,bodyAngularRateWrtEi_deg_s_Pitch,bodyAngularRateWrtEi_deg_s_Yaw,altitudeRateWrtMsl_ft_min,speedOfSound_ft_s,airDensity_slug_ft3,ambientPressure_lbf_ft2,ambientTemperature_dgR,aero_bodyForce_lbf_X,aero_bodyForce_lbf_Y,aero_bodyForce_lbf_Z,aero_bodyMoment_ftlbf_L,aero_bodyMoment_ftlbf_M,aero_bodyMoment_ftlbf_N,mach,trueAirspeed_nmi_h
0.0,3.45E-14,563.6364851,0.0,10000.0,-45.0,89.95,32.22662745013161,90.0,2.68912966,-0.083428335,0.0,0.0,0.0,0.0,1077.403467,0.001755555,1455.603646,483.0254287,-1399.276938,3.557407818,-20510.88319,3.7E-7,23218.32164,4.026985319,0.523143374,333.9454865
0.1,-1.756159145,563.6337538,-0.001541611,10000.00008,-44.8232389,89.94999976,32.22662745013161,90.16159479,2.689113304,-0.964135173,-15.609358101819845,-5.786873730812999E-4,-0.28472060468330507,0.092496678,1077.403467,0.001755555,1455.603642,483.0254284,-1399.605424,89.51571486,-20508.13753,-538.9781142,23237.87411,-312.3125176,0.523143379,333.9454892
0.2,-3.428548359,563.6259604,-0.001346002,10000.00023,-44.6464809,89.94999905,32.22662745013161,90.31349767,2.688833995,-2.177576445,-10.938700063702706,0.0050764060648518,-0.26516206009296783,0.080760116,1077.403466,0.001755555,1455.603633,483.0254279,-1400.099087,192.5724934,-20504.73908,-2653.45131,23257.37498,-619.0435235,0.523143285,333.9454291
0.3,-5.057306659,563.6135286,4.91376E-4,10000.0003,-44.4697293,89.94999789,32.22662745013161,90.45851834,2.68838867,-3.343379756,-11.539712909158586,0.013821403596141478,-0.36827148760878314,-0.029482562,1077.403466,0.001755555,1455.603629,483.0254277,-1400.765399,248.9423682,-20500.74604,1778.735727,23285.06363,-856.4590827,0.523143127,333.9453281
0.4,-6.630524892,563.5969807,0.005076585,10000.00005,-44.2929869,89.94999629,32.22662745013161,90.5934931,2.687742719,-4.471191491,-11.17157234240599,0.027191144562381975,-0.4803772692406117,-0.304595114,1077.403467,0.001755555,1455.603644,483.0254286,-1401.316873,317.1444213,-20499.76435,118.2489613,23308.54133,-1033.160146,0.523142908,333.9451886
0.5,-8.148173602,563.5768042,0.012826278,9999.999178,-44.1162566,89.94999426,32.22662746013161,90.71605766,2.68682789,-5.577537336,-10.865463910779836,0.04634013892076024,-0.608880128940809,-0.769576701,1077.40347,0.001755555,1455.603693,483.0254317,-1401.885399,350.7154962,-20503.32639,603.0241449,23348.00157,-1115.927279,0.523142648,333.9450239
0.6,-9.607777576,563.553525,0.023837825,9999.997371,-43.9395409,89.94999183,32.22662746013161,90.82532706,2.685680214,-6.651841031,-10.555738224705687,0.07099875273288811,-0.7420381561348786,-1.430269528,1077.403477,0.001755555,1455.603795,483.0254381,-1402.129655,362.5129999,-20515.27693,559.440012,23391.03193,-1112.316989,0.52314238,333.9448548
0.7,-11.00720141,563.5276786,0.037914299,9999.994307,-43.762842,89.94998901,32.226627470131604,90.92126719,2.684354098,-7.694034237,-10.209459320992512,0.10030325212260709,-0.8692979838985414,-2.274857936,1077.40349,0.001755555,1455.603968,483.025449,-1401.899376,351.1381357,-20537.79726,602.377359,23436.63358,-1030.101507,0.523142142,333.9447071
0.8,-12.34491249,563.4997881,0.054613211,9999.9897,-43.5861621,89.94998581,32.226627480131604,91.00480632,2.682938621,-8.701506634,-9.849355232161749,0.13266201763082555,-0.9826591160594997,-3.276792681,1077.403508,0.001755556,1455.604228,483.0254654,-1401.071869,321.100232,-20572.04787,626.749799,23482.35801,-886.2220617,0.523141974,333.9446054
0.9,-13.62015529,563.4703432,0.073379185,9999.983315,-43.409503,89.94998226,32.226627500131606,91.07758425,2.681535823,-9.672763809,-9.477182417630146,0.16618457501251208,-1.0760814888372725,-4.40275107,1077.403533,0.001755556,1455.604588,483.0254882,-1399.602042,277.8544716,-20617.87887,634.7882709,23526.76008,-701.8340037,0.523141905,333.944569
1.0,-14.8331466,563.439781,0.093647146,9999.974974,-43.2328663,89.94997836,32.22662753013161,91.14171583,2.68024612,-10.60702796,-9.102742237215875,0.19896864709205556,-1.1463365423520822,-5.61882878,1077.403566,0.001755556,1455.605059,483.0255179,-1397.526058,227.5859599,-20673.88212,629.1273461,23569.61962,-499.8295756,0.523141951,333.944609
1.1,-15.9850931,563.4084725,0.114943335,9999.964552,-43.0562535,89.94997414,32.226627560131604,91.19952323,2.679154396,-11.5043873,-8.73470268292256,0.22940210252129867,-1.1928860973469624,-6.89660009,1077.403608,0.001755557,1455.605647,483.025555,-1394.94946,176.4811079,-20737.70522,608.7469904,23611.63475,-302.2060391,0.523142117,333.9447275
1.2,-17.07811347,563.3767157,0.136954351,9999.951962,-42.879666,89.94996962,32.22662760013161,91.25327872,2.678319791,-12.36578841,-8.381036519765216,0.2563837164180016,-1.2176305402368006,-8.217261041,1077.403658,0.001755558,1455.606357,483.0255999,-1392.028451,130.0332881,-20806.4364,576.7136849,23654.34389,-127.8287173,0.52314239,333.9449174
1.3,-18.11506646,563.3447372,0.159562352,9999.937141,-42.7031048,89.9499648,32.2266276401316,91.30498325,2.677770578,-13.19290267,-8.047938739312125,0.2794450384888661,-1.2244030732625757,-9.573741092,1077.403717,0.001755558,1455.607194,483.0256527,-1388.942582,92.55943541,-20877.05719,536.6430976,23699.72737,9.181086487,0.523142748,333.9451641
1.4,-19.09931534,563.3126988,0.182842677,9999.920027,-42.5265711,89.94995971,32.22662769013189,91.35619916,2.677504119,-13.98792596,-7.739218880647328,0.2987639721292799,-1.2183238764646875,-10.97056064,1077.403785,0.001755559,1455.608159,483.0257137,-1385.867632,66.88400814,-20946.87633,492.903828,23749.82016,100.3700602,0.523143159,333.9454479
1.5,-20.03446065,563.2807108,0.207030849,9999.900542,-42.3500658,89.94995435,32.22662775013189,91.40794843,2.67749133,-14.75333096,-7.45608920787376,0.3150862219096048,-1.2050981770881426,-12.42185092,1077.403862,0.00175556,1455.609259,483.0257831,-1382.951688,54.22441724,-21013.84567,449.8667763,23806.40636,143.1611491,0.523143589,333.9457463
1.6,-20.9240721,563.2488475,0.232464449,9999.878579,-42.1735897,89.94994875,32.22662782013189,91.46067958,2.677684417,-15.49161192,-7.197281192433005,0.32957042308315265,-1.190339357243389,-13.94786696,1077.403949,0.001755562,1455.610498,483.0258613,-1380.297533,54.2598351,-21076.79547,411.3719935,23870.69708,140.4125674,0.523144003,333.9460372
1.7,-21.77144948,563.2171641,0.259514254,9999.853995,-41.9971436,89.9499429,32.226627890131894,91.51429861,2.678026317,-16.20505358,-6.959455636295043,0.3435950548092267,-1.1789854536877544,-15.57085526,1077.404047,0.001755563,1455.611885,483.0259489,-1377.951767,65.35410972,-21135.47862,380.3373852,23943.19363,99.45018815,0.523144369,333.9463011
1.8,-22.5794342,563.1857123,0.288512945,9999.826611,-41.8207284,89.94993683,32.226627980131894,91.5682535,2.678460462,-16.89554944,-6.73781424710878,0.35855188886797734,-1.1748598137881412,-17.31077669,1077.404156,0.001755565,1455.613431,483.0260465,-1375.904945,84.89051414,-21190.53333,358.4980799,24023.65628,30.74210527,0.523144664,333.9465236
1.9,-23.35028669,563.1545536,0.319692187,9999.796219,-41.6443446,89.94993055,32.22662807013189,91.62165689,2.678939445,-17.56448557,-6.526817840798237,0.3756566271091113,-1.1804047274420708,-19.18153124,1077.404277,0.001755566,1455.615146,483.0261547,-1374.096276,109.6691434,-21243.30716,346.3418928,24111.10911,-53.5995594,0.523144876,333.9466964
2.0,-24.08563553,563.1237677,0.353135475,9999.762596,-41.467993,89.94992406,32.22662817013189,91.67342988,2.679431688,-18.21269667,-6.320917091934463,0.3957988438053474,-1.1965947385632798,-21.18812852,1077.40441,0.001755568,1455.617043,483.0262745,-1372.426438,136.3177625,-21295.61931,343.165392,24204.01706,-141.3083537,0.523145002,333.9468178
2.1,-24.78649673,563.0934569,0.388752673,9999.725519,-41.2916741,89.94991737,32.22662828013189,91.72244918,2.679925424,-18.8404921,-6.115212351932403,0.4194441817567879,-1.2230173748350537,-23.32516039,1077.404558,0.00175557,1455.619135,483.0264066,-1370.773657,161.6707915,-21349.46842,347.2758875,24300.50392,-221.2854606,0.523145047,333.9468927
2.2,-25.45335291,563.0637447,0.42627582,9999.684782,-41.1153885,89.94991049,32.22662841013189,91.76768182,2.680429829,-19.4477419,-5.90597246233439,0.4465963078933215,-1.2580913300386138,-25.57654919,1077.404719,0.001755572,1455.621434,483.0265518,-1369.009601,183.0804846,-21406.7675,356.2788244,24398.5233,-284.6350636,0.523145029,333.9469309
2.3,-26.08627884,563.0347711,0.465277714,9999.640214,-40.9391364,89.94990344,32.226628550132176,91.80829466,2.680973359,-20.03400703,-5.690970278894976,0.47681925862863384,-1.299382278389791,-27.91666285,1077.404897,0.001755575,1455.623949,483.0267106,-1367.018274,198.6354994,-21469.07969,367.4225405,24496.14891,-325.3385201,0.523144966,333.9469458
2.4,-26.68509439,563.0066841,0.505207644,9999.591695,-40.7629184,89.94989622,32.22662869013217,91.84373029,2.681599704,-20.59869427,-5.469609295253649,0.5093094606550551,-1.3439707134435002,-30.31245864,1077.405089,0.001755577,1455.626687,483.0268834,-1364.708612,207.2751543,-21537.42744,377.9466945,24591.69766,-340.5422585,0.523144882,333.9469521
2.5,-27.24952649,562.9796294,0.545440215,9999.539163,-40.5867346,89.94988884,32.22662885013217,91.87374495,2.682362044,-21.14121504,-5.242837641969793,0.5430114684181764,-1.3888256311677245,-32.72641293,1077.405298,0.00175558,1455.629651,483.0270706,-1362.025284,208.7996827,-21612.19378,385.4375528,24683.96422,-330.4762401,0.523144799,333.9469634
2.6,-27.77936185,562.9537405,0.585330127,9999.482619,-40.4105852,89.9498813,32.22662903013217,91.89840907,2.683316397,-21.66112807,-5.012888995007719,0.5767521508324689,-1.4311445803949239,-35.11980762,1077.405523,0.001755583,1455.632842,483.027272,-1358.954531,203.7886174,-21693.0824,388.0604076,24772.24578,-298.0597311,0.523144733,333.9469908
2.7,-28.2745751,562.9291294,0.624266481,9999.422129,-40.2344704,89.94987363,32.226629210132174,91.91807445,2.68451494,-22.1582504,-4.782881906350543,0.6093831858849331,-1.468627651239667,-37.45598886,1077.405763,0.001755587,1455.636256,483.0274875,-1355.52252,193.446441,-21779.17847,384.7556466,24856.37243,-248.2707619,0.523144695,333.9470416
2.8,-28.73542128,562.9058797,0.661719851,9999.357815,-40.0583903,89.94986583,32.226629410132176,91.93331536,2.686000125,-22.63272564,-4.556353817425396,0.6399092312938692,-1.4996651187765362,-39.70319108,1077.406019,0.00175559,1455.639885,483.0277167,-1351.79227,179.4009243,-21869.07677,375.2862329,24936.68611,-187.3764873,0.523144691,333.9471181
2.9,-29.16248632,562.884043,0.697277531,9999.289848,-39.8823447,89.94985791,32.22662962013217,91.9448525,2.687800276,-23.08504545,-4.33678808244355,0.6675893380386152,-1.523429460062025,-41.83665185,1077.406289,0.001755594,1455.64372,483.0279588,-1347.852876,163.4808765,-21961.07124,360.1805943,25013.97032,-122.118499,0.523144717,333.9472185
3.0,-29.55669456,562.8636382,0.730663651,9999.218432,-39.7063338,89.94984987,32.22662983013246,91.95346989,2.689927094,-23.51602634,-4.127195881097313,0.691999001688759,-1.5398736352611537,-43.83981906,1077.406572,0.001755598,1455.64775,483.0282133,-1343.809334,147.498998,-22053.34446,340.5936064,25089.22974,-58.9442338,0.523144764,333.9473365
3.1,-29.9192769,562.8446539,0.761743314,9999.143793,-39.5303573,89.94984173,32.226630060132464,91.95993409,2.692375225,-23.9267495,-3.9298005761106842,0.7130519920961338,-1.5496474358093788,-45.70459886,1077.406869,0.001755602,1455.651962,483.0284792,-1339.768966,133.0618394,-22144.16993,318.1045168,25163.61896,-3.358446643,0.523144819,333.9474629
3.2,-30.25170715,562.8270538,0.790511559,9999.066161,-39.3544153,89.9498335,32.226630300132456,91.96492404,2.6951238,-24.31847473,-3.745851616547505,0.7309789247732794,-1.553949661301451,-47.43069352,1077.407177,0.001755606,1455.656343,483.0287558,-1335.830415,121.4237993,-22232.08284,294.4761034,25238.21036,40.55165391,0.523144863,333.9475867
3.3,-30.5556166,562.8107837,0.817069121,9998.985765,-39.1785075,89.94982518,32.22663055013247,91.96897783,2.698139529,-24.692542,-3.575575320736851,0.7462718558746532,-1.5543399028557139,-49.02414724,1077.407497,0.001755611,1455.66088,483.0290422,-1332.073297,113.3951044,-22316.02036,271.434225,25313.9132,70.38691116,0.523144879,333.9476962
3.4,-30.83269898,562.7957787,0.841590811,9998.902816,-39.0026339,89.94981678,32.22663080013246,91.97246018,2.701380911,-25.05027333,-3.4182493607864033,0.7596036097390766,-1.5525338825896848,-50.49544867,1077.407826,0.001755615,1455.665561,483.0293377,-1328.552133,109.3074043,-22395.37048,250.4634196,25391.30881,85.49740351,0.523144851,333.9477806
3.5,-31.08461634,562.7819715,0.864288484,9998.817508,-38.8267944,89.9498083,32.22663106013246,91.97555177,2.704802934,-25.39288661,-3.27237843144243,0.7717347878395846,-1.5502054967018355,-51.85730904,1077.408165,0.00175562,1455.670375,483.0296417,-1325.292566,109.0339345,-22469.99393,232.6701618,25470.65493,86.85088096,0.523144765,333.9478309
3.6,-31.31291684,562.7692988,0.885375438,9998.730012,-38.6509887,89.94979976,32.226631330132456,91.97825928,2.70836165,-25.72142973,-3.135941137603713,0.783418600493655,-1.5488168761895584,-53.12252626,1077.408513,0.001755625,1455.675312,483.0299534,-1322.291553,112.055995,-22540.19076,218.7022664,25551.82608,76.74429531,0.523144612,333.9478406
3.7,-31.51897126,562.757707,0.905034512,9998.64048,-38.4752169,89.94979117,32.22663161013275,91.98044265,2.712018161,-26.03674027,-3.006664040034957,0.7953157253348524,-1.5494896432326,-54.30207073,1077.408869,0.00175563,1455.680365,483.0302724,-1319.521857,117.5635951,-22606.60154,208.7125632,25634.34081,58.40639562,0.523144386,333.9478065
3.8,-31.70393412,562.7471551,0.923394543,9998.549049,-38.2994786,89.94978251,32.22663189013275,91.98185485,2.715741594,-26.33943264,-2.8822983366860546,0.8079305371102296,-1.5529277910738366,-55.40367258,1077.409232,0.001755635,1455.685524,483.0305981,-1316.9374,124.5754829,-22670.08872,202.4196478,25717.49702,35.54584163,0.523144087,333.9477283
3.9,-31.8687301,562.737616,0.940515605,9998.455843,-38.1237739,89.94977381,32.22663217013275,91.98218861,2.719510847,-26.62991062,-2.760862281135211,0.8215667034512056,-1.559393963566556,-56.4309363,1077.409602,0.00175564,1455.690784,483.0309302,-1314.480971,132.0640423,-22731.61895,199.1581483,25800.36957,11.89983604,0.523143719,333.9476086
4.0,-32.01406514,562.729076,0.956384647,9998.360987,-37.9481025,89.94976507,32.22663247013275,91.98112408,2.723315073,-26.9084017,-2.64082366964669,0.8363143506189542,-1.5687351236836782,-57.38307884,1077.409979,0.001755645,1455.696137,483.0312681,-1312.091561,139.0707122,-22792.13123,198.0167421,25882.00807,-9.169434053,0.523143292,333.9474525
4.1,-32.14045846,562.721532,0.970921247,9998.264611,-37.7724642,89.94975629,32.22663276013275,91.97837256,2.727152891,-27.17500662,-2.5212202196035696,0.85205882975867,-1.5804502771291422,-58.25527484,1077.410362,0.001755651,1455.701576,483.0316115,-1309.712747,144.8010846,-22852.41863,197.9597307,25961.47323,-24.99164219,0.523142815,333.9472667
4.2,-32.24828931,562.7149879,0.983990537,9998.166852,-37.5968588,89.94974748,32.22663306013275,91.97371171,2.731030636,-27.42975685,-2.40169314483454,0.868513547381229,-1.5937873022052809,-59.03943219,1077.410751,0.001755656,1455.707093,483.0319598,-1307.299049,148.6916685,-22913.0541,197.9479752,26037.95783,-33.79569182,0.5231423,333.9470584
4.3,-32.3378526,562.7094502,0.995423001,9998.067867,-37.4212861,89.94973864,32.226633370133044,91.96700966,2.734959845,-27.67267301,-2.282454382428021,0.8852694689166878,-1.6078553068364463,-59.72538004,1077.411144,0.001755661,1455.712679,483.0323124,-1304.819361,150.4441695,-22974.33033,197.0829985,26110.8654,-34.7970676,0.523141759,333.946835
4.4,-32.40941568,562.7049238,1.005036434,9997.967829,-37.2457459,89.94972978,32.22663367013303,91.95823643,2.738954442,-27.90381658,-2.1641868980758048,0.9018521853106788,-1.6217394493111543,-60.30218602,1077.411542,0.001755667,1455.718324,483.0326689,-1302.260708,150.0277796,-23036.25722,194.6677438,26179.81624,-28.16942722,0.523141203,333.946603
4.5,-32.46327042,562.7014076,1.012658506,9997.866927,-37.070238,89.94972091,32.22663398013304,91.94746297,2.743027835,-28.12333048,-2.0479046551879354,0.9177824173675757,-1.6346046436430035,-60.75951033,1077.411942,0.001755673,1455.724018,483.0330283,-1299.627438,147.6521994,-23098.57095,190.2899868,26244.69424,-14.91774514,0.523140639,333.9463675
4.6,-32.49977545,562.698892,1.018147268,9997.765368,-36.8947619,89.94971202,32.226634300133036,91.93484911,2.74719041,-28.33146428,-1.9347833631600184,0.9326318791355188,-1.6457789822256443,-61.08883609,1077.412346,0.001755678,1455.729749,483.0333902,-1296.940097,143.718114,-23160.78972,183.8249497,26305.64661,3.324589876,0.523140074,333.9461318
4.7,-32.51938454,562.6973569,1.02140674,9997.663372,-36.7193175,89.94970312,32.22663461013304,91.92062308,2.751447558,-28.52858301,-1.825995064457772,0.9460668799946248,-1.654810114879822,-61.2844044,1077.412751,0.001755684,1455.735505,483.0337536,-1294.230562,138.7524969,-23222.28365,175.4337857,26362.98811,24.54258444,0.52313951,333.9458974
4.8,-32.52265997,562.6967713,1.022396979,9997.561163,-36.5439045,89.94969422,32.22663492013304,91.9050555,2.755798478,-28.71516024,-1.722557733195804,0.9578778892792141,-1.6614915476161716,-61.34381872,1077.413157,0.001755689,1455.741273,483.0341177,-1291.539834,133.3376897,-23282.35663,165.4999773,26417.17357,46.60020608,0.523138947,333.945664
4.9,-32.51027058,562.6970936,1.021137547,9997.458968,-36.3685226,89.94968532,32.22663524013333,91.88843151,2.760235809,-28.89175786,-1.6252201679165692,0.9679930580817776,-1.6658593767757859,-61.26825285,1077.413563,0.001755695,1455.747041,483.0344818,-1288.910147,128.0422788,-23340.32631,154.5683765,26468.75032,67.4854019,0.523138383,333.9454299
5.0,-32.48297655,562.6982742,1.017704652,9997.357008,-36.1931715,89.94967643,32.226635550133324,91.87102396,2.764746026,-29.05899655,-1.5343895124292874,0.9764742658441894,-1.6681632400700037,-61.0622791,1077.413969,0.001755701,1455.752795,483.0348451,-1286.38242,123.3610286,-23395.59773,143.2751713,26518.26786,85.514809,0.523137814,333.9451922
5.1,-32.44160403,562.7002575,1.012223134,9997.255496,-36.0178508,89.94966754,32.22663587013333,91.85307076,2.769310552,-29.2175209,-1.450107821836121,0.9834983273420267,-1.6688175005762627,-60.73338807,1077.414372,0.001755706,1455.758523,483.0352067,-1283.990472,119.6696133,-23447.71816,132.2367029,26566.20137,99.48045221,0.523137235,333.9449476
5.2,-32.38701321,562.7029847,1.004854041,9997.154627,-35.8425603,89.94965867,32.226636180133326,91.83475811,2.773907312,-29.36796452,-1.3720696523364861,0.9893289750483876,-1.6683394245920062,-60.29124247,1077.414773,0.001755712,1455.764216,483.0355661,-1281.758862,117.1968029,-23496.41363,122.0183173,26612.95487,108.7291666,0.523136641,333.9446929
5.3,-32.32006427,562.7063975,0.995780113,9997.054582,-35.6672997,89.94964982,32.22663648013333,91.81621101,2.778512578,-29.51091822,-1.299681935316644,0.9942792158067518,-1.6672838071502587,-59.7468068,1077.41517,0.001755717,1455.769862,483.0359225,-1279.700984,116.0159414,-23541.60857,113.043668,26658.77302,113.1731508,0.523136029,333.9444251
5.4,-32.24158514,562.7104399,0.985190638,9996.955522,-35.4920688,89.94964098,32.22663679013333,91.79749127,2.783102837,-29.64690537,-1.2321440195536797,0.998674604236312,-1.6661796028874842,-59.11143829,1077.415564,0.001755723,1455.775452,483.0362755,-1277.81817,116.0539186,-23583.40251,105.5820246,26703.73075,113.2386859,0.523135395,333.9441422
5.5,-32.15234447,562.715061,0.973267703,9996.857589,-35.3168672,89.94963217,32.226637090133615,91.77860238,2.787656478,-29.77636589,-1.1685488555621228,1.0028180631233536,-1.6654772139264342,-58.39606221,1077.415953,0.001755728,1455.780979,483.0366244,-1276.101651,117.115163,-23622.04735,99.72937511,26747.80805,109.7636467,0.523134737,333.943843
5.6,-32.05303197,562.7202163,0.960174396,9996.760907,-35.1416947,89.94962338,32.22663739013361,91.75949999,2.792155133,-29.89964999,-1.1079812578558126,1.0069591728834353,-1.6655094141545206,-57.61046378,1077.416337,0.001755733,1455.786435,483.0369688,-1274.533375,118.9162986,-23657.91583,95.40816247,26790.8168,103.86235,0.523134057,333.9435278
5.7,-31.94332767,562.7259269,0.946506094,9996.665579,-34.966551,89.94961463,32.226637680133614,91.7403163,2.796695655,-30.00288258,-0.2767432560059305,1.010256602290188,-1.6535847300433775,-56.79036564,1077.416716,0.001755739,1455.791815,483.0373084,-1272.708386,101.1001478,-23693.28107,3593.665145,26804.51991,107.3166595,0.523133362,333.9432021
5.8,-31.82778918,562.7320432,0.929648139,9996.571728,-34.7914359,89.9496059,32.22663797013361,91.72272116,2.80168174,-29.99206998,0.20749036297058307,1.0021414572630847,-1.6462969933682214,-55.77888832,1077.417089,0.001755744,1455.797112,483.0376428,-1270.766998,113.87515,-23722.60221,-706.7252725,26793.09747,139.4803408,0.523132756,333.9429308
5.9,-31.71025721,562.738192,0.91005925,9996.479728,-34.6163491,89.9495972,32.22663825013361,91.70532239,2.806214332,-29.9933667,0.061225754325576184,1.0005808348207095,-1.6450325901059286,-54.60355499,1077.417454,0.001755749,1455.802304,483.0379706,-1270.272341,100.5043258,-23743.09022,117.8664494,26868.75824,170.6433753,0.523132099,333.9426241
6.0,-31.5892375,562.7444824,0.888011704,9996.389803,-34.4412906,89.94958854,32.22663853013361,91.68846325,2.810844558,-29.99358813,0.1008748921148083,0.9969710861198315,-1.6377275501053596,-53.28070222,1077.417812,0.001755754,1455.807379,483.038291,-1268.766414,94.67721033,-23766.24904,-21.92947827,26856.84763,191.6873523,0.523131414,333.9422981
6.1,-31.46581582,562.7508822,0.863697878,9996.302201,-34.2662601,89.94957991,32.226638800133905,91.6724918,2.815438742,-29.99359642,0.09107674086029015,0.9912937619194473,-1.6292903455016137,-51.8218727,1077.41816,0.001755759,1455.812323,483.0386031,-1267.781134,90.49265243,-23782.89396,-3.977756654,26865.13418,203.4038386,0.523130733,333.9419712
6.2,-31.34067706,562.7573342,0.837687885,9996.21712,-34.0912575,89.94957132,32.2266390601339,91.65758286,2.819956887,-29.99369668,0.09339882421239301,0.9848087391152686,-1.6198804877448552,-50.26127313,1077.418498,0.001755763,1455.817124,483.0389062,-1267.03554,89.12865708,-23794.85123,-4.736546707,26872.09011,205.2651283,0.52313004,333.9416337
6.3,-31.21456515,562.7637884,0.810401624,9996.134707,-33.9162827,89.94956276,32.2266393201339,91.64378614,2.824361322,-29.9937027,0.09291822721383797,0.9780556293587483,-1.6108466621890405,-48.62409745,1077.418825,0.001755768,1455.821775,483.0391998,-1266.563341,90.24531679,-23802.18502,-5.232773951,26880.56562,198.4504018,0.52312933,333.9412818
6.4,-31.08811788,562.7702038,0.782247101,9996.055069,-33.7413355,89.94955423,32.226639560133904,91.63102736,2.828616863,-29.99368452,0.09303167285727372,0.9716708168729375,-1.6030570144853507,-46.93482609,1077.419142,0.001755772,1455.82627,483.0394835,-1266.333951,93.40997723,-23805.55648,-4.59566344,26890.01274,184.7744527,0.523128598,333.9409127
6.5,-30.9618433,562.7765511,0.753565153,9995.978275,-33.5664158,89.94954574,32.2266398001339,91.61913612,2.832696637,-29.99363016,0.09303213122350983,0.9661323776420929,-1.5971956562411707,-45.21390919,1077.419447,0.001755777,1455.830604,483.0397571,-1266.305834,98.02524205,-23805.78907,-4.295780966,26900.05981,166.5869545,0.523127845,333.9405263
6.6,-30.83608837,562.7828144,0.724626296,9995.904364,-33.3915236,89.94953729,32.2266400301339,91.60787556,2.836582412,-29.99355494,0.09306576384608395,0.9617683872997058,-1.5936397082772553,-43.47757778,1077.41974,0.001755781,1455.834775,483.0400205,-1266.426656,103.4086395,-23803.82348,-3.806723935,26910.14504,146.4124662,0.523127073,333.9401246
6.7,-30.71103298,562.7889907,0.695626282,9995.833352,-33.2166587,89.94952887,32.226640250133904,91.59697688,2.840265296,-29.99346869,0.0931127463852846,0.958732283943312,-1.5924736245726068,-41.73757691,1077.420023,0.001755785,1455.838783,483.0402735,-1266.640445,108.8859563,-23800.58046,-3.368440376,26919.60476,126.6656374,0.523126289,333.9397114
6.8,-30.58670155,562.7950877,0.666691248,9995.765237,-33.0418211,89.94952048,32.22664046013419,91.58617232,2.84374503,-29.99338255,0.09317771979925235,0.9570123792338907,-1.593514803477917,-40.00147486,1077.420293,0.001755788,1455.842627,483.0405162,-1266.893452,113.8584636,-23796.89564,-2.976276213,26927.85064,109.4052218,0.5231255,333.939292
6.9,-30.46298883,562.8011217,0.637887674,9995.700009,-32.8670105,89.94951212,32.226640660134194,91.57522392,2.847028634,-29.99330588,0.09325913710194032,0.9564550631865677,-1.5963679041145464,-38.27326046,1077.420552,0.001755792,1455.846308,483.0407485,-1267.14041,117.8585897,-23793.43454,-2.678254793,26934.37843,96.15962485,0.523124717,333.9388723
7.0,-30.33969627,562.8071139,0.609237367,9995.637654,-32.692227,89.9495038,32.226640850134196,91.56394528,2.850128519,-29.99324587,0.0933532740676802,0.9567993535256614,-1.6004942315635136,-36.554242,1077.4208,0.001755795,1455.849827,483.0409707,-1267.346856,120.5827798,-23790.65012,-2.491927647,26938.82293,87.83127567,0.523123948,333.9384585
7.1,-30.21657252,562.8130875,0.580733376,9995.578156,-32.5174703,89.94949552,32.22664104013419,91.55221502,2.853060314,-29.993207,0.09345520325943381,0.9577202685897738,-1.6052880548438073,-34.84400258,1077.421037,0.001755799,1455.853185,483.0411827,-1267.490868,121.9030499,-23788.77815,-2.423927104,26940.98445,84.68059549,0.523123203,333.938056
7.2,-30.09335433,562.8190646,0.552356672,9995.521503,-32.3427404,89.94948726,32.22664121013419,91.53998147,2.855840706,-29.99319086,0.09355896591613186,0.9588722575326623,-1.610149888214383,-33.14140032,1077.421262,0.001755802,1455.856382,483.0413845,-1267.564457,121.8581484,-23787.84268,-2.466533421,26940.85416,86.38024164,0.523122488,333.9376695
7.3,-29.96980271,562.8250635,0.524090872,9995.467681,-32.1680372,89.94947905,32.22664138013419,91.52725929,2.858485508,-29.99319643,0.0936587751640435,0.9599295938477951,-1.6145498603063042,-31.44545232,1077.421476,0.001755805,1455.85942,483.0415763,-1267.572262,120.6280198,-23787.6806,-2.601398776,26938.58569,92.12615822,0.523121809,333.9373022
7.4,-29.84573133,562.8310971,0.49593362,9995.416681,-31.9933604,89.94947086,32.22664154013449,91.51411936,2.861008128,-29.99322046,0.09374930249567405,0.9606194923289111,-1.6180755560986366,-29.75601721,1077.421678,0.001755808,1455.862298,483.041758,-1267.52809,118.4964496,-23787.99858,-2.802375829,26934.46508,100.7839374,0.523121169,333.9369561
7.5,-29.72102536,562.837172,0.46790477,9995.36849,-31.8187101,89.94946271,32.22664169013448,91.50067399,2.86341851,-29.99325814,0.09382659450223707,0.9607445117198085,-1.62046112317444,-28.07428618,1077.42187,0.00175581,1455.865018,483.0419297,-1267.453222,115.8073518,-23788.42214,-3.039670016,26928.88369,111.0531366,0.523120568,333.9366318
7.6,-29.59564954,562.8432885,0.440049692,9995.323094,-31.6440859,89.94945459,32.22664183013448,91.48705944,2.865722686,-29.99330378,0.093888015577875,0.9601950451942788,-1.6215967255243875,-26.40298149,1077.42205,0.001755813,1455.86758,483.0420914,-1267.372447,112.9202655,-23788.55346,-3.283350014,26922.25526,121.6276283,0.523120005,333.9363286
7.7,-29.46964633,562.8494412,0.412439012,9995.280472,-31.4694879,89.94944651,32.22664196013449,91.47341825,2.867922798,-29.9933516,0.09393264899011564,0.9589500652012409,-1.6215206940249738,-24.74634073,1077.422219,0.001755815,1455.869986,483.0422432,-1267.309811,110.1698267,-23788.0235,-3.506563479,26915.00032,131.3357793,0.523119478,333.9360448
7.8,-29.34312541,562.85562,0.385164489,9995.240595,-31.2949158,89.94943846,32.22664208013448,91.45988298,2.870017596,-29.99339627,0.09396101040097458,0.9570685290978136,-1.620396035168913,-23.10986934,1077.422378,0.001755817,1455.872236,483.0423853,-1267.28762,107.8331661,-23786.53687,-3.688061589,26907.5042,139.2491111,0.523118984,333.9357782
7.9,-29.21624714,562.8618119,0.358332987,9995.203425,-31.1203695,89.94943045,32.22664220013448,91.4465632,2.872003277,-29.9934335,0.09397493327539624,0.9546736228099495,-1.6184771995130227,-21.49997921,1077.422526,0.001755819,1455.874334,483.0425177,-1267.32243,106.1075852,-23783.88787,-3.813877332,26900.09451,144.7501897,0.523118517,333.9355261
8.0,-29.08920222,562.8680025,0.332058654,9995.16891,-30.9458489,89.94942247,32.22664230013448,91.43353656,2.873874494,-29.99346034,0.09397728240235627,0.9519307592531031,-1.6160711205481537,-19.92351922,1077.422663,0.001755821,1455.876282,483.0426407,-1267.424963,105.0996741,-23779.98848,-3.877568391,26893.00368,147.5591195,0.523118075,333.9352861
8.1,-28.96219007,562.8741776,0.306454296,9995.13699,-30.7713539,89.94941453,32.22664240013477,91.42084434,2.875625466,-29.99347531,0.09397143823284594,0.9490255767528966,-1.6134975660197686,-18.38725779,1077.42279,0.001755823,1455.878083,483.0427544,-1267.5987,104.8255234,-23774.86101,-3.880284696,26886.35262,147.7201311,0.523117652,333.9350559
8.2,-28.83539909,562.8803249,0.281623936,9995.107593,-30.5968843,89.94940662,32.22664249013477,91.40849157,2.877250986,-29.99347837,0.09396083851363604,0.9461410207333146,-1.6110532707699645,-16.89743614,1077.422906,0.001755825,1455.879743,483.0428592,-1267.84016,105.2206179,-23768.62875,-3.829596156,26880.17102,145.5553595,0.523117248,333.9348339
8.3,-28.70898992,562.8864343,0.25765623,9995.080637,-30.42244,89.94939874,32.226642580134765,91.39645087,2.878747288,-29.9934708,0.09394880639993831,0.9434396393208356,-1.6089830596646006,-15.4593738,1077.423013,0.001755826,1455.881264,483.0429552,-1268.141187,106.1570623,-23761.49325,-3.737594233,26874.43477,141.5947267,0.523116859,333.9346188
8.4,-28.58308381,562.8924994,0.234620157,9995.056031,-30.248021,89.9493909,32.22664265013477,91.38466939,2.880112638,-29.99345479,0.09393809208916938,0.9410470248641524,-1.6074603670282632,-14.0772094,1077.423111,0.001755827,1455.882653,483.0430429,-1268.488343,107.465402,-23753.70333,-3.619448671,26869.00935,136.4924858,0.523116485,333.9344102
8.5,-28.45775609,562.898517,0.212562484,9995.03368,-30.073627,89.9493831,32.22664272013477,91.37307746,2.881347674,-29.99343318,0.09393064363783268,0.939045339511086,-1.606577897432204,-12.75374905,1077.4232,0.001755829,1455.883914,483.0431225,-1268.866551,108.9581139,-23745.53458,-3.491033154,26863.77722,130.9411846,0.523116125,333.9342083
8.6,-28.33303531,562.9044872,0.191507655,9995.013485,-29.899258,89.94937533,32.22664278013477,91.36159802,2.882455442,-29.99340904,0.0939276069615185,0.9374683877715498,-1.6063477402859,-11.4904593,1077.42328,0.00175583,1455.885054,483.0431945,-1269.259707,110.4519772,-23737.25263,-3.36742155,26858.55636,125.5928093,0.523115781,333.9340137
8.7,-28.20890719,562.910413,0.17145966,9994.995345,-29.7249139,89.94936759,32.226642840134765,91.35015555,2.8834412,-29.99338529,0.09392921124334487,0.9363061428841285,-1.6067107663448945,-10.28757959,1077.423352,0.001755831,1455.886078,483.0432591,-1269.65307,111.7871515,-23729.09031,-3.261106675,26853.22548,120.9937023,0.523115455,333.9338275
8.8,-28.08532224,562.9162994,0.152404986,9994.979159,-29.5505946,89.94935989,32.22664289013506,91.33868373,2.884312001,-29.99336445,0.09393494082129615,0.9355095596615594,-1.607551925683925,-9.144299177,1077.423417,0.001755832,1455.886991,483.0433168,-1270.033495,112.841281,-23721.23559,-3.181256443,26847.63372,117.5402067,0.523115147,333.9336507
8.9,-27.96220614,562.9221524,0.134317242,9994.964831,-29.3762999,89.94935222,32.22664293013506,91.3271311,2.885076152,-29.99334838,0.09394370707556166,0.9350026066044284,-1.6087197855577384,-8.059034503,1077.423474,0.001755832,1455.8878,483.0433678,-1270.391934,113.537785,-23713.81005,-3.132898049,26841.70447,115.4550145,0.523114859,333.9334846
9.0,-27.83947107,562.9279785,0.117161662,9994.952265,-29.2020298,89.94934458,32.22664297013506,91.31546447,2.885742609,-29.99333819,0.09395402031587399,0.9346930375077196,-1.6100472714732752,-7.029699728,1077.423524,0.001755833,1455.888509,483.0434126,-1270.722582,113.8481947,-23706.87901,-3.117101652,26835.41204,114.7859106,0.523114593,333.9333302
9.1,-27.7170269,562.9337839,0.100899912,9994.941369,-29.0277841,89.94933698,32.22664301013506,91.30366979,2.886320393,-29.99333422,0.09396427626040682,0.9344841370956152,-1.611371778008277,-6.053994722,1077.423567,0.001755834,1455.889124,483.0434514,-1271.023149,113.789023,-23700.44857,-3.131334959,26828.73442,115.4229383,0.523114349,333.9331882
9.2,-27.59479104,562.9395734,0.085494199,9994.932056,-28.8535626,89.94932941,32.22664304013506,91.29175105,2.886818046,-29.9933361,0.09397281333155426,0.9342864666562954,-1.6125518991789065,-5.12965196,1077.423604,0.001755834,1455.88965,483.0434846,-1271.295197,113.4142312,-23694.4708,-3.170059837,26821.76551,117.1302848,0.523114129,333.9330591
9.3,-27.472696,562.9453507,0.070910618,9994.924243,-28.6793654,89.94932188,32.22664306013506,91.27972723,2.887243247,-29.99334286,0.0939783137263875,0.9340258281552907,-1.6134796897365604,-4.254637051,1077.423635,0.001755835,1455.890091,483.0435124,-1271.542805,112.8046403,-23688.86359,-3.225922362,26814.56422,119.5880454,0.523113932,333.9329428
9.4,-27.35069403,562.9511175,0.057120907,9994.917847,-28.5051922,89.94931437,32.22664308013506,91.26762811,2.887602536,-29.99335314,0.09397974612087533,0.9336492802923312,-1.614088228210768,-3.427254402,1077.42366,0.001755835,1455.890451,483.0435352,-1271.771716,112.0558467,-23683.52479,-3.290627807,26807.24223,122.4367968,0.523113757,333.9328391
9.5,-27.2287593,562.9568743,0.044103862,9994.912792,-28.331043,89.94930691,32.22664309013535,91.25548947,2.887901198,-29.99336537,0.09397665214878162,0.9331285762481172,-1.614353278486795,-2.646231696,1077.42368,0.001755835,1455.890737,483.0435532,-1271.988572,111.2660913,-23678.34594,-3.356025912,26799.92529,125.3215443,0.523113603,333.9327471
9.6,-27.10688686,562.9626196,0.031844828,9994.909001,-28.1569176,89.94929947,32.22664311013535,91.24334825,2.888143296,-29.99337798,0.09396880262698834,0.9324587885856102,-1.614290596904008,-1.910689695,1077.423695,0.001755836,1455.890951,483.0435667,-1272.199983,110.5253841,-23673.2327,-3.414850747,26792.71817,127.9287382,0.523113469,333.9326661
9.7,-26.98508986,562.9683513,0.020335113,9994.906398,-27.982816,89.94929207,32.22664311013535,91.23123818,2.888331825,-29.99338954,0.09395665592173158,0.9316573925175619,-1.6139488848749923,-1.220106785,1077.423706,0.001755836,1455.891098,483.043576,-1272.412159,109.9069561,-23668.10036,-3.461555842,26785.74169,130.0150414,0.523113352,333.932595
9.8,-26.86339465,562.9740663,0.009569901,9994.904909,-27.8087379,89.9492847,32.22664312013535,91.21918641,2.888468942,-29.99339893,0.09394078499080649,0.9307576768918693,-1.6134005642650529,-0.574194034,1077.423712,0.001755836,1455.891182,483.0435813,-1272.62902,109.4615341,-23662.89566,-3.49258754,26779.05228,131.4237641,0.523113252,333.9325326
9.9,-26.7418352,562.9797612,-4.53664E-4,9994.90446,-27.6346833,89.94927737,32.22664312013535,91.20721114,2.888556251,-29.9934054,0.09392216386246476,0.9298043324165524,-1.6127309484898846,0.027219863,1077.423713,0.001755836,1455.891207,483.0435829,-1272.853534,109.2148179,-23657.60107,-3.506479694,26772.71734,132.0912036,0.523113165,333.9324779
10.0,-26.62044748,562.9854329,-0.009738523,9994.904975,-27.4606521,89.94927006,32.22664312013535,91.19532068,2.888595117,-29.99340859,0.09390176656495813,0.9288467480535516,-1.612027356317465,0.58431136,1077.423711,0.001755836,1455.891178,483.0435811,-1273.086635,109.167934,-23652.21536,-3.503823795,26766.77206,132.0407641,0.523113091,333.9324299
10.1,-26.49926393,562.9910785,-0.018289879,9994.906383,-27.2866441,89.94926279,32.22664311013535,91.18351355,2.888586927,-29.99340856,0.09388062442231783,0.9279325365956421,-1.6113694288813172,1.097392765,1077.423706,0.001755836,1455.891098,483.043576,-1273.327232,109.3004602,-23646.7796,-3.486931786,26761.22364,131.3702402,0.523113028,333.9323877
10.2,-26.37830923,562.996696,-0.026116714,9994.908609,-27.1126593,89.94925556,32.22664311013563,91.17177974,2.888533329,-29.9934057,0.09385971146279559,0.927103237482971,-1.6108219677080704,1.567002866,1077.423697,0.001755836,1455.890973,483.0435681,-1273.573131,109.5753834,-23641.34027,-3.459278027,26756.02786,130.2308302,0.523112974,333.9323508
10.3,-26.25759725,563.0022843,-0.033233011,9994.911582,-26.9386975,89.94924836,32.22664310013563,91.16010262,2.888436387,-29.99340063,0.09383971523574555,0.9263897331406956,-1.6104294343226269,1.993980674,1077.423685,0.001755835,1455.890805,483.0435575,-1273.820502,109.9451767,-23635.9668,-3.425158183,26751.16409,128.8048283,0.52311293,333.9323188
10.4,-26.13712965,563.0078429,-0.03965795,9994.915232,-26.7647586,89.94924119,32.22664309013564,91.14846142,2.888298658,-29.99339416,0.09382120869896286,0.925810988471835,-1.6102141167832171,2.379476977,1077.423671,0.001755835,1455.890599,483.0435445,-1274.065671,110.3582518,-23630.72614,-3.388825811,26746.58632,127.2816568,0.523112894,333.9322913
10.5,-26.01689581,563.0133724,-0.045416047,9994.919491,-26.5908425,89.94923405,32.22664307013564,91.1368338,2.888123199,-29.99338711,0.09380447833134506,0.9253727903501193,-1.6101764161602974,2.724962846,1077.423654,0.001755835,1455.890359,483.0435293,-1274.304146,110.7649925,-23625.68511,-3.354448278,26742.23899,125.8369657,0.523112866,333.9322682
10.6,-25.89687408,563.0188739,-0.050536481,9994.924294,-26.4169492,89.94922695,32.226643060135636,91.1251982,2.887913515,-29.9933803,0.09378958142867168,0.925069065422921,-1.6102977113255263,3.032188848,1077.423635,0.001755835,1455.890088,483.0435122,-1274.532704,111.1228142,-23620.90008,-3.325295612,26738.08445,124.6153962,0.523112846,333.9322496
10.7,-25.77703395,563.0243491,-0.05505229,9994.929579,-26.2430784,89.94921988,32.226643040135635,91.11353598,2.88767344,-29.99337437,0.09377628880782467,0.924883427097299,-1.6105447707267864,3.303137425,1077.423614,0.001755834,1455.889789,483.0434934,-1274.747883,111.3998219,-23616.41117,-3.303690729,26734.07245,123.7192587,0.523112834,333.9322355
10.8,-25.65733921,563.0297998,-0.058998751,9994.935286,-26.0692301,89.94921284,32.22664302013563,91.10183277,2.887406979,-29.99336981,0.09376437128568596,0.9247926132867708,-1.6108750808956789,3.53992507,1077.423591,0.001755834,1455.889467,483.0434731,-1274.947656,111.5768599,-23612.24476,-3.29091026,26730.17336,123.2028388,0.52311283,333.9322259
10.9,-25.53775096,563.0352279,-0.062412216,9994.94136,-25.8954041,89.94920583,32.22664301013563,91.09007938,2.887118156,-29.99336691,0.09375337049601946,0.924769408496068,-1.6112426906170343,3.74473298,1077.423567,0.001755834,1455.889124,483.0434514,-1275.130772,111.6479247,-23608.40594,-3.287059961,26726.38281,123.0727243,0.523112834,333.9322209
11.0,-25.41823049,563.0406351,-0.065329139,9994.947751,-25.7216004,89.94919886,32.22664299013593,91.07827196,2.886810868,-29.99336572,0.09374277077680956,0.9247859096805677,-1.6116036540279663,3.919748351,1077.423541,0.001755833,1455.888764,483.0434287,-1275.297241,111.6191112,-23604.89276,-3.291326582,26722.68255,123.2935527,0.523112845,333.9322205
11.1,-25.29874211,563.046023,-0.067784576,9994.954411,-25.5478189,89.94919192,32.226642960135926,91.06641155,2.886488719,-29.99336612,0.09373228564915868,0.9248165056268276,-1.611920270505555,4.067074553,1077.423515,0.001755833,1455.888388,483.0434049,-1275.447756,111.5064305,-23601.67843,-3.302053097,26719.08837,123.796555,0.523112864,333.9322244
11.2,-25.17925521,563.0513925,-0.069811256,9994.961294,-25.3740594,89.94918501,32.226642940135925,91.05450325,2.886154953,-29.99336782,0.09372145674683073,0.9248405125584437,-1.61216440782206,4.188675333,1077.423488,0.001755833,1455.887999,483.0433804,-1275.584039,111.3328028,-23598.73152,-3.317309807,26715.626,124.4919669,0.52311289,333.9322325
11.3,-25.05974515,563.0567442,-0.071439478,9994.96836,-25.2003218,89.94917814,32.22664292013593,91.042555,2.885812368,-29.99337044,0.09371005488670764,0.9248425179107266,-1.612319335609863,4.286368658,1077.42346,0.001755832,1455.887601,483.0433552,-1275.707963,111.1247368,-23596.01896,-3.334607968,26712.29477,125.2807016,0.523112923,333.9322444
11.4,-24.94019413,563.0620783,-0.072696245,9994.975569,-25.026606,89.9491713,32.22664290013593,91.03057628,2.885463307,-29.99337355,0.0936980227730099,0.9248149013450013,-1.6123801264319264,4.361774725,1077.423431,0.001755832,1455.887194,483.0433295,-1275.821773,110.9090115,-23593.50045,-3.351867973,26709.14488,126.0663344,0.523112961,333.9322599
11.5,-24.82059038,563.0673944,-0.073606067,9994.982887,-24.8529119,89.94916449,32.22664288013593,91.01857675,2.885109678,-29.99337672,0.0936852458141785,0.9247556002132054,-1.612352280683083,4.416364009,1077.423402,0.001755831,1455.886781,483.0433035,-1275.927387,110.7097963,-23591.14582,-3.367140797,26706.17809,126.7653813,0.523113004,333.9322784
11.6,-24.70092772,563.0726922,-0.074190543,9994.99028,-24.6792394,89.94915771,32.226642850135924,91.00656513,2.884752992,-29.99337957,0.09367183860177247,0.9246690262903613,-1.612250408787109,4.451432584,1077.423372,0.001755831,1455.886363,483.0432771,-1276.026946,110.5463804,-23588.92217,-3.378930163,26703.41938,127.3140669,0.523113051,333.9322996
11.7,-24.58120374,563.0779708,-0.074469653,9994.997715,-24.5055884,89.94915097,32.22664283013593,90.99454825,2.884394448,-29.9933818,0.09365808761468934,0.9245638312391753,-1.6120949653372902,4.468179202,1077.423343,0.001755831,1455.885944,483.0432506,-1276.121824,110.4317391,-23586.8112,-3.386387604,26700.88997,127.673116,0.523113102,333.9323229
11.8,-24.46141883,563.0832296,-0.074461365,9995.005164,-24.3319587,89.94914426,32.22664281013622,90.98253052,2.884035015,-29.99338323,0.09364416474026768,0.9244516461028889,-1.611909556194786,4.46768187,1077.423313,0.00175583,1455.885523,483.0432241,-1276.213108,110.3719665,-23584.79741,-3.389164442,26698.59378,127.8283589,0.523113156,333.9323479
11.9,-24.34157396,563.0884677,-0.074183261,9995.012598,-24.1583503,89.94913758,32.22664278013622,90.97051365,2.883675513,-29.99338376,0.09363029916162555,0.9243446748825381,-1.6117180164038742,4.450995639,1077.423284,0.00175583,1455.885104,483.0431976,-1276.301247,110.3664844,-23582.88303,-3.387531743,26696.51985,127.789579,0.523113212,333.9323743
12.0,-24.22166975,563.0936846,-0.073652252,9995.019992,-23.984763,89.94913093,32.226642760136215,90.95849676,2.883316694,-29.99338343,0.09361683465343998,0.9242550642833799,-1.6115416599945331,4.419135101,1077.423254,0.001755829,1455.884687,483.0431713,-1276.38615,110.4089744,-23581.0622,-3.382133678,26694.67213,127.5856409,0.523113269,333.9324017
12.1,-24.10170509,563.0988798,-0.072885386,9995.027321,-23.8111968,89.94912432,32.22664274013622,90.94647673,2.882959316,-29.99338236,0.09360400039882907,0.9241930129541671,-1.6113976184048375,4.373123151,1077.423225,0.001755829,1455.884273,483.0431452,-1276.467658,110.4887921,-23579.34598,-3.373963169,26693.02701,127.2597874,0.523113327,333.9324299
12.2,-23.98167626,563.1040531,-0.071900399,9995.034562,-23.6376514,89.94911774,32.22664271013622,90.93444875,2.882604183,-29.99338073,0.09359191098935184,0.924165740163119,-1.6112971789033512,4.314023947,1077.423197,0.001755829,1455.883864,483.0431194,-1276.544729,110.5926507,-23577.75066,-3.364227729,26691.57813,126.862571,0.523113386,333.9324586
12.3,-23.86157682,563.1092045,-0.070715294,9995.041694,-23.4641269,89.94911119,32.22664269013622,90.92240704,2.882252161,-29.99337876,0.09358079560812631,0.9241773712063602,-1.611245669997569,4.242917643,1077.423168,0.001755828,1455.883462,483.043094,-1276.617139,110.7063882,-23576.27942,-3.354081627,26690.30757,126.445721,0.523113445,333.9324877
12.4,-23.74139748,563.1143341,-0.069348686,9995.048699,-23.290623,89.94910468,32.226642670136215,90.9103455,2.881904192,-29.99337667,0.093570596959373,0.9242276196049931,-1.6112424041381368,4.160921156,1077.42314,0.001755828,1455.883066,483.043069,-1276.683626,110.8166043,-23574.94896,-3.34461821,26689.16529,126.0564509,0.523113505,333.9325172
12.5,-23.62112657,563.1194423,-0.067819443,9995.055559,-23.1171397,89.9490982,32.22664265013622,90.89825835,2.881561281,-29.99337469,0.0935613723388714,0.9243145945982938,-1.6112815944513237,4.069166562,1077.423113,0.001755827,1455.882679,483.0430446,-1276.743441,110.9119781,-23573.76781,-3.336740257,26688.16747,125.7329394,0.523113565,333.9325468
12.6,-23.50075047,563.1245295,-0.066146789,9995.062258,-22.9436769,89.94909175,32.22664263013651,90.88614074,2.881224453,-29.99337298,0.0935530071550625,0.9244322801294135,-1.611353672541951,3.968807312,1077.423086,0.001755827,1455.882301,483.0430207,-1276.796267,110.9842321,-23572.73963,-3.3310196,26687.27644,125.5014565,0.523113625,333.9325768
12.7,-23.38025468,563.1295963,-0.064349539,9995.068784,-22.7702345,89.94908533,32.22664261013651,90.87398905,2.88089473,-29.99337167,0.09354544411216678,0.9245739152963697,-1.6114468927752186,3.860972345,1077.423061,0.001755827,1455.881933,483.0429974,-1276.841659,111.0286222,-23571.86279,-3.327768049,26686.4911,125.375143,0.523113684,333.9326068
12.8,-23.25962451,563.134643,-0.062446022,9995.075124,-22.5968123,89.94907895,32.22664259013651,90.8618011,2.880573094,-29.99337083,0.09353851132284571,0.9247311922111328,-1.6115484781922953,3.746761347,1077.423035,0.001755826,1455.881575,483.0429749,-1276.879969,111.0439874,-23571.13502,-3.326956793,26685.79042,125.3539415,0.523113744,333.9326371
12.9,-23.13884592,563.1396701,-0.060453686,9995.08127,-22.4234103,89.9490726,32.22664257013651,90.84957624,2.880260426,-29.99337046,0.09353209419554025,0.9248960894645712,-1.6116466831583804,3.627221166,1077.423011,0.001755826,1455.881228,483.042953,-1276.910764,111.0324234,-23570.54884,-3.328332421,26685.1671,125.4267306,0.523113803,333.9326674
13.0,-23.01790621,563.1446778,-0.058388817,9995.087213,-22.2500283,89.94906629,32.22664255013651,90.83731511,2.8799575,-29.99337054,0.0935260781386914,0.9250615023800253,-1.6117314809120598,3.503329012,1077.422987,0.001755826,1455.880893,483.0429318,-1276.935249,110.9986296,-23570.08886,-3.331446898,26684.62765,125.573761,0.523113862,333.9326977
13.1,-22.89679443,563.1496665,-0.056266554,9995.092946,-22.0766662,89.94906,32.22664253013651,90.82501946,2.879664942,-29.99337097,0.09352029126496057,0.925221185717528,-1.6117954802977759,3.375993212,1077.422965,0.001755825,1455.880569,483.0429114,-1276.953831,110.9490934,-23569.74479,-3.335697911,26684.16337,125.7698455,0.523113921,333.932728
13.2,-22.77550184,563.1546361,-0.054100364,9995.098465,-21.9033239,89.94905376,32.22664251013651,90.81269181,2.879383225,-29.99337164,0.09351473357434782,0.925371186068293,-1.6118346706109627,3.246021822,1077.422943,0.001755825,1455.880258,483.0428917,-1276.967119,110.8911378,-23569.50235,-3.340453829,26683.78505,125.9875764,0.523113979,333.9327582
13.3,-22.65402185,563.1595866,-0.051902354,9995.103765,-21.7300013,89.94904754,32.22664249013651,90.80033501,2.879112683,-29.99337244,0.09350929047529408,0.9255091543053603,-1.6118480205275891,3.114141228,1077.422922,0.001755825,1455.879959,483.0428728,-1276.976093,110.8320521,-23569.34376,-3.345112146,26683.47353,126.2010742,0.523114036,333.932788
13.4,-22.53234989,563.1645179,-0.049683308,9995.108844,-21.5566982,89.94904136,32.22664248013651,90.78795199,2.878853487,-29.99337325,0.09350396196779938,0.9256347466540529,-1.6118374781041587,2.980998471,1077.422901,0.001755825,1455.879672,483.0428547,-1276.981628,110.7783099,-23569.25702,-3.349194685,26683.2649,126.3880626,0.523114092,333.9328175
13.5,-22.41048324,563.1694298,-0.047452546,9995.113701,-21.3834147,89.94903521,32.2266424601368,90.77554536,2.878605691,-29.99337396,0.09349880534764321,0.9257488798468427,-1.6118073405241349,2.847152734,1077.422882,0.001755824,1455.879398,483.0428374,-1276.984335,110.734977,-23569.22802,-3.352331874,26683.12995,126.5318747,0.523114146,333.9328465
13.6,-22.28842044,563.1743219,-0.045218507,9995.118335,-21.2101505,89.94902909,32.2266424501368,90.7631172,2.878369249,-29.9933745,0.09349382061482557,0.9258539603064695,-1.611763337365469,2.713110434,1077.422864,0.001755824,1455.879136,483.0428209,-1276.984654,110.705356,-23569.25078,-3.354236068,26683.07361,126.6227377,0.5231142,333.9328748
13.7,-22.16616103,563.179194,-0.042988605,9995.122745,-21.0369055,89.94902301,32.2266424301368,90.75066891,2.878144035,-29.99337483,0.09348900776934649,0.9259530820050271,-1.6117120003470253,2.579316326,1077.422846,0.001755824,1455.878887,483.0428052,-1276.983092,110.6908574,-23569.31593,-3.35485096,26683.1005,126.6577195,0.523114251,333.9329025
13.8,-22.04370497,563.1840458,-0.040769563,9995.126933,-20.8636797,89.94901696,32.2266424201368,90.73820119,2.877929871,-29.99337491,0.09348453869854448,0.9260493389146089,-1.611659803891889,2.446173797,1077.422829,0.001755824,1455.878651,483.0427903,-1276.979996,110.6910823,-23569.42189,-3.354318132,26683.2079,126.6402543,0.523114301,333.9329292
13.9,-21.92105231,563.1888771,-0.038567585,9995.1309,-20.6904729,89.94901094,32.22664241013679,90.72571401,2.877726558,-29.99337477,0.09348041340241953,0.9261461687819859,-1.6116125348737909,2.3140551,1077.422814,0.001755823,1455.878427,483.0427761,-1276.975551,110.7041128,-23569.56163,-3.352764862,26683.37849,126.5790328,0.52311435,333.9329551
14.0,-21.79820277,563.1936876,-0.036388588,9995.134647,-20.517285,89.94900496,32.226642400136804,90.71320677,2.877533885,-29.99337444,0.09347663188097168,0.926245806142559,-1.6115745477719736,2.183315298,1077.422799,0.001755823,1455.878216,483.0427628,-1276.969649,110.7269016,-23569.73998,-3.350535135,26683.61744,126.4862215,0.523114396,333.9329801
14.1,-21.6751558,563.1984773,-0.034237895,9995.138178,-20.3441159,89.94899901,32.226642380136795,90.70067843,2.877351654,-29.99337396,0.09347330872575992,0.9263506001232882,-1.611548879262752,2.054273697,1077.422785,0.001755823,1455.878016,483.0427502,-1276.962333,110.7557456,-23569.95224,-3.347933538,26683.91571,126.3758167,0.52311444,333.933004
14.2,-21.55191013,563.2032459,-0.03212082,9995.141496,-20.1709654,89.94899309,32.2266423701368,90.68812771,2.877179677,-29.99337341,0.09347038664100475,0.9264607799072917,-1.611536617965936,1.927249202,1077.422772,0.001755823,1455.877829,483.0427384,-1276.953517,110.7867679,-23570.20063,-3.345253104,26684.25152,126.2617862,0.523114483,333.933027
14.3,-21.42846397,563.2079935,-0.03004244,9995.144604,-19.9978336,89.94898721,32.2266423601368,90.67555327,2.87701779,-29.99337284,0.09346792292248571,0.9265768611565852,-1.6115374201068493,1.802546413,1077.422759,0.001755823,1455.877654,483.0427273,-1276.943039,110.8163574,-23570.48729,-3.342781587,26684.62449,126.1570197,0.523114523,333.933049
14.4,-21.30481493,563.21272,-0.028007806,9995.147506,-19.8247202,89.94898137,32.22664235013709,90.66295389,2.876865837,-29.9933723,0.09346586027442323,0.926697583364019,-1.611549566812106,1.680468336,1077.422748,0.001755822,1455.87749,483.042717,-1276.930682,110.8415081,-23570.81331,-3.34083338,26685.03567,126.0715908,0.523114562,333.9330701
14.5,-21.18096056,563.2174255,-0.026021304,9995.150207,-19.6516251,89.94897555,32.22664235013709,90.6503286,2.87672367,-29.99337186,0.09346419869681735,0.9268218006140032,-1.6115702505885103,1.561278234,1077.422737,0.001755822,1455.877338,483.0427074,-1276.916696,110.8600841,-23571.17209,-3.339425014,26685.47196,126.0119299,0.523114598,333.9330901
14.6,-21.05689818,563.2221098,-0.024087219,9995.152712,-19.4785483,89.94896977,32.22664234013709,90.6376768,2.876591144,-29.99337153,0.09346288089388856,0.9269471064837981,-1.6115962628724092,1.445233141,1077.422727,0.001755822,1455.877196,483.0426984,-1276.900957,110.8709261,-23571.5655,-3.33875294,26685.91402,125.9813417,0.523114633,333.9331093
14.7,-20.93262523,563.2267731,-0.022209443,9995.155026,-19.3054896,89.94896403,32.22664233013709,90.62499829,2.876468099,-29.99337133,0.09346184956985731,0.9270717248042389,-1.6116241086212524,1.332566609,1077.422718,0.001755822,1455.877066,483.0426902,-1276.883498,110.8738444,-23571.99281,-3.338725707,26686.38487,125.9792871,0.523114666,333.9331275
14.8,-20.80813966,563.2314153,-0.020391112,9995.157156,-19.1324489,89.94895831,32.226642320137096,90.61229324,2.87635436,-29.99337127,0.09346104742894414,0.927193363744145,-1.6116505219756079,1.223466734,1077.422709,0.001755822,1455.876945,483.0426826,-1276.864584,110.8695239,-23572.44349,-3.339289689,26686.86529,126.0023803,0.523114698,333.9331449
14.9,-20.68343971,563.2360363,-0.018635184,9995.159106,-18.9594261,89.94895264,32.226642320137096,90.5995622,2.876249722,-29.99337132,0.0934604171753695,0.9273100752470129,-1.611672981921177,1.118111047,1077.422702,0.001755822,1455.876835,483.0426756,-1276.8444,110.8593435,-23572.91738,-3.340308502,26687.34263,126.0449783,0.523114727,333.9331613
15.0,-20.55852429,563.2406361,-0.016943978,9995.160885,-18.7864211,89.94894699,32.226642310137095,90.58680603,2.87615394,-29.99337147,0.09345995880913338,0.9274204842141345,-1.6116894831056767,1.016638686,1077.422695,0.001755822,1455.876735,483.0426693,-1276.823126,110.8451188,-23573.40785,-3.34164791,26687.83962,126.0999349,0.523114755,333.933177
15.1,-20.43339308,563.2452145,-0.015319138,9995.162497,-18.6134337,89.94894138,32.226642300137094,90.57402571,2.876066755,-29.99337169,0.09345961503445632,0.9275235020256989,-1.611699108796635,0.919148255,1077.422688,0.001755822,1455.876644,483.0426636,-1276.801168,110.8288743,-23573.91068,-3.343047889,26688.32871,126.1598539,0.523114781,333.9331918
15.2,-20.30804632,563.2497715,-0.01376191,9995.163951,-18.4404639,89.94893581,32.226642300137094,90.56122236,2.875987862,-29.99337194,0.09345938585133826,0.9276188422028087,-1.6117016871067131,0.82571458,1077.422682,0.001755821,1455.876562,483.0426584,-1276.778534,110.8125924,-23574.4229,-3.34444431,26688.83156,126.2176341,0.523114806,333.9332057
15.3,-20.18248499,563.2543068,-0.01227292,9995.165252,-18.2675116,89.94893027,32.22664229013709,90.54839707,2.875916928,-29.99337218,0.09345921396399973,0.927706447449684,-1.611697790993706,0.736375229,1077.422677,0.001755821,1455.876488,483.0426537,-1276.755541,110.7980015,-23574.93442,-3.345625937,26689.33399,126.2674137,0.523114829,333.9332188
15.4,-20.05671051,563.2588202,-0.010852411,9995.166408,-18.0945766,89.94892476,32.226642290137384,90.53555083,2.875853593,-29.9933724,0.0934591566682202,0.9277868907241202,-1.611688738260543,0.651144637,1077.422673,0.001755821,1455.876423,483.0426496,-1276.732729,110.7864236,-23575.4452,-3.346542279,26689.84282,126.3048218,0.52311485,333.9332311
15.5,-19.93072474,563.2633116,-0.009500264,9995.167425,-17.9216587,89.94891929,32.226642290137384,90.52268448,2.875797486,-29.99337257,0.0934591566682202,0.927860916871251,-1.6116761331890501,0.570015844,1077.422669,0.001755821,1455.876366,483.042646,-1276.710245,110.7786987,-23575.95254,-3.347133923,26690.36453,126.3275731,0.52311487,333.9332425
15.6,-19.8045299,563.2677807,-0.008215884,9995.16831,-17.748758,89.94891385,32.22664228013738,90.50979865,2.875748232,-29.99337269,0.09345927125977924,0.927929614510887,-1.6116617519483925,0.492953057,1077.422665,0.001755821,1455.876316,483.0426429,-1276.687916,110.7751382,-23576.45106,-3.347370613,26690.87658,126.3349798,0.523114889,333.9332531
15.7,-19.67812816,563.2722273,-0.006998745,9995.16907,-17.5758743,89.94890845,32.22664228013738,90.49689379,2.875705453,-29.99337273,0.09345950044289729,0.9279937857839415,-1.6116473707077348,0.419924716,1077.422662,0.001755821,1455.876273,483.0426401,-1276.666047,110.7755695,-23576.94438,-3.347287912,26691.39993,126.3282589,0.523114905,333.9332629
15.8,-19.55152194,563.2766513,-0.005847778,9995.169712,-17.4030075,89.94890308,32.22664228013738,90.48397012,2.875668768,-29.99337272,0.09345984421757436,0.9280546339017846,-1.6116345364531237,0.350866705,1077.42266,0.001755821,1455.876237,483.0426379,-1276.644462,110.7794159,-23577.42434,-3.3469357,26691.91189,126.3099935,0.523114921,333.9332719
15.9,-19.42471342,563.2810525,-0.004762076,9995.170242,-17.2301574,89.94889775,32.22664228013738,90.47102773,2.875637812,-29.99337266,0.09346024528803094,0.9281127318222105,-1.6116243378043704,0.285724537,1077.422657,0.001755821,1455.876207,483.042636,-1276.623465,110.7858129,-23577.89796,-3.346401291,26692.41922,126.2835623,0.523114935,333.9332801
16.0,-19.29770483,563.2854307,-0.003740351,9995.170667,-17.0573239,89.94889245,32.22664227013738,90.45806657,2.875612242,-29.99337256,0.09346081824582608,0.9281691681650309,-1.6116176341981674,0.224421069,1077.422656,0.001755821,1455.876183,483.0426345,-1276.602966,110.7937308,-23578.36135,-3.345787653,26692.92819,126.2528596,0.523114947,333.9332876
16.1,-19.17049809,563.2897857,-0.002781516,9995.170992,-16.884507,89.94888719,32.22664227013738,90.44508652,2.87559173,-29.99337244,0.09346150579518024,0.9282240002260248,-1.6116145975218532,0.166890973,1077.422654,0.001755821,1455.876164,483.0426333,-1276.582727,110.8021074,-23578.81477,-3.345176424,26693.43147,126.2216674,0.523114958,333.9332944
16.2,-19.04309507,563.2941175,-0.001884244,9995.171225,-16.7117065,89.94888196,32.22664227013738,90.43208747,2.875575957,-29.99337232,0.09346225064031391,0.9282772853009719,-1.6116151131838687,0.113054629,1077.422653,0.001755821,1455.876151,483.0426325,-1276.562902,110.8099688,-23579.25814,-3.344603772,26693.91481,126.1934108,0.523114968,333.9333004
16.3,-18.91549737,563.2984258,-0.001047399,9995.171371,-16.5389223,89.94887676,32.22664227013738,90.4190693,2.87556463,-29.99337221,0.09346311007700661,0.9283289660940927,-1.6116186082264192,0.062843932,1077.422653,0.001755821,1455.876143,483.0426319,-1276.54365,110.8165273,-23579.69404,-3.344201625,26694.39251,126.170796,0.523114977,333.9333059
16.4,-18.78770673,563.3027106,-2.69432E-4,9995.171437,-16.3661543,89.9488716,32.226642270137674,90.406032,2.875557465,-29.99337212,0.09346408410525833,0.9283787561264895,-1.6116243378043704,0.016165949,1077.422653,0.001755821,1455.876139,483.0426317,-1276.524504,110.8212314,-23580.12016,-3.343913879,26694.85763,126.1554655,0.523114985,333.9333107
16.5,-18.65972469,563.3069718,4.51045E-4,9995.171427,-16.1934024,89.94886648,32.226642270137674,90.39297563,2.875554192,-29.99337207,0.09346511542928956,0.9284263689192648,-1.6116313851852506,-0.027062723,1077.422653,0.001755821,1455.87614,483.0426317,-1276.50594,110.8237967,-23580.53627,-3.343847588,26695.31058,126.1481681,0.523114991,333.9333149
16.6,-18.53155281,563.3112091,0.001115459,9995.171348,-16.0206664,89.94886139,32.226642270137674,90.37990036,2.875554556,-29.99337205,0.0934662040491003,0.9284709450357259,-1.6116388336365872,-0.066927514,1077.422653,0.001755821,1455.876144,483.042632,-1276.487653,110.8242077,-23580.94249,-3.343927624,26695.73058,126.148514,0.523114997,333.9333186
16.7,-18.40319286,563.3154226,0.001725523,9995.171206,-15.8479463,89.94885634,32.226642270137674,90.36680644,2.875558297,-29.99337207,0.09346734996469057,0.9285125417716523,-1.6116457664259083,-0.103531354,1077.422654,0.001755821,1455.876152,483.0426325,-1276.469802,110.8226851,-23581.33861,-3.344216761,26696.14616,126.1555965,0.523115002,333.9333218
16.8,-18.27464659,563.319612,0.002282881,9995.171005,-15.6752419,89.94885132,32.226642270137674,90.35369425,2.875565168,-29.99337212,0.09346849588028083,0.9285507007608079,-1.6116515532996392,-0.136972846,1077.422654,0.001755821,1455.876164,483.0426333,-1276.452399,110.8196256,-23581.72164,-3.344550995,26696.55074,126.1677763,0.523115006,333.9333244
16.9,-18.14591595,563.3237772,0.002789342,9995.170751,-15.5025531,89.94884633,32.226642270137674,90.34056419,2.875574928,-29.9933722,0.0934696417958711,0.9285849636369568,-1.6116556212999846,-0.167360536,1077.422655,0.001755821,1455.876178,483.0426342,-1276.435443,110.8155368,-23582.09199,-3.345007773,26696.9303,126.1830488,0.523115009,333.9333267
