time,eiPosition_ft_X,eiPosition_ft_Y,eiPosition_ft_Z,gePosition_ft_X,gePosition_ft_Y,gePosition_ft_Z,eiVelocity_ft_s_X,eiVelocity_ft_s_Y,eiVelocity_ft_s_Z,feVelocity_ft_s_X,feVelocity_ft_s_Y,feVelocity_ft_s_Z,altitudeMsl_ft,longitude_deg,latitude_deg,localGravity_ft_s2,eulerAngle_deg_Yaw,eulerAngle_deg_Pitch,eulerAngle_deg_Roll,bodyAngularRateWrtEi_deg_s_Roll,bodyAngularRateWrtEi_deg_s_Pitch,bodyAngularRateWrtEi_deg_s_Yaw,altitudeRateWrtMsl_ft_min,speedOfSound_ft_s,airDensity_slug_ft3,ambientPressure_lbf_ft2,ambientTemperature_dgR,aero_bodyForce_lbf_X,aero_bodyForce_lbf_Y,aero_bodyForce_lbf_Z,aero_bodyMoment_ftlbf_L,aero_bodyMoment_ftlbf_M,aero_bodyMoment_ftlbf_N,mach,dynamicPressure_lbf_ft2,trueAirspeed_nmi_h,feVelocity_ft_s_Z
0.0,12962.13525935015,-12962.135259350149,2.08654785967852E7,12962.13525935015,-12962.135259350149,2.08654785967852E7,399.5006585958365,399.50065859585465,-7.138993396438309E-9,6.559823031937177E-12,563.6425153743959,7.139001835852694E-9,10000.000000000058,-45.0,89.94999999999861,32.226626416119046,89.99999999999933,2.687221169199962,3.9800700103626354E-16,0.08279135047635906,-0.001541029313101264,-1.7639472179974638,-4.283401101511616E-7,1077.4036205934656,0.001755554244585262,1455.6034586032597,483.0254911534171,-1399.748836090042,-63.00458688539577,-20501.25015927841,-225.8299823798613,1.4538763455639128,857.2755917282182,0.5231488943099976,278.8635559082031,333.9490661621094,7.139001835852694E-9
0.10000000149011612,13002.083552473832,-12922.182775709978,2.0865478598478723E7,13001.989322085292,-12922.277588054916,2.0865478598478727E7,399.4459506010935,399.56283774810913,-0.010687653884708083,-1.6586791351610317,563.64536344202,0.0092401803387188,10000.001766921465,-44.82382793849506,89.94999977059959,32.22662641067853,90.00850228729074,2.658126864214133,-0.9538192811453678,-11.317454735882366,-0.16263888318128628,-1.4101719703976727,-0.554410820323128,1077.4036135727713,0.0017555541472128117,1455.603358897367,483.0254848583309,-1453.61520455958,-565.4218674879164,-20068.498066368415,2375.2503991573544,3836.733964490053,7373.273363117564,0.5231537818908691,278.8687744140625,333.9521789550781,0.0092401803387188
0.20000000298023224,13042.022130280144,-12882.220746253492,2.0865478594820686E7,13041.83425162286,-12882.410952733877,2.086547859482069E7,399.3180041776538,399.685997145732,-0.054283672316460314,-3.222413218286204,563.6352598428265,0.05147155582133119,9999.99832235256,-44.6476592869666,89.9499991034104,32.22662642128272,90.07886188697292,2.652068247115963,-2.0628426132183932,-10.877341776191038,0.023499330292787817,-0.7182781993549948,-3.0882933492798714,1077.4036272594383,0.0017555543370379617,1455.6035532715055,483.0254971304432,-1407.6693187910728,-584.81545932604,-20384.31812657478,349.2020239802261,210.08607261671932,7196.402903315334,0.5231506824493408,278.8655090332031,333.9502258300781,0.05147155582133119
0.30000001192092896,13081.946137888226,-12842.244426361434,2.0865478588300243E7,13081.66519338826,-12842.530608455409,2.0865478588300243E7,399.1587336421529,399.84422033042983,-0.0752818216751986,-4.7391027076611225,563.6239518600046,0.07114603797440097,9999.992149524329,-44.47149705382345,89.94999801692012,32.226626440286154,90.21312613767395,2.652857951658681,-3.14305154746518,-10.72661380027047,0.018813631723454384,-0.1673411229272251,-4.268762278464059,1077.4036517865843,0.0017555546772135304,1455.6039015990873,483.0255191226413,-1401.4888584652817,-392.03006358127607,-20437.78855870313,15.692482623202169,-162.10155309057518,4565.16237006864,0.5231501460075378,278.8649597167969,333.9498596191406,0.07114603797440097
0.4000000059604645,13121.853438777192,-12802.251430023985,2.0865478579791963E7,13121.48001123647,-12802.634168835015,2.0865478579791967E7,398.9856985944808,400.01732117524193,-0.09503783813223957,-6.235428618115412,563.6096882570838,0.08959605622613263,9999.984120225123,-44.295343328606855,89.9499965199058,32.22662646500467,90.38830011208005,2.653982666941859,-4.214925196954743,-10.721476863827373,0.0022705606341339095,0.08358913089125955,-5.375763373567958,1077.4036836902403,0.0017555551196965836,1455.6043546858878,483.0255477289676,-1401.7559838239429,-97.06032398538194,-20442.087916360044,-43.07196660091049,-79.44778779465196,910.7481416488972,0.5231504440307617,278.8653259277344,333.9500427246094,0.08959605622613263
0.5,13161.742973117829,-12762.240668376933,2.0865478569222927E7,13161.27764573644,-12762.720544610736,2.086547856922293E7,398.80303341236254,400.1997497151719,-0.11689182031846002,-7.718200249956453,563.5915510231644,0.11015573759829259,9999.97416019939,-44.11920064490419,89.94999461654827,32.22662649566695,90.5720936468024,2.6545453777749572,-5.287156453596143,-10.719995003851082,-0.0026140003543910773,0.010611309256163855,-6.609344255897555,1077.403723265453,0.0017555556685792996,1455.6049167221697,483.0255832139755,-1403.9171537381785,181.58351481666213,-20429.448148067706,102.54880984767125,93.2138788606353,-2345.228406468462,0.523150622844696,278.8656311035156,333.9501953125,0.11015573759829259
0.6000000238418579,13201.613498843373,-12722.21096368485,2.0865478556281343E7,13201.05685525523,-12722.78855761053,2.0865478556281343E7,398.6036040371082,400.3980419502941,-0.14268747827882888,-9.177711116128334,563.5694215232359,0.1346772352122816,9999.961956161766,-43.94307167194031,89.94999231157365,32.226626533237514,90.73564077482813,2.6538037903506506,-6.355705942873817,-10.61499739491181,0.016834209435323755,-0.299836621053874,-8.080634112736895,1077.4037717570309,0.001755556341126468,1455.605605386487,483.0256266938202,-1406.9705215020124,358.9869190678078,-20417.26901947913,363.0940199758151,307.70033167427755,-4246.365644380496,0.5231503248214722,278.8655090332031,333.9500427246094,0.1346772352122816
0.699999988079071,13241.462701493094,-12682.160103337108,2.0865478540547203E7,13240.81532585313,-12682.835994696186,2.0865478540547203E7,398.37412141529586,400.62531318365075,-0.1726073058551112,-10.595256126422683,563.543794888157,0.16335934338260963,9999.947085317273,-43.766958994136935,89.94998961373307,32.22662657901814,90.86194684738173,2.651651682287436,-7.4078902926277586,-10.354870851409824,0.06286547552390973,-0.7051927080101885,-9.801560602956577,1077.4038308449085,0.0017555571606378405,1455.6064445369927,483.02567967481144,-1409.0183240606343,403.11828788930035,-20427.14614106537,630.3946076577029,465.5360249986297,-4506.090431318901,0.5231496095657349,278.8648986816406,333.9495849609375,0.16335934338260963
0.800000011920929,13281.286880577021,-12642.084490508194,2.0865478521675576E7,13280.549357706472,-12642.859258366258,2.0865478521675576E7,398.1011072696759,400.89514848440285,-0.2050521809929256,-11.951675498969118,563.5156064341213,0.19461964374219862,9999.929198225538,-43.590864924192026,89.94998653717896,32.22662663408473,90.94848935397074,2.6486800831506687,-8.428355789147,-9.95057331186921,0.1254719173108274,-1.0663736589557686,-11.677178624531917,1077.4039019175518,0.0017555581463707562,1455.6074538925695,483.02574340191535,-1408.5328880404763,332.34166830296243,-20472.132367614002,812.759496573589,492.7565118948478,-3432.0974007993464,0.5231485962867737,278.864013671875,333.948974609375,0.19461964374219862
0.8999999761581421,13321.081179992094,-12601.979356166374,2.0865478499536768E7,13320.254095560373,-12602.853578729313,2.086547849953677E7,397.77552495754577,401.21677642190446,-0.2375123911639494,-13.234042387849163,563.4859150082953,0.22595969469047222,9999.908159256864,-43.4147913951824,89.9499831005821,32.22662669885491,91.00458789972882,2.645857329242921,-9.40489322163225,-9.460993397302133,0.18778402813267556,-1.2914514336228824,-13.557581681428333,1077.4039855138699,0.001755559305799799,1455.6086411069964,483.02581835834565,-1405.0931672415502,197.41546448930364,-20550.839209286536,862.7917563555801,376.22579534111355,-1683.4134550340016,0.5231476426124573,278.8631896972656,333.9483642578125,0.22595969469047222
1.0,13360.840163156845,-12561.839334540797,2.0865478474247E7,13359.924103864174,-12562.813588970845,2.0865478474247E7,397.3949386769269,401.5927434241022,-0.26778215130458827,-14.438830011466951,563.4555916026815,0.2551767837008442,9999.884077954197,-43.23873996047587,89.94997932479461,32.22662677299142,91.0456526077054,2.644064555795613,-10.332162093792048,-8.964768292334357,0.2341765251068032,-1.3537599078531941,-15.31060702205065,1077.4040811986015,0.0017555606328884651,1455.6099999991877,483.02590415382906,-1399.5096078282097,57.464373107832614,-20649.065499410794,784.2560090136172,166.10878738812244,22.91979292730491,0.52314692735672,278.8626708984375,333.94793701171875,0.2551767837008442
1.100000023841858,13400.55847159872,-12521.659135243892,2.0865478446085535E7,13399.55402532662,-12522.733997507341,2.0865478446085535E7,396.9630822916793,402.01924964069474,-0.29492168757701204,-15.571362915549326,563.4251256321616,0.28132648728056664,9999.85722701504,-43.062711883332746,89.94997523046085,32.226626855654715,91.08686600474473,2.6437219395851033,-11.2123894321059,-8.529540797616237,0.2569178761208745,-1.284830342776298,-16.879589236833997,1077.4041878882067,0.001755562112609036,1455.611515181374,483.0259998168147,-1393.3729270732274,-40.99206258084407,-20747.079995173266,625.6343177366927,-50.777644212314044,1154.3299480868425,0.5231465697288513,278.8626403808594,333.94775390625,0.28132648728056664
1.2000000476837158,13440.231337785228,-12481.434075477204,2.086547841534647E7,13439.139093697691,-12482.610120239839,2.086547841534647E7,396.487548189532,402.48843776369904,-0.3195619676928301,-16.64255848070561,563.3945931728674,0.30503024252467714,9999.827894703043,-42.886708270371294,89.94997083588807,32.2266269459573,91.13842809492296,2.644668128026267,-12.053302080293063,-8.19069310362997,0.25849672155582315,-1.1503549010194194,-18.30181455148063,1077.4043044372947,0.0017555637290759532,1455.613170387386,483.0261043202934,-1388.29994538639,-75.94912038845455,-20828.399766999897,454.0844670991233,-191.74878453490237,1489.856221964419,0.5231466293334961,278.86297607421875,333.94781494140625,0.30503024252467714
1.2999999523162842,13479.854820250901,-12441.16033338541,2.0865478382196385E7,13478.67536884937,-12442.43813395177,2.0865478382196385E7,395.9767538268678,402.9914700255325,-0.3435068793328343,-17.664603318432025,563.3637747171277,0.32808129767379834,9999.796242805625,-42.71073019582977,89.94996615608561,32.22662704340108,91.20350981103587,2.646304517874628,-12.864555590550351,-7.945415060818649,0.2492995947332146,-1.0208726652361024,-19.6848778604279,1077.404430203016,0.0017555654733735957,1455.6149564880252,483.0262170878584,-1385.2714581393036,-51.10445777317998,-20885.879352066804,325.8536803984794,-212.1352299794271,1117.4226623219313,0.5231468677520752,278.86358642578125,333.947998046875,0.32808129767379834
1.399999976158142,13519.425747808958,-12400.834903522164,2.086547834659626E7,13518.159680960507,-12402.215031799245,2.0865478346596263E7,395.4373262738095,403.52123486244756,-0.36891016495237594,-18.64719127132767,563.3323624010591,0.35262493065573464,9999.76222848944,-42.53477877418045,89.94996120307654,32.226627148117956,91.27893540711163,2.647891580594502,-13.654230089496203,-7.761559060297432,0.24249467849891546,-0.9478843893473389,-21.15749583934408,1077.4045653555615,0.0017555673478627527,1455.6168759007508,483.0263382721139,-1384.3403278902638,11.486281876030247,-20923.039333468263,272.5422587829764,-117.9550553233421,331.85329291533117,0.5231470465660095,278.8641357421875,333.94818115234375,0.35262493065573464
1.5,13558.941456425237,-12360.45533495188,2.0865478308310173E7,13557.58936738957,-12361.938361412118,2.0865478308310173E7,394.87265264049535,404.07389822712,-0.3974307831078478,-19.595406145567114,563.3001682776287,0.3803156598644856,9999.725612663398,-42.35885516311946,89.94995598678054,32.22662726084406,91.35773463617133,2.648847372743613,-14.426589610096716,-7.594573982213089,0.2487219677831994,-0.9518288505915232,-22.81893959186914,1077.4047108449324,0.0017555693657197915,1455.6189421178176,483.02646872488,-1384.755308523614,82.90228293650017,-20951.085337729513,293.5617555714426,43.90599556043526,-509.8652217342727,0.5231469869613647,278.8644714355469,333.94818115234375,0.3803156598644856
1.600000023841858,13598.399449888979,-12320.01938428607,2.0865478266985275E7,13596.961933365757,-12321.605877909255,2.0865478266985275E7,394.2827931891736,404.6490595146744,-0.42969313222225514,-20.50955558063574,563.2672524596017,0.4117776148745085,9999.686039555669,-42.18296050803801,89.94995051649406,32.22662738267479,91.43230499211037,2.648936105324535,-15.181596152874366,-7.40513697546453,0.27262334694478657,-1.0229748844319606,-24.70665689247051,1077.4048680847488,0.0017555715465513038,1455.621175215837,483.02660971368016,-1385.3619225478647,138.29475627682802,-20983.630941985917,363.9565345143154,209.24183450524288,-1118.5578012502785,0.5231465697288513,278.8644714355469,333.9479675292969,0.4117776148745085
1.7000000476837158,13637.79710956197,-12279.524713668534,2.0865478222263742E7,13636.274761767974,-12281.215241853834,2.0865478222263742E7,393.6654700656361,405.2487748800427,-0.46519446670740716,-21.3865644844237,563.2339323365597,0.44651073758114956,9999.643148274685,-42.00709586033467,89.94994480182518,32.22662751472133,91.49702681777286,2.6483014823434625,-15.915989244414769,-7.171337407911692,0.31209804591313545,-1.1318245534544584,-26.790644254868972,1077.405038508972,0.0017555739102461353,1455.6235955604723,483.0267625242785,-1385.0759461726311,163.8982718001415,-21031.4610691522,446.81042264153507,322.06263422398115,-1349.4965560632058,0.523145854473114,278.8641662597656,333.94757080078125,0.44651073758114956
1.7999999523162842,13677.131533997326,-12238.968720103678,2.086547817388283E7,13675.524952769483,-12240.76384855617,2.086547817388283E7,393.01757089181524,405.87601570913347,-0.5026142095200191,-22.222128496396895,563.2006884810169,0.4831982153474335,9999.596672670195,-41.8312621068994,89.94993885349857,32.2266276578031,91.54962655816028,2.6473613877098905,-16.62524213782115,-6.892862933194431,0.3600508456147666,-1.2433765979765308,-28.99189292084601,1077.4052231751173,0.0017555764714721454,1455.6262181713078,483.0269281049,-1383.2518116912788,158.8027653317365,-21099.144397306252,507.91031080549385,352.7738439381865,-1214.094790707003,0.5231449604034424,278.8637390136719,333.9470520019531,0.4831982153474335
1.899999976158142,13716.399529602906,-12198.348520983294,2.0865478121730834E7,13714.709314512984,-12200.24881358889,2.0865478121730838E7,392.3365738185843,406.53318394594976,-0.540351103107394,-23.01276852763838,563.1680211322349,0.5202418376083096,9999.546497280086,-41.655459937239044,89.94993268332952,32.2266278122756,91.59115056243438,2.6466229604279983,-17.305582575050362,-6.586854126199622,0.40761265051700396,-1.3297242550858661,-31.214510256498574,1077.4054225419545,0.0017555792365930164,1455.6290495647554,483.0271068669066,-1379.8399199417347,132.17578091641326,-21184.356637002686,526.9778166418082,304.2410620101873,-838.832385685012,0.5231440663337708,278.8633117675781,333.946533203125,0.5202418376083096
2.0,13755.597720819254,-12157.661064908996,2.0865478065847136E7,13753.824473282595,-12159.667083614782,2.0865478065847136E7,391.6214592097852,407.2211485781014,-0.5770664309040866,-23.75715218574328,563.136319329006,0.5563040622423329,9999.492657500356,-41.47968985569482,89.94992630380855,32.22662797802992,91.62488574043023,2.646495138913195,-17.955355104506236,-6.278814409757514,0.44747198518265024,-1.3773549179792013,-33.37824373453997,1077.405636468833,0.0017555822036588423,1455.6320877444055,483.02729868419163,-1375.312126121912,97.91309156731691,-21279.727486179014,502.592828659047,205.6847628183168,-397.2716386798942,0.5231432318687439,278.8630065917969,333.9460754394531,0.5563040622423329
2.0999999046325684,13794.722717276003,-12116.903303527932,2.0865478006375726E7,13792.867040640107,-12119.01560824148,2.086547800637573E7,390.87293050420675,407.93899738643086,-0.6120452224327184,-24.456421306623245,563.1057871864155,0.5906689330929081,9999.435293350973,-41.30395222837481,89.94991972745211,32.22662815463496,91.65481684830645,2.6471656706319218,-18.57538679294481,-5.991826228417032,0.4761188458919261,-1.3880724969938754,-35.440135985574486,1077.4058643993897,0.0017555853649540085,1455.6353248099592,483.02750305790016,-1370.4163326458454,69.04929116421583,-21376.16201508335,447.58391700592074,98.3761459665293,-43.186562896309866,0.5231426358222961,278.86297607421875,333.94573974609375,0.5906689330929081
2.200000047683716,13833.771270940328,-12076.072354746964,2.0865477943496246E7,13831.833770547124,-12078.291503260301,2.0865477943496246E7,390.0930255530616,408.68442459762656,-0.6452804455848669,-25.113640674893077,563.0764423579694,0.6233267524148138,9999.374580662263,-41.12824734410047,89.9499129661794,32.22662834154936,91.68421960469425,2.6485763895177024,-19.16840992896385,-5.739353666051876,0.4943756352481154,-1.3747866309515897,-37.39960514488883,1077.4061056349726,0.0017555887107894243,1455.6387508403423,483.0277193615942,-1365.874000038709,53.76800174499359,-21466.206461872658,383.4004760713999,19.412518153305427,134.16631147448254,0.5231421589851379,278.8631286621094,333.9455261230469,0.6233267524148138
2.299999952316284,13872.740374220883,-12035.165605974342,2.0865477877359983E7,13870.72165744563,-12037.492153909576,2.0865477877359983E7,389.28437718850415,409.4544881634853,-0.6772994428512221,-25.732739757379402,563.0481739955808,0.6548014407917333,9999.31066725047,-40.95257546768182,89.94990603094877,32.22662853831808,91.71480688057473,2.650488592864416,-19.737947081153653,-5.5223179958480975,0.5063236980928949,-1.3547203902526177,-39.288086447504,1077.4063595882403,0.0017555922330198264,1455.642357495309,483.02794706864273,-1362.138970885508,53.91858004082801,-21546.244867166304,330.54237578844226,-10.321619076174102,123.5487992223183,0.5231418013572693,278.8634033203125,333.94537353515625,0.6548014407917333
2.4000000953674316,13911.627279827873,-11994.180736835415,2.0865477808051966E7,13909.527956104268,-11996.615237602588,2.0865477808051966E7,388.449439762483,410.24640915171585,-0.7088396927287756,-26.31740263000828,563.0208298716071,0.68582726828752,9999.243634997898,-40.7769368704229,89.94989893165395,32.22662874468899,91.74657343392879,2.6525987063749525,-20.28714745129427,-5.331445149241121,0.5172994838475304,-1.3428418785774412,-41.149636097251204,1077.4066259338335,0.001755595927133534,1455.6461401552901,483.0281858873203,-1359.2935914487682,65.92015051589095,-21616.959798347354,301.03972562363185,9.612051117503142,-23.03853001763718,0.5231413841247559,278.86370849609375,333.9451904296875,0.68582726828752
2.5,13950.429452777651,-11953.115671464078,2.0865477735587154E7,13948.25013362096,-11955.658676219773,2.0865477735587154E7,387.5899397876546,411.05814505825646,-0.7405145362440939,-26.870277202304173,562.9942980715027,0.7170152723866223,9999.17349599759,-40.60133183320526,89.94989167722785,32.226628960624886,91.77822759077414,2.6546539445326314,-20.817994978813854,-5.152609269399993,0.5318403301181291,-1.3475760318372627,-43.02091634319734,1077.4069046236928,0.0017555997924649392,1455.650098138983,483.02843577454274,-1357.0928745381004,83.19739902421503,-21682.231200991006,296.5749932602711,62.845573918639275,-222.04186083766092,0.5231409072875977,278.86395263671875,333.9449768066406,0.7170152723866223
2.5999999046325684,13989.14448462529,-11911.968491026619,2.086547765993549E7,13986.88578366317,-11914.62054862404,2.086547765993549E7,386.7066790979012,411.8886018071403,-0.7725853341983613,-27.392688887072442,562.9685566925513,0.7486256663277719,9999.100217502659,-40.42576062761057,89.94988427618789,32.2266291862266,91.80793592374567,2.6565281416962185,-21.3310762781174,-4.9723196747167515,0.5522970455285953,-1.3696353512281378,-44.917539979666316,1077.4071957879253,0.0017556038308195816,1455.654233295481,483.02869684697913,-1355.1118166944914,99.0080116383613,-21747.163039496732,309.4173233747818,124.90130106760262,-392.74796231582707,0.5231402516365051,278.86407470703125,333.9446716308594,0.7486256663277719
2.700000047683716,14027.770005605666,-11870.737343188994,2.086547758106179E7,14025.432538621078,-11873.499000115371,2.086547758106179E7,385.79967687847613,412.73749590001137,-0.8048962007887605,-27.884839961535945,562.9436806516849,0.780502399094155,9999.023761702905,-40.250223486966135,89.94987673676583,32.22662942161058,91.83406960311002,2.6582399623742776,-21.825869684391563,-4.782664873745843,0.5784520629271594,-1.403630683582459,-46.8301439456493,1077.4074995767555,0.001755608044282091,1455.658547759672,483.0289692393375,-1352.9248123590414,108.65524579481645,-21816.081266055317,329.49492335091355,172.94963613249274,-482.68381559061794,0.523139476776123,278.86407470703125,333.94427490234375,0.780502399094155
2.799999952316284,14066.30362318554,-11829.420378051484,2.0865477498964205E7,14063.888008170332,-11832.292178354332,2.0865477498964205E7,384.86852956233145,413.604989877605,-0.8369617970198787,-28.346321609152636,562.9198115576828,0.8121605016897561,9998.944124099939,-40.074720580347574,89.94986906727135,32.226629666790686,91.85571235779994,2.65991873493293,-22.30135401143856,-4.582289945202694,0.6080741165400093,-1.4412574374244003,-48.72963010138536,1077.4078160080473,0.0017556124331013427,1455.6630417867007,483.0292529676448,-1350.2501446442304,110.53234513692362,-21891.183103178915,343.9737749854245,193.09996683264035,-477.91771144820484,0.5231386423110962,278.864013671875,333.9438171386719,0.8121605016897561
2.9000000953674316,14104.742900744206,-11788.015724921277,2.0865477413698524E7,14102.249757957501,-11790.998210129328,2.0865477413698524E7,383.9128254572377,414.4912690188309,-0.8681487881108532,-28.77670487062148,562.8971081740056,0.8429670278924772,9998.861357802147,-39.89925199899442,89.94986127616994,32.22662992160339,91.87282198246704,2.6617395681006997,-22.75665991906433,-4.375976610517392,0.638040096578252,-1.4746896947409185,-50.57802167354863,1077.408144870769,0.0017556169943515419,1455.66771238095,483.0295478426899,-1347.0185539493234,105.91125161043942,-21972.160384765495,346.74818251846256,183.30607942877032,-398.52973231318975,0.5231376886367798,278.8639221191406,333.9433288574219,0.8429670278924772
3.0,14143.085374158707,-11746.521507864196,2.086547732538297E7,14140.515326182665,-11749.615216910348,2.086547732538297E7,382.93246774146104,415.3962101762254,-0.8978731515564471,-29.176001081002653,562.8756983472697,0.8723379592958895,9998.775578324115,-39.72381775844171,89.94985337190111,32.22663018569308,91.88607301888403,2.663855370097859,-23.19153841808003,-4.171481787655149,0.6655395367925608,-1.4990108484275901,-52.340277557753375,1077.408485705926,0.001755621721667691,1455.6725530251551,483.0298534529241,-1343.3574725837057,97.86679879705223,-22056.736490931165,335.0212643072577,151.75696030861582,-284.1835936658148,0.5231367945671082,278.8638916015625,333.9428405761719,0.8723379592958895
3.0999999046325684,14181.328592303644,-11704.935885843144,2.0865477234185338E7,14178.682264090343,-11708.141354995569,2.0865477234185338E7,381.92782171833096,416.319229470877,-0.9257448931545591,-29.544871841473483,562.8556485423233,0.8998827372579564,9998.686950780346,-39.54841781360661,89.9498453629044,32.22663045855141,91.8965041604863,2.6663492175606534,-23.60651829034261,-3.976380795668646,0.6889409492100598,-1.5131398253217738,-53.99296423547739,1077.4088378574431,0.0017556266059513164,1455.677554403038,483.0301692100872,-1339.5125792119895,89.85692350810857,-22141.759169858113,312.76691017541737,112.17709807306528,-176.74077520049195,0.5231359004974365,278.8638916015625,333.9423828125,0.8998827372579564
3.200000047683716,14219.470162785321,-11663.25709842256,2.0865477140300047E7,14216.748181691682,-11666.574861226942,2.0865477140300047E7,380.899676676004,417.25931873865426,-0.9516227971787277,-29.884575298964428,562.8369578794888,0.9254590594450711,9998.595666993775,-39.373052080184806,89.9498372572817,32.2266307395878,91.90512821338257,2.6692191783821966,-24.002764540153013,-3.7955174296155727,0.7080946306219045,-1.519298663568316,-55.52754356670427,1077.4092005631232,0.0017556316366319831,1455.6827056910563,483.0304944307636,-1335.7449285832233,84.5189667900582,-22224.374318499427,285.99605017163077,78.18974217593131,-106.21510397022833,0.5231350660324097,278.8639831542969,333.94195556640625,0.9254590594450711
3.299999952316284,14257.507786585475,-11621.48350042971,2.0865477043924324E7,14254.710782396933,-11624.91408766198,2.0865477043924324E7,379.84907487468644,418.21521704097603,-0.9755791052142494,-30.196724014735842,562.8195738972386,0.9491377701987661,9998.501921722627,-39.19772045487553,89.94982906282337,32.22663102820259,91.91263863086388,2.6723943509241415,-24.381747784984615,-3.6297511741922115,0.7240810681229359,-1.5215324125889873,-56.94826621192597,1077.4095730491067,0.0017556368029774294,1455.6879958999402,483.03082842108006,-1332.2430187914904,83.00432444324069,-22302.869706789257,261.32558057468856,58.81017187793259,-83.79052212624539,0.5231342315673828,278.8641357421875,333.9415588378906,0.9491377701987661
3.4000000953674316,14295.43927243888,-11579.61357624623,2.0865476945241358E7,14292.567877385292,-11583.157515872263,2.086547694524136E7,378.7770924905001,419.1856311023683,-0.9978037957910844,-30.48297510001346,562.8034205397234,0.9711074110602644,9998.405895832213,-39.02242282880417,89.9498207867744,32.226631323838966,91.9192853546447,2.675770505956238,-24.744874042478283,-3.4767462501696134,0.7385997212943648,-1.5239882508718456,-58.266444663615864,1077.409954596737,0.00175564209502097,1455.6934148243301,483.0311705366601,-1329.076801243992,84.94956595255248,-22376.968823995627,243.91231566779672,56.38555548094155,-102.55423944638642,0.5231334567070007,278.8642883300781,333.941162109375,0.9711074110602644
3.5,14333.262530370923,-11537.645933118198,2.0865476844414126E7,14330.317379139457,-11541.303750255762,2.0865476844414126E7,377.68465392941846,420.1694223626729,-1.018492880649892,-30.744767929539716,562.7884267523903,0.9915627467468024,9998.307750098995,-38.84715909187167,89.94981243604221,32.226631626001925,91.92492161641181,2.6792494067338297,-25.093211998022152,-3.332098969557403,0.7532768045281151,-1.5295508537325275,-59.493764804808144,1077.410344567178,0.0017556475039029605,1455.6989533924288,483.0315202046988,-1326.2003092260004,88.94541436842992,-22447.590019803083,235.1768649079136,67.15784233880186,-143.9026748215598,0.5231325626373291,278.86444091796875,333.94073486328125,0.9915627467468024
3.5999999046325684,14370.975550740575,-11495.579279841053,2.086547674158953E7,14367.957280489729,-11499.351496720004,2.086547674158953E7,376.57243336025846,421.1657066950223,-1.0377607130930446,-30.983185156830434,562.7745461764192,1.0106171952739782,9998.20762935679,-38.671929129188555,89.94980401709276,32.226631934245546,91.9291679659158,2.682767916355205,-25.427387339988453,-3.191364987195988,0.7691392877015689,-1.539209023164003,-60.63703171643869,1077.410742384942,0.0017556530216423063,1455.704603432033,483.0318769091906,-1323.492456118713,93.23788389145952,-22516.258838713675,232.07703796185547,83.75896157502211,-186.27835127323897,0.5231316685676575,278.86456298828125,333.9402770996094,1.0106171952739782
3.700000047683716,14408.576378498634,-11453.41240053491,2.086547663690898E7,14405.485628875622,-11457.299536453327,2.086547663690898E7,375.44085647492415,422.1738539532327,-1.0556005523385752,-31.19895494127279,562.7617633482149,1.028263390693644,9998.105673003507,-38.49673281310396,89.94979553621025,32.226632248140696,91.93161393505244,2.6863093176918365,-25.747646557300904,-3.051548884859559,0.7863965782903121,-1.5521821478770346,-61.695803441618644,1077.4111474961394,0.0017556586405574305,1455.7103570776212,483.0322401534968,-1320.8142707143027,96.37235280483259,-22584.442344852097,232.0452954660849,98.39061809242776,-212.84592621051905,0.5231307148933411,278.8646240234375,333.9397888183594,1.028263390693644
3.799999952316284,14446.063091831245,-11411.144132659867,2.08654765305203E7,14442.900504992733,-11415.146703936276,2.08654765305203E7,374.2901803479001,423.1934097324647,-1.0718963313203722,-31.39256278762493,562.7500872291587,1.0443848531214592,9998.002026921426,-38.32156999503928,89.94978699952306,32.226632567238156,91.9319836227801,2.689896782748301,-26.054029619188633,-2.911733517767569,0.8045386444151119,-1.5665913310045723,-62.663091187287556,1077.411559321117,0.0017556643526093305,1455.716206097656,483.0326094178764,-1318.0601189497315,97.60151129157381,-22653.04265011361,231.9207473824508,105.48865548271715,-215.8828080152619,0.5231297016143799,278.86468505859375,333.93927001953125,1.0443848531214592
3.9000000953674316,14483.433790956884,-11368.773355006435,2.0865476422586516E7,14480.200011591201,-11372.891874930065,2.086547642258652E7,373.12060856279805,424.22398214999015,-1.0864710801203772,-31.564412553877787,562.7395369439631,1.0588042711923695,9997.896852213604,-38.14644050049118,89.9497784129778,32.22663289104199,91.9302196370643,2.6935748248632203,-26.346574162335234,-2.7728954281922213,0.8226529712778161,-1.5803335411141042,-63.52825627154217,1077.4119772197446,0.0017556701489201039,1455.7221414015612,483.0329841283609,-1315.1873547381313,96.9688194526988,-22722.18388901663,228.2451418788997,103.11009540600935,-197.2068860319908,0.5231286287307739,278.86468505859375,333.938720703125,1.0588042711923695
4.0,14520.686598288143,-11326.2989868608,2.0865476313288778E7,14517.382273636205,-11330.533965642666,2.0865476313288778E7,371.932396446678,425.26513841303193,-1.0991484389288078,-31.71497330352754,562.7301261981597,1.071344886418946,9997.790328146446,-37.97134412877224,89.94976978249512,32.226633219000234,91.92647656897181,2.697387391083755,-26.625472764854464,-2.637186603633813,0.8398102652927553,-1.591828978603459,-64.28069318513677,1077.4124004797227,0.001755676019610753,1455.7281528736341,483.03336364627006,-1312.2188120156336,95.11013136911092,-22791.303963604965,220.64714230562686,92.8310077360984,-165.40116870219617,0.5231276154518127,278.8647155761719,333.93817138671875,1.071344886418946
4.099999904632568,14557.819667201844,-11283.719995627796,2.086547620282364E7,14554.44544707437,-11288.071940355252,2.086547620282364E7,370.72591414633786,426.3163428471805,-1.1098042196928026,-31.84486708381858,562.7218519438651,1.0818819777165805,9997.682649447817,-37.79628065711406,89.94976111378794,32.226633550513384,91.9210463664912,2.701360548311494,-26.891142715728208,-2.5068568692357402,0.8553767004074487,-1.600424999963845,-64.91291866299483,1077.4128283273192,0.0017556819539500858,1455.734229525511,483.0337472778388,-1309.223058719217,92.91603854345253,-22859.456928958607,209.1326337489496,78.50803692571935,-131.47993421141877,0.5231265425682068,278.86474609375,333.9376220703125,1.0818819777165805
4.199999809265137,14594.83119443784,-11241.035408029304,2.086547609139623E7,14591.38773122733,-11245.504822625484,2.086547609139623E7,369.50165601723586,427.3769474132701,-1.1183929935565007,-31.954881893120408,562.7146902586069,1.0903694373528385,9997.57401947451,-37.62124984734701,89.94975241238737,32.226633884955305,91.91425508516643,2.705494604474707,-27.14420066290817,-2.383572367175901,0.8691642562081794,-1.6064087646300975,-65.42216624117032,1077.4132599545167,0.0017556879407312452,1455.7403598817223,483.034134298559,-1306.2834044989816,91.17939087343231,-22925.682912762764,196.5562752776732,64.5365809418181,-104.74322212469714,0.5231254696846008,278.86480712890625,333.9371032714844,1.0903694373528385
4.300000190734863,14631.719431026866,-11198.244319908059,2.086547597921227E7,14628.207379714382,-11202.83170509635,2.086547597921227E7,368.2602046545916,428.4462262692197,-1.124946084296442,-32.04592177762016,562.7085993946092,1.0968378079586552,9997.464642241728,-37.4462514528541,89.94974368356488,32.22663422169791,91.90637096713675,2.7097663468240407,-27.38537013364258,-2.2678014048355246,0.8814025645193759,-1.6107058288748473,-65.81026847751932,1077.4136945506832,0.0017556939687109784,1455.746532429495,483.03452398157714,-1303.4683040271223,90.36450774671152,-22989.308431592,183.96111925450532,54.28810485343274,-90.12937393131061,0.5231244564056396,278.8648681640625,333.9365539550781,1.0968378079586552
4.400000095367432,14668.48268822726,-11155.345901230967,2.0865475866471432E7,14664.902706385066,-11160.051754503347,2.0865475866471432E7,367.00217118950036,429.5234331665139,-1.1295474006761999,-32.11892429080357,562.7035275497569,1.1013701872162776,9997.354715809972,-37.27128522385914,89.94973493241012,32.22663456013139,91.89755115785238,2.7141385500693738,-27.615371363148967,-2.158913523174498,0.8925788942701001,-1.614441468610595,-66.08221123297665,1077.4141313288483,0.0017557000269740896,1455.7527359919438,483.03491562125436,-1300.812816357863,90.52460258329816,-23050.091278141645,173.73849885744733,49.21652776291012,-87.584210786447,0.5231233835220337,278.86492919921875,333.93603515625,1.1013701872162776
4.5,14705.119337332473,-11112.339395208208,2.086547575336378E7,14701.472085124267,-11117.164210795741,2.086547575336378E7,365.72813642957897,430.6078578736821,-1.132299611351445,-32.17477939255678,562.6994218835547,1.1040684737779793,9997.244428700624,-37.09635091003701,89.9497261636752,32.2266348996753,91.88783588807209,2.7185721293227787,-27.834828472368503,-2.0555733121427946,0.903226524487485,-1.6185348594134585,-66.24410842667876,1077.4145695399448,0.0017557061051309934,1455.7589599303658,483.03530854593754,-1298.3148346679104,91.38279220166504,-23108.194890386178,165.64532952161093,48.77978058154622,-93.20709784375548,0.5231223106384277,278.8650207519531,333.93548583984375,1.1040684737779793
4.599999904632568,14741.627804471369,-11069.22411261969,2.086547564006948E7,14737.913944651737,-11074.168381463434,2.086547564006948E7,364.4386119824433,431.69886332278867,-1.1332937033201353,-32.214276103852605,562.6962356028005,1.1050229726387566,9997.13395961355,-36.921448260505635,89.9497173819564,32.22663523977949,91.87718141461971,2.723036349031752,-28.04422508941279,-1.9563082584720026,0.9137427462791219,-1.6234524017481946,-66.3013783583254,1077.4150084739315,0.0017557121933332778,1455.765194160177,483.03570211896476,-1295.94427565577,92.49294497091373,-23164.036371379254,159.71706731539877,51.03478896517845,-101.3856168436268,0.5231212377548218,278.86505126953125,333.9349365234375,1.1050229726387566
4.699999809265137,14778.006562921973,-11025.999423766694,2.086547552676099E7,14774.226760836147,-11031.063633488004,2.0865475526760995E7,363.1340298763903,432.7958955465782,-1.132591046780151,-32.238088425867495,562.6939312582626,1.1042944723783503,9997.02347960786,-36.746577022083194,89.94970859164229,32.226635579917286,91.86551239675133,2.727514122032365,-28.24391225761843,-1.8599859744346756,0.9242903034028906,-1.6291640278778619,-66.25766834270102,1077.4154474511276,0.0017557182821535298,1455.7714290278586,483.0360957308964,-1293.6596488109851,93.42552442880375,-23218.0839160489,155.33801320910626,53.58260201944722,-107.01598545146587,0.5231201648712158,278.8651123046875,333.93438720703125,1.1042944723783503
4.800000190734863,14814.254125740053,-10982.664750713515,2.086547541360627E7,14810.409049324213,-10987.84938558346,2.086547541360627E7,361.8147579510929,433.8984691924765,-1.1302211390544035,-32.24679657101283,562.6924800275906,1.1019119705203955,9996.913155281434,-36.571736937054055,89.94969979691366,32.22663591957576,91.85277229860738,2.732001695589959,-28.434155413405698,-1.7660801701861606,0.9347976678873656,-1.635271600472738,-66.11471823122373,1077.4158858095795,0.0017557243624101058,1455.7776551315246,483.03648878818694,-1291.424705624451,93.90429928046031,-23270.682829598598,151.8436770639681,54.45692510312438,-107.05813192165697,0.5231190919876099,278.8651123046875,333.933837890625,1.1019119705203955
4.900000095367432,14850.369040794914,-10939.219561793941,2.0865475300771512E7,14846.459360576575,-10944.525102702422,2.0865475300771512E7,360.48113042082394,435.00613879917734,-1.1261922560179183,-32.24092882916683,562.6918581455434,1.0978832882768716,9996.803151536069,-36.396927741557846,89.94969100176955,32.22663625824722,91.83895583605413,2.736504045677803,-28.615192919076847,-1.6746618036958674,0.9450367094634895,-1.6412284123787702,-65.8729972966123,1077.4163228940743,0.00175573042501474,1455.783863164876,483.0368807033335,-1289.2196707145588,93.86533506197054,-23321.96131759616,147.16342349965262,52.67655087712046,-101.0655055501694,0.5231179594993591,278.8651428222656,333.9332580566406,1.0978832882768716
5.0,14886.349889071655,-10895.66336918196,2.086547518842245E7,14882.376278169244,-10901.090293607458,2.0865475188422453E7,359.13348039637793,436.1184683369547,-1.1205086008856129,-32.22100595324904,562.6920423236955,1.0922121804792646,9996.693632849048,-36.222149165247686,89.94968221018301,32.226636595425234,91.8241167678248,2.7410283600913132,-28.787290863868076,-1.5861833324840915,0.9547362286059329,-1.6465575428476587,-65.53273082875587,1077.4167580510857,0.0017557364609024674,1455.7900438454433,483.03727089034555,-1287.044822776172,93.42477494129731,-23371.82868792933,141.99070128330624,48.3762873040032,-90.74513422273084,0.5231168866157532,278.8651428222656,333.93267822265625,1.0922121804792646
5.099999904632568,14922.195285837175,-10851.99572914247,2.0865475076723877E7,14918.158419957903,-10857.544511123438,2.0865475076723877E7,357.7721631799517,437.23500941750706,-1.1131867783246812,-32.18757287709604,562.6930059420845,1.0849147817021085,9996.584762793458,-36.047400932283026,89.94967342586746,32.22663693060623,91.80835403149347,2.745578254501121,-28.95076904051358,-1.5012448069292514,0.9636858155795861,-1.6509991095819245,-65.09488690212652,1077.4171906306824,0.0017557424610580602,1455.7961879416587,483.0376587664542,-1284.9163209549297,92.8074176598481,-23420.04970810963,135.2985730807861,42.5199385474516,-78.91961739224345,0.5231157541275024,278.8651428222656,333.9320983886719,1.0849147817021085
5.199999809265137,14957.903883411534,-10808.216243787001,2.0865474965837866E7,14953.80444084703,-10813.887353895572,2.0865474965837866E7,356.39756460547306,438.35529339196705,-1.1042661589760474,-32.14121009173415,562.6947171583855,1.0760299608842832,9996.476702286409,-35.87268276324564,89.94966465248432,32.22663726329476,91.79178545646462,2.750150434241067,-29.106002285788353,-1.420291135593692,0.9717979105227473,-1.6545521214058467,-64.56179765305698,1077.4176199934861,0.0017557484166125775,1455.8022863717206,483.0380437583528,-1282.8576888554153,92.24213479594998,-23466.352328077854,128.64441652725546,36.40890342914645,-68.34423221662391,0.5231146812438965,278.8651428222656,333.9315490722656,1.0760299608842832
5.300000190734863,14993.474374019528,-10764.324562925169,2.08654748559213E7,14989.31303563906,-10770.1184682433,2.08654748559213E7,355.01009489488786,439.4788367785436,-1.0938107924730378,-32.08252544027716,562.6971391894454,1.0656212413925077,9996.36960709602,-35.697994377330325,89.9496558934094,32.22663759301122,91.77452049711385,2.7547344460296825,-29.253395805368857,-1.343481263219441,0.9791158774024148,-1.6574224443525132,-63.93727448355046,1077.4180455205797,0.0017557543189807654,1455.808330344293,483.03842531107944,-1280.8905851310474,91.8931051801112,-23510.52636429918,121.18093901063315,31.183195953948598,-60.81927845252958,0.5231135487556458,278.8651428222656,333.93096923828125,1.0656212413925077
5.400000095367432,15028.905491503054,-10720.320384895213,2.0865474747123614E7,15024.682940744677,-10726.23754899296,2.0865474747123618E7,353.6101730941649,440.6051552464389,-1.0819039464498368,-32.01213328218282,562.7002322378266,1.0537713584433221,9996.263625607848,-35.52333549419403,89.94964715196657,32.22663791929879,91.75664106357317,2.759314913559092,-29.393355131428642,-1.2706204666553977,0.9857774566198012,-1.6599132872600761,-63.22628150659933,1077.4184666223787,0.0017557601599841653,1455.8143114845673,483.03880289597424,-1279.0280711986434,91.81275691891904,-23552.482492105963,114.554977815808,27.4811012102291,-56.80302852626703,0.5231124758720398,278.8651428222656,333.930419921875,1.0537713584433221
5.5,15064.196011300259,-10676.20345583906,2.086547463958535E7,15059.912934160506,-10682.244338754363,2.086547463958535E7,352.1982092757048,441.7337795615595,-1.0686383852928185,-31.93063074396332,562.7039561084196,1.0405725585999672,9996.158897341786,-35.34870583507532,89.94963843122005,32.22663824172788,91.7381950726689,2.7638750498417366,-29.52625455542957,-1.2013769033427528,0.991954364374505,-1.6623100345870685,-62.43435351599803,1077.4188827445273,0.001755765931932856,1455.8202219179702,483.0391760159634,-1277.2720461402591,91.95433602186618,-23592.260218434316,109.18991497041964,25.333894908279035,-55.561667821916814,0.5231114625930786,278.8651428222656,333.92987060546875,1.0405725585999672
5.599999904632568,15099.344748802147,-10631.973567529587,2.0865474533437714E7,15095.00183382486,-10638.13862574891,2.0865474533437714E7,350.774590659861,442.8642678915274,-1.0541065399575573,-31.83857932771265,562.708272539077,1.0261167858945166,9996.055552562282,-35.17410512310713,89.94962973420803,32.22663855989744,91.71920196122993,2.768399973709282,-29.65242133930385,-1.1351144388230165,0.9977938463451487,-1.6647904359236405,-61.567007153671,1077.4192933694449,0.0017557716276469493,1455.8260542921767,483.039544206948,-1275.6147779845676,92.20794020887658,-23629.99342051002,104.94689993462684,24.277285916738037,-55.663822774277406,0.5231103897094727,278.8651123046875,333.9293212890625,1.0261167858945166
5.699999809265137,15134.350556703783,-10587.630554312338,2.0865474428803004E7,15129.94849496854,-10593.920240751648,2.0865474428803004E7,349.33967578467553,443.99621086771964,-1.0383933804218153,-31.73649731540977,562.7131465464738,1.0104885608080314,9995.953712654835,-34.99953308301235,89.94962106363118,32.22663887343378,91.69966580336069,2.7728787892754276,-29.772134575872663,-1.0714234072553381,1.0033804586226516,-1.6673984067874703,-60.62931364848188,1077.4196980148308,0.001755777240435846,1455.8318017558697,483.0399070364624,-1274.043507079928,92.4525849220696,-23665.851674431473,100.6002999026373,23.624355959007517,-55.61451751911696,0.5231093168258667,278.8651123046875,333.92877197265625,1.0104885608080314
5.800000190734863,15169.212322171757,-10543.174289901133,2.0865474325795528E7,15164.751807282117,-10549.589053887054,2.0865474325795528E7,347.8937965260142,445.12922959369035,-1.0215739516044975,-31.624862671815013,562.7185465996082,0.993762513883454,9995.853491061054,-34.82498944052411,89.94961242224208,32.22663918198757,91.67959006499991,2.7773050354439452,-29.88563473716149,-1.0100534340733252,1.0087268233471338,-1.6700611791366626,-59.625750833007245,1077.420096229949,0.0017557827640467085,1455.8374579059812,483.04026410034305,-1272.5453545845728,92.59326107466941,-23699.98518862127,97.03074948630004,22.728692436408892,-54.348706237758776,0.5231083035469055,278.8650817871094,333.9282531738281,0.993762513883454
5.900000095367432,15203.92896316014,-10498.60468358398,2.086547422452153E7,15199.410691232064,-10505.14497083461,2.086547422452153E7,346.43708723820725,446.26310811233725,-1.0038374607078928,-31.503897397623266,562.7244571513512,0.976127662665103,9995.754993199544,-34.65047392156074,89.94960381255957,32.22663948523428,91.65904440588781,2.781708155954373,-29.989110808874408,-0.43629307143338975,1.013635864469424,-1.66445241497169,-58.56765975990618,1077.420487595942,0.0017557881926688302,1455.8430167921674,483.0406150230103,-1270.8775482063893,84.41539148077695,-23733.661261829497,3655.7682793825734,2.732745088633237,-23.510369612516584,0.5231072306632996,278.86505126953125,333.9277038574219,0.976127662665103
6.0,15238.499432897614,-10453.921677193755,2.086547412511022E7,15233.924102547939,-10460.587929802572,2.086547412511022E7,344.9712587820854,447.3965656703224,-0.9837790288481943,-31.37572386699271,562.7308736992042,0.9561772659382979,9995.658347495546,-34.475986238725426,89.94959523699869,32.22663978277851,91.63974190663006,2.786690824111813,-29.99557161870648,0.10217881279724216,1.008315221919063,-1.6510921634518918,-57.370635956297875,1077.4208716025394,0.0017557935192234675,1455.8484711656047,483.0409593469176,-1268.7261553943983,78.81487333723149,-23764.0984326375,-83.6601987694388,-62.92192143354987,124.38412311056351,0.5231063365936279,278.8651123046875,333.92724609375,0.9561772659382979
6.099999904632568,15272.923013703166,-10409.125465636678,2.0865474027849063E7,15268.291325938766,-10415.918122188416,2.0865474027849067E7,343.499369588493,448.5271275955454,-0.9610271155264879,-31.24425029163815,562.73753813351,0.9335363480240283,9995.563840991452,-34.30152614547355,89.9495866968578,32.2266400737365,91.6217555183281,2.791671646371804,-29.995616623453962,0.09235003761988193,1.0009785099563204,-1.6361140135015293,-56.0121808814417,1077.4212471092314,0.001755798727889728,1455.8538048255136,483.04129604940624,-1267.3668685089813,71.81608111609457,-23785.749767633468,-5.338893092899809,-84.46421707965783,195.84456162829693,0.5231055021286011,278.8652648925781,333.9268493652344,0.9335363480240283
6.199999809265137,15307.199133893851,-10364.216370842398,2.086547393298153E7,15302.511792048532,-10371.135866458113,2.086547393298153E7,342.02224702852305,449.6540715780696,-0.935980632648005,-31.110551508985917,562.7443448153243,0.9086028767500932,9995.471716890417,-34.12709345029165,89.94957819291595,32.22664035735944,91.6056650001637,2.796747446880492,-29.995683865451717,0.0924140227507124,0.990790189474193,-1.6182168839699902,-54.51617260500559,1077.421613149698,0.001755803805262772,1455.859004045109,483.04162426400546,-1266.284076420259,71.57180459329508,-23800.477312194635,-6.6645328566334054,-105.09040478511088,187.26378348459457,0.5231047868728638,278.8654479980469,333.92645263671875,0.9086028767500932
6.300000190734863,15341.327329365477,-10319.194802279953,2.086547384070644E7,15336.58503905045,-10326.241568649828,2.0865473840706445E7,340.541056706478,450.77645247110814,-0.9093087823309981,-30.97610585223774,562.7511788417918,0.8820447542638103,9995.382173897817,-33.952687990599244,89.9495697255886,32.22664063303554,91.59151325981,2.801724568080608,-29.99567935257381,0.09235181056851713,0.9802319326223741,-1.603962796801318,-52.92268525582862,1077.4219689344245,0.0017558087403901435,1455.8640576088128,483.0419432827785,-1265.9105526157412,76.37009220654782,-23806.76638217206,-5.4252471142434295,-91.88852125714038,121.19220266863165,0.5231040120124817,278.8656005859375,333.92608642578125,0.8820447542638103
6.400000095367432,15375.30723920382,-10274.061254533939,2.0865473751150552E7,15370.510708256052,-10281.2357199519,2.0865473751150552E7,339.0566335778469,451.8935715466562,-0.8816935744806138,-30.84197793764896,562.7579284276462,0.8545430536026102,9995.295338727896,-33.77830964049862,89.94956129487579,32.2266409003747,91.57873973594394,2.8064246812987963,-29.995624026195458,0.09237696712087326,0.9723458370742245,-1.5970035560979376,-51.27258321615661,1077.4223139599424,0.0017558135262870928,1455.8689583639552,483.0422526542748,-1266.0591582071286,83.4278484819117,-23807.613424750456,-3.8540522129969714,-56.01115730913807,33.01291052292757,0.5231032371520996,278.86572265625,333.9256896972656,0.8545430536026102
6.5,15409.138560404355,-10228.816270916845,2.0865473664384402E7,15404.28849884911,-10236.118860297518,2.0865473664384402E7,337.569294574546,453.0051607858926,-0.8535627914080487,-30.708560691585134,562.7645411155721,0.8265252108309128,9995.211281978382,-33.603958300624846,89.94955290067361,32.22664115915954,91.56649410876886,2.8107664098474574,-29.99554911896591,0.09249345235046981,0.9685615028523465,-1.5977544547401696,-49.59151264985477,1077.4226479457532,0.001755818159061695,1455.8737023249105,483.0425521269724,-1266.4188261993445,89.92676964456453,-23806.701652236563,-2.5137230921118725,-14.959589340462117,-43.588530208206876,0.5231024026870728,278.86572265625,333.9252624511719,0.8265252108309128
6.599999904632568,15442.820997487353,-10183.460401178365,2.0865473580449626E7,15437.918117519286,-10190.89153605189,2.086547358044963E7,336.0788970555712,454.111339413887,-0.8250727056449069,-30.57564927596587,562.7710298897534,0.7981476782596653,9995.130045334517,-33.429633878159564,89.9495445428003,32.22664140926171,91.55398178913518,2.814764484073093,-29.995484334141253,0.0926750009020459,0.9686098515567325,-1.6040616473503635,-47.888860695579915,1077.4229707262375,0.0017558226364155372,1455.8782871378105,483.04284155235723,-1266.7094264036937,93.92585842267508,-23806.928095622206,-1.7781178365960555,16.617301770602353,-86.97992110141134,0.5231015086174011,278.86566162109375,333.9248046875,0.7981476782596653
6.699999809265137,15476.354225269428,-10137.99417016711,2.0865473499382973E7,15471.39924124876,-10145.554268656024,2.0865473499382973E7,334.5850278333008,455.2124539088133,-0.7961826786817858,-30.442688165688455,562.7774520213791,0.7693703061181416,9995.051665550907,-33.255336269204115,89.949536221152,32.22664165056808,91.54070558653613,2.8184990076215346,-29.995448715192765,0.09287869966799246,0.9710418687864525,-1.6125279356179059,-46.1622183670885,1077.4232821553667,0.0017558269563219717,1455.8827107270786,483.04312079948176,-1266.7613435450473,94.76480909086212,-23809.70400339121,-1.734886164687123,30.79045974706969,-91.5131197048684,0.5231006145477295,278.86553955078125,333.92431640625,0.7693703061181416
6.800000190734863,15509.737873236258,-10092.418064723686,2.0865473421230365E7,15504.731501692402,-10100.107541511008,2.086547342123037E7,333.0872306409409,456.3088869378449,-0.7667703630996853,-30.30906687232613,562.7838783285924,0.7400712845458217,9994.976188526456,-33.08106534926885,89.94952793583256,32.226641882937244,91.52655200846819,2.8220720283627116,-29.99544719883696,0.09306286097697353,0.973988493431407,-1.6199074829978914,-44.4042770727493,1077.4235820507788,0.001755831116250378,1455.8869705010745,483.04338970481973,-1266.5409438715249,92.95784561658225,-23814.896929251918,-2.2283120027967316,27.19131904054666,-65.36782959147558,0.5230996608734131,278.8653869628906,333.923828125,0.7400712845458217
6.900000095367432,15542.971531091727,-10046.732538250477,2.0865473346049376E7,15537.914490725936,-10054.55180454891,2.0865473346049376E7,331.58519060950147,457.40090448465224,-0.736741289115193,-30.174358115469303,562.7903657756226,0.7101565203596507,9994.90367173588,-32.90682097299852,89.94951968712763,32.22664210619234,91.51173328818005,2.825568137636319,-29.995472536189695,0.09320019567787802,0.9758654740400172,-1.6241064256079394,-42.609391221579045,1077.4238701841168,0.0017558351130321462,1455.8910632148602,483.04364806360314,-1266.1266492527627,89.73822330765088,-23821.278272181044,-2.969167711239146,11.256384731590515,-24.509024903138595,0.5230988264083862,278.865234375,333.9233703613281,0.7101565203596507
7.0,15576.05476842076,-10000.938026881726,2.0865473273902472E7,15570.9477801018,-10008.887490411453,2.0865473273902472E7,330.0788273143827,458.4885803794098,-0.7060993122792755,-30.03843661858442,562.796941456174,0.6796299798520534,9994.834177546518,-32.73260298091752,89.9495114752969,32.22664232014131,91.49663945099279,2.8290306706136734,-29.99551063403645,0.09328315802645645,0.9758123495996561,-1.62456715997203,-40.7777987911232,1077.4241463075844,0.0017558389432290205,1455.8949853473828,483.04389565363306,-1265.6550696709073,86.48561207195922,-23827.210353433922,-3.6603506957128285,-8.953208108305262,14.347355840407701,0.5230979919433594,278.8651123046875,333.9229431152344,0.6796299798520534
7.099999904632568,15608.987158612026,-9955.034969011189,2.0865473204845857E7,15603.830945362322,-9963.115033989314,2.0865473204845857E7,328.56828890245254,459.5718026862229,-0.6749651411117022,-29.901470140300994,562.8036002295672,0.6486122242004151,9994.76776205091,-32.558411209274915,89.94950330072987,32.22664252461145,91.48167002671997,2.8324572356711535,-29.995546761376232,0.09332162909217558,0.9737910216744486,-1.622066116193448,-38.91673345202491,1077.4244101983156,0.001755842603748594,1455.8987337317442,483.0441322750657,-1265.2619100042205,84.24849885573747,-23831.2934990862,-4.094016071447363,-25.980799606692017,39.266752347125234,0.5230972170829773,278.86505126953125,333.9225158691406,0.6486122242004151
7.199999809265137,15641.768298224697,-9909.023820957593,2.086547313891876E7,15636.563585198197,-9917.23488809789,2.0865473138918765E7,327.0538732802567,460.65033908061014,-0.6435499432284936,-29.7638172893109,562.810313315766,0.6173141052721959,9994.704464400755,-32.38424549906547,89.94949516360835,32.226642719482236,91.46710428096156,2.8358112018131236,-29.995570424448744,0.0933356148685258,0.9703967510864145,-1.6181349211825051,-37.03884631633175,1077.4246617007573,0.0017558460924321844,1455.9023061571897,483.04435778841344,-1265.037816222814,83.49083614652186,-23832.776255696423,-4.195921850064978,-35.21050944599847,45.729336284745884,0.5230965614318848,278.864990234375,333.9221496582031,0.6173141052721959
7.300000190734863,15674.397816589879,-9862.90506461982,2.086547307613687E7,15669.14533104516,-9871.24753113843,2.086547307613687E7,325.5359193730129,461.72392530314613,-0.6121036622045063,-29.625887930892336,562.8170423440151,0.5859852054981256,9994.644300220192,-32.21010570155624,89.9494870640881,32.22664290470553,91.45304194064785,2.839041506163982,-29.99557767811889,0.09334648298913285,0.9665132280185338,-1.6143833499494975,-35.159112329887535,1077.4249007528376,0.0017558494084178708,1455.9057017408616,483.0445721380113,-1265.0095851673457,84.08844312075846,-23831.65619400056,-4.016165714471101,-35.64230141116059,36.2393567816725,0.5230959057807922,278.86492919921875,333.92181396484375,0.5859852054981256
7.400000095367432,15706.87537483454,-9816.679206591112,2.086547301649123E7,15701.575846107495,-9825.15346621292,2.086547301649123E7,324.0147105830035,462.79234251954665,-0.580860911490921,-29.488020146323883,562.8237530055179,0.5548598401604748,9994.587260557812,-32.03599167943294,89.94947900216914,32.22664308030894,91.43941592399055,2.842102368791234,-29.995570767834383,0.09336987238834266,0.9629606005349679,-1.6119649915066887,-33.29159040962849,1077.4251273901318,0.0017558525521982628,1455.9089209869596,483.0447753557505,-1265.146492656437,85.51444500433247,-23828.51548631335,-3.682358707004207,-29.317831932508852,17.783878642958314,0.5230952501296997,278.8648681640625,333.9214782714844,0.5548598401604748
7.5,15739.200657103003,-9770.346771070648,2.086547295995191E7,15733.854816582472,-9778.953214032003,2.086547295995191E7,322.49041841314755,463.85546162817406,-0.5500024432016523,-29.350409059010552,562.8304240527685,0.5241185890539077,9994.533315482848,-31.86190330429816,89.9494709778255,32.22664324638454,91.42605517222606,2.8449666179374384,-29.99555587692391,0.09341212400089981,0.9602509129381468,-1.6113212433251276,-31.447115343234465,1077.425341731572,0.0017558555254223115,1455.9119655837953,483.04496754826675,-1265.3834838151656,87.10758929761663,-23824.209603365154,-3.339853619739993,-19.91513642029895,-1.5132543466318538,0.523094654083252,278.86480712890625,333.9211730957031,0.5241185890539077
7.599999904632568,15771.373358575003,-9723.908290304402,2.0865472906474277E7,15765.981939683084,-9732.647303350044,2.0865472906474277E7,320.9630945362269,464.91324869963006,-0.5196407386437751,-29.21309749355797,562.8370499389164,0.4938738953382256,9994.482420382366,-31.687840452232297,89.94946299097928,32.22664340306979,91.41276507691875,2.8476299310082553,-29.995540171447104,0.09347051689122528,0.95850254199585,-1.6122165823980674,-29.632433720293538,1077.4255439544272,0.0017558583305482282,1455.9148380483834,483.0451488745042,-1265.6496194626793,88.31706235725218,-23819.545101979023,-3.1007982018690923,-11.168103802818223,-15.271996361796468,0.5230940580368042,278.8647155761719,333.92083740234375,0.4938738953382256
7.699999809265137,15803.39317478616,-9677.364296134052,2.0865472856005594E7,15797.956912962962,-9686.236262508457,2.0865472856005598E7,319.4327020582911,465.96573963347197,-0.489828437175645,-29.076016184573046,562.8436378456122,0.4641784590624062,9994.434522543095,-31.513802999316493,89.94945504155258,32.2266435505269,91.39939542082176,2.850106872491286,-29.995529263578078,0.09353636616130842,0.9575015870841402,-1.6139816411341605,-27.85070754374437,1077.425734268151,0.0017558609704807385,1455.9175413549865,483.0453195222667,-1265.8913876097288,88.85131394523734,-23815.052205940057,-3.0165182054911788,-5.659058024248225,-20.464866679959556,0.5230934619903564,278.8645935058594,333.9205322265625,0.4641784590624062
7.800000190734863,15835.259795243417,-9630.715314974233,2.086547280848993E7,15829.779427934678,-9639.720614409318,2.086547280848993E7,317.89916644050834,467.01299990228546,-0.46058134688561103,-28.939048452991752,562.8502014529109,0.4350481908912635,9994.389566031894,-31.339790818551464,89.94944712951943,32.226643688928135,91.38587720035028,2.8524220159285374,-29.995525802100225,0.09359929788007973,0.9568542666089561,-1.6158348241073457,-26.10289145347581,1077.42591289499,0.0017558634483020791,1455.920078659656,483.0454796908296,-1266.0846769399752,88.70707196544451,-23810.901575448705,-3.0760766611075594,-4.2801210464203905,-17.554560619859316,0.5230928659439087,278.8644714355469,333.92022705078125,0.4350481908912635
7.900000095367432,15866.972902226093,-9583.961866857728,2.0865472763870496E7,15861.449168871579,-9593.100875559656,2.08654727638705E7,316.36242500864915,468.05508600090445,-0.4319051399668263,-28.8020926439895,562.8567542600636,0.4064888523714861,9994.347494074875,-31.165803778799955,89.94943925480192,32.22664381844827,91.3722242687055,2.8546001970319748,-29.99552936113637,0.0936510429495568,0.9561588693737928,-1.6171601252920926,-24.389331142289166,1077.4260800605314,0.0017558657671408744,1455.9224531659593,483.04562958246356,-1266.2344228927375,88.09895606244783,-23806.95593319589,-3.22509757155836,-6.367649938041723,-9.481104917890363,0.5230923295021057,278.8643493652344,333.919921875,0.4064888523714861
8.0,15898.532173789306,-9537.104467729729,2.0865472722089533E7,15892.965815810057,-9546.37755836721,2.0865472722089536E7,314.8224595858389,469.0920204394093,-0.40381638868200737,-28.66510297180441,562.8633047007502,0.3785170559489718,9994.308248893092,-30.99184174557511,89.94943141747795,32.226643939265216,91.35850799834631,2.856659218700064,-29.995537340046248,0.09368764316334409,0.9551375746649338,-1.6176631401129615,-22.711023356938306,1077.426235994354,0.0017558679301811926,1455.924668134253,483.04576940302013,-1266.36507578175,87.33683422428267,-23802.90676299814,-3.3940485423507365,-10.301439333092276,-0.10762601760967527,0.5230918526649475,278.8642578125,333.9196472167969,0.3785170559489718
8.100000381469727,15929.937288884412,-9490.143633346466,2.086547268308661E7,15924.329049667876,-9499.55117504192,2.086547268308661E7,313.2793059481207,470.1237847891509,-0.376352698673234,-28.528101104483405,562.8698541604665,0.351170387873629,9994.271770050455,-30.81790458295166,89.94942361749563,32.22664405156501,91.34481975942403,2.8586067218899847,-29.995546336527457,0.09370972654271553,0.9536957916231943,-1.6173855530714383,-21.07022327241774,1077.4263809365955,0.0017558699407535943,1455.9267269749168,483.04589936781747,-1266.5072218223127,86.70309790727673,-23798.43116869191,-3.5240458231217673,-14.261190500361408,7.244060793835857,0.5230913758277893,278.8641357421875,333.9194030761719,0.351170387873629
