time,eiPosition_ft_X,eiPosition_ft_Y,eiPosition_ft_Z,eiVelocity_ft_s_X,eiVelocity_ft_s_Y,eiVelocity_ft_s_Z,feVelocity_ft_s_X,feVelocity_ft_s_Y,feVelocity_ft_s_Z,altitudeMsl_ft,longitude_deg,latitude_deg,localGravity_ft_s2,eulerAngle_deg_Yaw,eulerAngle_deg_Pitch,eulerAngle_deg_Roll,bodyAngularRateWrtEi_deg_s_Roll,bodyAngularRateWrtEi_deg_s_Pitch,bodyAngularRateWrtEi_deg_s_Yaw,speedOfSound_ft_s,airDensity_slug_ft3,ambientPressure_lbf_ft2,ambientTemperature_dgR,aero_bodyForce_lbf_X,aero_bodyForce_lbf_Y,aero_bodyForce_lbf_Z,aero_bodyMoment_ftlbf_L,aero_bodyMoment_ftlbf_M,aero_bodyMoment_ftlbf_N,mach,dynamicPressure_lbf_ft2
0.0,12962.1352593,-12962.1352593,2.08654785968E7,399.500846911,399.500846911,3.01174209516E-17,2.62824045556E-20,563.642781693,-2.36183386814E-18,10000.0,-45.0,89.95,32.226626416180665,90.0,2.68709893531,-1.7646129914E-11,1.95874406997E-4,-3.64605703606E-6,-0.00417347839725,1077.40438831,0.00175554979043,1455.6168276,483.025491153,-1141.57854832,4.49960868566E-5,-23266.3955655,-0.0236435232806,-42923.3713945,-9.59973963746E-5,0.523148771071,278.863102485
0.1,13002.0817728,-12922.1897331,2.08654785991E7,399.439474531,399.428450808,-0.0282188622154,-1.74864289854,563.545480288,0.0266928864681,10000.0024007,-44.8238472837,89.9499997607,32.22662640879895,90.1851073935,2.63882142195,-0.994224740394,-12.1676494556,-0.265078194063,-0.00350964845625,1077.40437877,0.00175554965813,1455.61669213,483.0254826,-1501.04791913,261.076428989,-19701.6997358,-2861.61648256,7281.41654432,-3243.37351121,0.523060983392,278.769494402
0.2,13042.0235282,-12882.2469326,2.0865478592E7,399.393605889,399.438140396,-0.100441278556,-3.44987415488,563.512051518,0.0974306757274,9999.99550058,-44.6477144463,89.9499990505,32.22662643004995,90.3447028513,2.63171277191,-2.19795011916,-11.92813936,0.0174683537534,-0.350314697775,1077.40440619,0.00175555003838,1455.6170815,483.025507184,-1412.59075453,352.071108237,-20251.772194,-2893.67823197,209.234139901,-4089.69020735,0.523037233588,278.744254247
0.3,13081.9594843,-12842.3001879,2.086547858E7,399.31831759,399.505873473,-0.138574403664,-5.08912632039,563.494302329,0.134133166873,9999.98390362,-44.4715922005,89.9499978844,32.2266264657263,90.4676563626,2.63158049325,-3.37814618695,-11.5978217032,0.0298327902034,-0.712128046971,1077.40445227,0.00175555067747,1455.61773591,483.025548501,-1409.74896038,321.650103834,-20284.1942121,2123.20049575,48.0671732842,-3583.88254279,0.523032272171,278.739091372
0.4,13121.8855041,-12802.3439038,2.08654785643E7,399.192867698,399.629310805,-0.176867262097,-6.65339760652,563.476645333,0.171060711396,9999.96864322,-44.2954802114,89.9499962811,32.22662651271871,90.5579990289,2.63016253068,-4.51700880651,-11.1644648466,0.0608810396549,-0.98564081913,1077.40451291,0.00175555151845,1455.61859705,483.02560287,-1410.34305043,213.680916135,-20312.1976798,5878.44531072,174.102557461,-2192.61242542,0.523030991649,278.737891419
0.5,13161.7961446,-12762.372389,2.08654785447E7,399.010374508,399.810587818,-0.213960554356,-8.1362720448,563.456516382,0.206859582453,9999.94972992,-44.1193805033,89.9499942622,32.226626570916586,90.6275814484,2.62877032144,-5.60633836282,-10.6630807607,0.0966610215969,-1.1180770805,1077.40458806,0.00175555256073,1455.61966432,483.025670253,-1408.02154116,81.4119801175,-20367.7475868,7304.80097991,119.877993929,-559.337200351,0.52303034638,278.737408029
0.6,13201.6857016,-12722.3799082,2.08654785215E7,398.771852651,400.047927198,-0.248656095784,-9.53969735048,563.434092481,0.24032987498,9999.92734813,-43.9432952642,89.9499918499,32.226626639909014,90.6907212836,2.62798732126,-6.64497187908,-10.1651943811,0.124578681747,-1.11356280264,1077.40467699,0.00175555379415,1455.62092732,483.025749993,-1404.37526189,-26.3284816492,-20435.8211025,6539.83879745,5.69284577336,736.412049129,0.523029934744,278.737211136
0.7,13241.5488354,-12682.3611295,2.08654784951E7,398.483124452,400.335299885,-0.280750501101,-10.8720344625,563.409781258,0.271260890747,9999.90174862,-43.7672264921,89.9499890647,32.22662671868582,90.7590502554,2.6280521908,-7.63795364839,-9.72840404964,0.140030741871,-1.01920537817,1077.40477871,0.0017555552049,1455.62237189,483.025841198,-1400.43455591,-79.7475243016,-20504.1309093,4392.67880197,-110.631078019,1355.02254261,0.523029733981,278.737273773
0.8,13281.3809108,-12642.3114457,2.08654784655E7,398.151984011,400.664684883,-0.310933492954,-12.1444486692,563.383803711,0.300332594509,9999.87315858,-43.5911760147,89.9499859245,32.22662680673818,90.8384026248,2.62883509124,-8.59383382184,-9.38058209767,0.144867626763,-0.900098506902,1077.40489231,0.00175555678046,1455.62398522,483.025943057,-1397.26767863,-73.4616398323,-20562.405349,1939.33443386,-171.928946667,1253.90541007,0.523029705009,278.73755183
0.9,13321.1780568,-12602.2270414,2.08654784329E7,397.785531334,401.028653677,-0.340566516842,-13.3671938593,563.356196424,0.328897470621,9999.84169974,-43.4151455639,89.9499824442,32.2266269035588,90.9282728493,2.62992804855,-9.52133117418,-9.11593141333,0.146014931013,-0.814111226308,1077.4050173,0.00175555851411,1455.62576044,483.026055137,-1395.48181208,-22.7199435242,-20606.82946,112.592945806,-148.750066223,634.397061884,0.523029731605,278.737920114
1.0,13360.9369961,-12562.1047308,2.08654783973E7,397.388339791,401.422257882,-0.371130465359,-14.5469816946,563.326945635,0.35843054315,9999.80734724,-43.2391368232,89.9499786363,32.226627009341485,91.0234386432,2.6308550042,-10.4265611319,-8.90344826256,0.151909974178,-0.794701327077,1077.4051538,0.00175556040722,1455.62769895,483.026177526,-1394.99464197,46.2224948608,-20641.0084011,-572.66207003,-50.5913005529,-179.382854332,0.523029662651,278.738217824
1.1,13400.6547512,-12521.9416644,2.08654783586E7,396.96183662,401.843730657,-0.403660886726,-15.686049881,563.296131341,0.389965398381,9999.76994677,-43.0631514265,89.9499745122,32.22662712448068,91.116742402,2.63127855879,-11.311668555,-8.70236803134,0.168806170434,-0.84556594492,1077.40530241,0.00175556246831,1455.62980946,483.026310774,-1395.15205145,107.113040615,-20673.5927498,-89.9380422359,82.8206154462,-873.980862012,0.523029380498,278.73832123
1.2,13440.3283481,-12481.735026,2.08654783165E7,396.504822096,402.294019044,-0.438412653763,-16.7828631455,563.264006784,0.423758243056,9999.72927819,-42.8871909165,89.9499700832,32.226627249670884,91.201873361,2.63112225877,-12.1750577323,-8.47791552535,0.198471804371,-0.946188817607,1077.405464,0.0017555647095,1455.63210439,483.026455666,-1395.056291,142.226534625,-20714.2347484,1198.97491702,201.049497557,-1245.85173807,0.523028848765,278.738193931
1.3,13479.9546118,-12441.4818189,2.08654782709E7,396.014710921,402.77554335,-0.474853681173,-17.8338704045,563.230986793,0.45928008872,9999.68513644,-42.7112566882,89.9499653611,32.22662738560619,91.2752541698,2.63057602293,-13.0128481226,-8.21214771188,0.237933995729,-1.06399455399,1077.40563939,0.00175556714209,1455.63459531,483.026612931,-1393.94112412,146.206930262,-20769.6914149,2745.32292512,263.673174819,-1242.33242111,0.523028118746,278.737892816
1.4,13519.5300989,-12401.1787919,2.08654782215E7,395.48894376,403.290746558,-0.511946806776,-18.8355285678,563.197563955,0.495496866681,9999.63739794,-42.5353499477,89.949960359,32.22662753258022,91.3366263486,2.62999894031,-13.8208451417,-7.90705260051,0.28107267436,-1.16766749821,1077.40582908,0.0017555697729,1455.63728921,483.026783011,-1391.44949742,125.020562243,-20841.5110142,4037.97932442,254.478083243,-944.67265083,0.523027298933,278.737534859
1.5,13559.0511598,-12360.8224987,2.08654781685E7,394.926082586,403.840946367,-0.548578559973,-19.7858867241,563.164198074,0.531296812907,9999.58605017,-42.3594717015,89.9499550907,32.226627690586184,91.3884364287,2.62976889446,-14.5962654754,-7.58018898791,0.321223737285,-1.23706605846,1077.4060331,0.00175557260262,1455.64018678,483.02696595,-1387.72445408,91.4877295543,-20925.9723705,4757.61540823,184.88627741,-511.761095174,0.523026507191,278.737245821
1.6,13598.5140803,-12320.4094428,2.08654781118E7,394.326305367,404.425798435,-0.583957255519,-20.685312363,563.131226056,0.565887926803,9999.53117853,-42.1836227801,89.9499495701,32.226627859517215,91.4344841996,2.63014299697,-15.3386586135,-7.25557213082,0.353672927464,-1.26729440964,1077.40625113,0.00175557562653,1455.64328321,483.027161444,-1383.30054106,59.5705354535,-21016.0274472,4842.13024579,86.5941414342,-111.213925481,0.523025826972,278.737113728
1.7,13637.9152413,-12279.9362425,2.08654780517E7,393.691265158,405.043418557,-0.617836107403,-21.5363025166,563.098822801,0.599021248683,9999.4729213,-42.0078038846,89.9499438109,32.226628038866636,91.4784288018,2.63118133596,-16.0498470011,-6.95401617297,0.377096974179,-1.26691255676,1077.40648261,0.00175557883703,1455.64657069,483.027368999,-1378.86055495,39.5721276537,-21104.2464339,4447.74131065,-2.56167396139,137.155050369,0.52302528245,278.737162852
1.8,13677.251239,-12239.3997576,2.08654779883E7,393.023489981,405.690988405,-0.650502338082,-22.3426295975,563.067019692,0.63098071392,9999.41141384,-41.8320156382,89.9499378257,32.226628228228186,91.5226649685,2.63275462461,-16.7330806638,-6.6863920575,0.39354635184,-1.2521609485,1077.406727,0.00175558222665,1455.65004159,483.027588134,-1374.9686554,35.5802502067,-21185.4975239,3852.89384343,-53.2576609384,189.907870001,0.523024838102,278.737353868
1.9,13716.5189338,-12198.7971431,2.08654779217E7,392.32561369,406.365547561,-0.682570531384,-23.1082377511,563.03576573,0.662377469082,9999.34674446,-41.6562586255,89.9499316263,32.226628427396136,91.5678530887,2.63462018147,-17.3918524057,-6.45173623432,0.407193797931,-1.23995301804,1077.40698396,0.00175558579052,1455.65369093,483.027818535,-1371.8862718,45.51466177,-21258.3817461,3337.20606203,-54.1063547132,77.2958300244,0.523024419347,278.737606329
2.0,13755.7154265,-12158.1258277,2.08654778518E7,391.59972455,407.064674148,-0.714686614908,-23.8363026666,563.005003488,0.693854675614,9999.27893617,-41.4805334104,89.9499252232,32.22662863616528,91.6131148553,2.63652684385,-18.0288528787,-6.23989272145,0.422510965178,-1.24219262211,1077.40725339,0.00175558952738,1455.65751741,483.028060118,-1369.52751354,63.169295183,-21325.0890959,3091.32456361,-13.0458362127,-122.94315157,0.523023944166,278.737832565
2.1,13794.8379836,-12117.3834385,2.08654777787E7,390.847021205,407.786853517,-0.747264256991,-24.5287299033,562.974730887,0.72582434548,9999.20795745,-41.3048405306,89.9499186264,32.226628854630704,91.6566877461,2.63830573886,-18.6454036428,-6.03686310777,0.442631760771,-1.26298443598,1077.40753542,0.00175559343897,1455.66152281,483.028312997,-1367.54669518,81.1576261558,-21389.9972681,3174.04220389,48.4749346476,-321.576779848,0.523023352919,278.737969349
2.2,13833.883946,-12076.5677071,2.08654777023E7,390.067825907,408.531477943,-0.780342561445,-25.1861663205,562.945029173,0.758325026545,9999.13375377,-41.1291804768,89.9499118456,32.226629083087715,91.6967264992,2.63991698632,-19.241470843,-5.8303443646,0.468454435598,-1.29901848032,1077.40783026,0.00175559752829,1455.6657102,483.028577366,-1365.50336798,93.6002566522,-21457.730138,3520.2059497,105.158358469,-449.689729899,0.523022625789,278.737996145
2.3,13872.8506546,-12035.6763922,2.08654776226E7,389.261877979,409.298552909,-0.81359496326,-25.8084159609,562.916052699,0.791030335371,9999.05628571,-40.9535536682,89.9499048902,32.226629321631606,91.7319589177,2.64144352993,-19.8161479769,-5.61378127295,0.498671858056,-1.3423022867,1077.40813807,0.00175560179752,1455.67008182,483.028853365,-1363.03283247,97.7290162948,-21531.4521999,3989.01871131,137.245635994,-476.862537548,0.523021783387,278.737935347
2.4,13911.7354126,-11994.7072388,2.08654775396E7,388.428754427,410.088266798,-0.846461612856,-26.3950410942,562.887990625,0.823380816528,9998.97555964,-40.7779604351,89.9498977699,32.22662957015762,91.7620133438,2.64304302183,-20.3683502064,-5.38757190865,0.530564062747,-1.38383463544,1077.40845883,0.0017556062463,1455.6746373,483.029140971,-1359.96244129,94.115279849,-21611.950324,4428.63162582,136.44702028,-412.738524636,0.523020873051,278.737837344
2.5,13950.5354892,-11953.6579813,2.08654774534E7,387.568254301,410.900593623,-0.878339633064,-26.9459132981,562.861019056,0.854773717728,9998.89164173,-40.602401015,89.9498904945,32.22662982846098,91.7873810153,2.64488137415,-20.8974423154,-5.1575721655,0.561151782273,-1.41680987384,1077.40879226,0.001755610871,1455.67937291,483.029439949,-1356.34243253,85.7579644336,-21697.6918424,4726.80541156,106.944353184,-295.121650598,0.523019948178,278.737758333
2.6,13989.2481552,-11912.5263783,2.0865477364E7,386.680627946,411.735053181,-0.908756813275,-27.4615433008,562.835262327,0.884736395245,9998.80465306,-40.4268755634,89.9498830736,32.226630096336905,91.8091030618,2.64707409026,-21.403593865,-4.93206430577,0.588250821812,-1.43840104406,1077.4091379,0.00175561566493,1455.68428183,483.029749867,-1352.39440723,76.5631437938,-21785.6794933,4842.07843864,61.9178773233,-171.407084908,0.523019049062,278.737739956
2.7,14027.8707309,-11871.3102612,2.08654772717E7,385.766606467,412.590676161,-0.937472430817,-27.9431250801,562.810775611,0.913027096153,9998.7147509,-40.2513841735,89.9498755169,32.22663037308074,91.828342539,2.64965454647,-21.8877822662,-4.71825455416,0.611076144247,-1.44984749876,1077.40949512,0.00175562061943,1455.68935517,483.030070165,-1348.40904381,69.8620265388,-21872.6721322,4799.08116552,17.548914656,-80.8436337991,0.523018191582,278.737797438
2.8,14066.4006285,-11830.0075777,2.08654771766E7,384.827261771,413.466143992,-0.964483035187,-28.3923375015,562.787551402,0.939640915511,9998.62210444,-40.0759268991,89.9498678331,32.22663065828802,91.8460061037,2.6525759163,-22.351514347,-4.52006668721,0.630259821003,-1.45517639116,1077.40986324,0.00175562572518,1455.69458339,483.030400241,-1344.63648166,67.4288245498,-21956.2864848,4668.99160199,-13.0563762602,-43.309931316,0.523017366199,278.737918783
2.9,14104.8353749,-11788.6164152,2.08654770788E7,383.863777225,414.360021697,-0.989948056281,-28.8110179142,562.765543682,0.964735689781,9998.52687437,-39.9005037715,89.9498600311,32.22663095155455,91.8625292392,2.65574025326,-22.7964125605,-4.33725609212,0.64737707681,-1.45927993775,1077.41024163,0.00175563097333,1455.69995743,483.030739521,-1341.20981981,69.2272276845,-22035.6111144,4535.88642523,-23.8235662896,-56.8712358398,0.523016545791,278.738073347
3.0,14143.1726114,-11747.1350004,2.08654769786E7,382.877223356,415.27098716,-1.0140750375,-29.2008424977,562.744698554,0.988517509357,9998.42920213,-39.7251148092,89.9498521189,32.2266312521763,91.8778617029,2.65903986676,-23.2238370147,-4.1663941187,0.664231507239,-1.46611371662,1077.41062972,0.00175563635608,1455.7054693,483.031087502,-1338.12228448,73.8142769347,-22111.2067155,4464.92033115,-16.5631897247,-103.11239607,0.523015698137,278.738225258
3.1,14181.4100742,-11705.5616801,2.08654768761E7,381.868412348,416.197981249,-1.03701143983,-29.5631184456,562.72497986,1.01113270464,9998.3292108,-39.5497600174,89.9498441041,32.22663156004952,91.8916162761,2.66239442854,-23.6346685153,-4.00248135614,0.682190145531,-1.47759529447,1077.41102702,0.00175564186665,1455.71111206,483.031443746,-1335.25692009,79.1212932179,-22184.600159,4484.18284316,1.06720187058,-156.764971379,0.523014798002,278.738346285
3.2,14219.5455658,-11663.8948917,2.08654767713E7,380.837864697,417.14024447,-1.05877885495,-29.8987353902,562.706382038,1.03260210191,9998.22701481,-39.3744393816,89.9498359941,32.226631874670566,91.9032976524,2.66577183318,-24.0292953381,-3.84114190739,0.701788745286,-1.49340928735,1077.41143308,0.00175564749873,1455.71687925,483.031807844,-1332.44838837,83.2737341021,-22257.5420656,4585.51745788,19.2185872333,-195.594294033,0.523013834738,278.738423845
3.3,14257.5769287,-11622.133136,2.08654766643E7,379.785876894,418.097251134,-1.07926467381,-30.2082601363,562.688928248,1.05281260917,9998.12273337,-39.1991528583,89.9498277962,32.22663219573588,91.9125190141,2.66918854064,-24.4077727109,-3.67987754374,0.722693899259,-1.51160263274,1077.41184743,0.00175565324576,1455.72276415,483.032179372,-1329.55055429,85.1793870495,-22331.3218429,4732.76219468,29.6339831986,-207.161576431,0.523012813613,278.738462262
3.4,14295.502029,-11580.27496,2.08654765555E7,378.712647874,419.068583624,-1.09826357755,-30.4921146984,562.672657215,1.07155855139,9998.01650217,-39.0239003692,89.9498195173,32.226632522842,91.9191369295,2.67269305104,-24.7700636778,-3.51862203969,0.743970730758,-1.52959639594,1077.41226953,0.00175565910025,1455.7287591,483.032557846,-1326.48483412,84.7275378011,-22406.3692062,4880.38405038,28.1781025462,-190.907489841,0.523011751475,278.738478031
3.5,14333.3187536,-11538.3189523,2.08654764448E7,377.618410317,420.053801144,-1.11554581609,-30.7507612523,562.657605538,1.08860978722,9997.9084793,-38.8486817992,89.9498111645,32.2266328553855,91.9232765845,2.67634118518,-25.1162622096,-3.35924505484,0.764509020116,-1.5451941133,1077.41269875,0.0017556650535,1455.73485518,483.032942704,-1323.25688835,82.6178914658,-22482.2233972,4991.22288531,15.5266223982,-155.822495447,0.523010669311,278.73849181
3.6,14371.0250182,-11496.2637511,2.08654763324E7,376.503521937,421.052348054,-1.13092411217,-30.9848307118,562.643792532,1.10377850028,9997.79884422,-38.6734970001,89.9498027445,32.22663319296302,91.9252615558,2.68017321,-25.4467277534,-3.20447265309,0.783432809264,-1.55724956379,1077.41313437,0.00175567109562,1455.74104226,483.033333306,-1319.94110148,79.9559315939,-22557.8170155,5047.35890932,-3.93143966106,-115.426581064,0.523009584771,278.738520474
3.7,14408.6187821,-11454.1080574,2.08654762186E7,375.368493915,422.063524666,-1.14429678443,-31.1951628993,562.631212476,1.11696228688,9997.68779112,-38.498345798,89.9497942639,32.22663353477131,91.9254910039,2.68420028497,-25.7620953088,-3.05677569837,0.800356195,-1.56584111057,1077.41357562,0.0017556772159,1455.74730939,483.033728959,-1316.64428326,77.7997731974,-22631.9185326,5050.78335789,-24.2573648828,-82.2871157668,0.52300850724,278.738571928
3.8,14446.0980622,-11411.850648,2.08654761036E7,374.213959138,423.08651779,-1.1556566896,-31.3827622846,562.619835706,1.12815313673,9997.57551964,-38.323228002,89.9497857291,32.226633880507244,91.9243160974,2.6884032656,-26.0631874314,-2.91750274723,0.815424852258,-1.57199981704,1077.41402172,0.00175568340335,1455.7536453,483.034128954,-1313.4647893,76.8118412749,-22703.5523984,5020.33875904,-40.2617547019,-63.9925133192,0.523007436643,278.738643935
3.9,14483.460942,-11369.4903842,2.08654759876E7,373.04060269,424.120468704,-1.1650692529,-31.5487009558,562.609616641,1.13741554833,9997.46222628,-38.1481434117,89.9497771461,32.22663422926781,91.9219570534,2.69274202037,-26.3508697156,-2.78654396273,0.829168669254,-1.57717349764,1077.41447188,0.00175568964713,1455.7600389,483.034532589,-1310.46173003,77.1191970252,-22772.2578181,4981.28835805,-49.1432060341,-61.6260120666,0.523006365699,278.738726611
4.0,14520.7055728,-11327.0262124,2.08654758707E7,371.849085486,425.164548045,-1.1726325995,-31.6940121178,562.60050483,1.14484675356,9997.3480991,-37.9730918213,89.9497685206,32.226634580650185,91.9184804564,2.69717015712,-26.6259175341,-2.66267017869,0.842249931151,-1.58266030511,1077.41492535,0.00175569593687,1455.76647957,483.034939195,-1307.64335363,78.3835116139,-22838.1245784,4955.19473831,-50.9982298347,-70.7597413886,0.523005284232,278.738807077
4.1,14557.8301685,-11284.4571576,2.08654757531E7,370.639988179,426.218010961,-1.17843682491,-31.8196119548,562.592454772,1.15053605665,9997.23331653,-37.7980730204,89.9497598583,32.226634934051624,91.9138321713,2.7016490812,-26.8889347028,-2.54409404014,0.855213922076,-1.58921129308,1077.41538142,0.00175570226276,1455.77295726,483.035348136,-1304.9749882,80.0103518564,-22901.635753,4954.18160667,-48.2397802573,-84.0825490985,0.523004183678,278.738874277
4.2,14594.8329958,-11241.7823145,2.0865475635E7,369.41379047,427.280217815,-1.18253630044,-31.92627077,562.585431474,1.15453716498,9997.11804971,-37.6230867927,89.9497511642,32.226635288869524,91.9079035052,2.70615669994,-27.1403411489,-2.42915489216,0.868326713334,-1.59689856251,1077.41583942,0.00175570861535,1455.7794623,483.035758802,-1302.39997142,81.405299498,-22963.4082455,4977.55642781,-44.341701629,-94.4617873568,0.523003060228,278.7389223
4.3,14631.712365,-11199.0008366,2.08654755167E7,368.170885992,428.350620353,-1.18494186237,-32.014633489,562.579410749,1.15686036047,9997.00246657,-37.4481329128,89.9497424436,32.226635644801384,91.9006016855,2.71068882339,-27.3804240736,-2.31682336513,0.881539266694,-1.60523976223,1077.41629867,0.0017557149854,1455.78598522,483.036170595,-1299.86426348,82.1723907781,-23023.9375859,5016.29357054,-42.4409011682,-97.3138231078,0.523001915768,278.738951343
4.4,14668.4666229,-11156.1119293,2.08654753981E7,366.911620895,429.428724952,-1.18563172928,-32.0852728857,562.574375231,1.15748337011,9996.88673584,-37.2732111446,89.9497337013,32.226636001044774,91.8919000063,2.71525413872,-27.6094222483,-2.20695907399,0.894566881988,-1.61348335419,1077.41675851,0.00175572136359,1455.79251649,483.036582914,-1297.33526994,82.2103997677,-23083.4355919,5056.84309966,-44.3300164882,-91.6435401542,0.52300075672,278.738966427
4.5,14705.0941504,-11113.1148464,2.08654752796E7,365.636338287,430.514050129,-1.18457390021,-32.1387508518,562.57030837,1.15637371061,9996.7710292,-37.0983212403,89.9497249421,32.22663635729731,91.8818546974,2.71986565206,-27.8276012448,-2.1000241859,0.907035403977,-1.62092857473,1077.41721826,0.00175572774048,1455.79904642,483.036995147,-1294.80993204,81.6856054985,-23141.79718,5086.48978922,-50.0781492227,-79.6201140838,0.522999591548,278.738974719
4.6,14741.5933641,-11070.0088908,2.08654751613E7,364.345412497,431.606093734,-1.18174976092,-32.1756655727,562.567188942,1.15351225319,9996.65552107,-36.9234629415,89.9497161706,32.22663671285673,91.8705896956,2.72453233628,-28.035306657,-1.99685408295,0.91863044209,-1.62715936633,1077.41767721,0.00175573410644,1455.80556517,483.037406673,-1292.31073108,80.9200901609,-23198.6860392,5098.5732176,-58.3389466057,-65.2068949001,0.522998428041,278.738982638
4.7,14777.9627204,-11026.7934171,2.08654750433E7,363.039263265,432.704319162,-1.17717077056,-32.1966711138,562.564987928,1.14890989287,9996.54038637,-36.7486359823,89.9497073912,32.226637067420825,91.8582607537,2.72925369595,-28.2329713108,-1.898263877,0.92919886283,-1.63213475035,1077.41813468,0.00175574045184,1455.81206287,483.037816868,-1289.87376904,80.2537936845,-23253.6850306,5091.78886786,-67.0708975049,-52.4478097314,0.522997271343,278.738993775
4.8,14814.2007196,-10983.4678353,2.08654749259E7,361.718348858,433.808161445,-1.17088351304,-32.2024681731,562.56366845,1.14261260818,9996.42579718,-36.5738400917,89.9496986082,32.226637420187494,91.8450152504,2.73401867352,-28.421086892,-1.80462394945,0.938775624045,-1.63613458908,1077.41858999,0.00175574676719,1455.81852981,483.03822512,-1287.53424429,79.9181473832,-23306.4484433,5072.9460888,-74.3661546159,-44.0539991187,0.522996123245,278.739008181
4.9,14850.3059088,-10940.0316123,2.08654748092E7,360.383144619,434.91704703,-1.16296342026,-32.1937749874,562.563188262,1.1346952096,9996.31191944,-36.3990749971,89.9496898255,32.226637770754714,91.8309622173,2.73880844805,-28.6001560129,-1.71586115929,0.947541258698,-1.63960384543,1077.41904246,0.00175575304335,1455.82495662,483.038630837,-1285.31482193,79.9895582442,-23356.8033371,5047.95943409,-79.0827144461,-40.7669929624,0.522994982758,278.739023009
5.0,14886.2768827,-10896.4842719,2.08654746933E7,359.034116946,436.03041782,-1.15350134309,-32.171292089,562.56350351,1.12524794169,9996.19891071,-36.2243404258,89.9496810472,32.22663811872058,91.8161607416,2.74360143815,-28.770645015,-1.63150227491,0.955737236383,-1.64297351929,1077.41949149,0.00175575927163,1455.83133441,483.039033459,-1283.22038086,80.3837074636,-23404.7742773,5025.79280024,-81.0980991087,-41.4883093426,0.522993847522,278.73903404
5.1,14922.112281,-10852.8253923,2.08654745785E7,357.671702514,437.147750333,-1.14258877912,-32.1356742602,562.564572271,1.11436173527,9996.08691936,-36.0496361054,89.9496722768,32.226638463483255,91.8006270616,2.74837837673,-28.9329553411,-1.55082860046,0.963576481787,-1.64652284353,1077.41993647,0.00175576544386,1455.83765481,483.039432455,-1281.24009833,80.9263953328,-23450.535558,5009.78920356,-81.1407896404,-44.030622765,0.522992715407,278.7390374
5.2,14957.8107852,-10809.0546015,2.08654744649E7,356.296298909,438.268564312,-1.13030694341,-32.0875179876,562.566356738,1.10211728937,9995.97608514,-35.8749617638,89.9496635178,32.22663880474101,91.7843541646,2.75312570098,-29.0874156552,-1.47319778099,0.971181297302,-1.65031856447,1077.42037685,0.00175577155233,1455.84390992,483.039827329,-1279.35394678,81.4256088805,-23494.3256056,5000.7040217,-80.4018062888,-46.0796777786,0.522991585714,278.739030836
5.3,14993.3711148,-10765.1715737,2.08654743525E7,354.90826761,439.392419989,-1.11672246855,-32.027365611,562.568823628,1.08858076769,9995.86654044,-35.700317128,89.9496547736,32.22663914199215,91.7673348378,2.7578364323,-29.2342989141,-1.39817391754,0.978563628638,-1.65424070811,1077.42081211,0.00175577758975,1455.85009228,483.040217609,-1277.54156168,81.7419493491,-23536.3541727,4996.4037178,-80.0204895247,-46.0084865032,0.522990459659,278.739014212
5.4,15028.792024,-10721.1760254,2.08654742416E7,353.50794601,440.518907088,-1.10188990367,-31.9557216299,562.571943034,1.07380628319,9995.75841169,-35.5257019239,89.9496460474,32.226639474835096,91.7495795762,2.76250870976,-29.373851454,-1.32558086221,0.985647670034,-1.65806654029,1077.42124175,0.00175578354914,1455.85619475,483.040602844,-1275.78914753,81.8273637298,-23576.7404428,4992.47082683,-80.711144349,-43.2959285914,0.522989340084,278.738989191
5.5,15064.0723002,-10677.0677134,2.08654741322E7,352.095662587,441.647630962,-1.08585869272,-31.8730732153,562.575686458,1.05784285853,9995.65182022,-35.3511158754,89.9496373422,32.226639803068316,91.7311242098,2.76714291176,-29.506318581,-1.25550643508,0.992318599343,-1.66157156202,1077.42166527,0.00175578942382,1455.86221048,483.040982602,-1274.09289977,81.7217031621,-23615.4948419,4984.91812833,-82.593844471,-38.4778758864,0.522988230643,278.738958359
5.6,15099.2107638,-10632.8464334,2.08654740244E7,350.671749419,442.778201123,-1.06868113942,-31.7799071108,562.5800249,1.04074237609,9995.54688238,-35.1765587051,89.949628661,32.22664012609034,91.7120267934,2.77173869961,-29.6319649895,-1.18815519567,0.998475063483,-1.66461172465,1077.42208222,0.00175579520738,1455.8681329,483.041356469,-1272.45810713,81.5220102122,-23652.5438103,4971.32639091,-85.2746647662,-32.7513887995,0.522987134859,278.738924212
5.7,15134.2062687,-10588.5120204,2.08654739185E7,349.236548247,443.910225551,-1.05041841192,-31.6767179083,562.584927683,1.02256557536,9995.44370894,-35.0020301354,89.9496200067,32.226640443699765,91.6923568741,2.7762929527,-29.7510781643,-1.12373626373,1.00406738386,-1.66716052723,1077.42249217,0.00175580089372,1455.87395576,483.041724049,-1270.89540625,81.3376052404,-23687.779285,4951.45258354,-88.073733897,-27.429268517,0.522986055374,278.738888372
5.8,15169.0577038,-10544.0643487,2.08654738144E7,347.790409229,445.043311511,-1.03114268806,-31.5640065594,562.590362279,1.00338419949,9995.34240403,-34.8275298888,89.9496113817,32.226640755595255,91.6721823836,2.78079918673,-29.8639611158,-1.06234092524,1.00911037018,-1.66929884901,1077.42289469,0.00175580647708,1455.87967319,483.042084973,-1269.41570315,81.2527925648,-23721.1124257,4925.54538029,-90.3201779827,-23.4668607025,0.522984993633,278.738851251
5.9,15203.7639927,-10499.5033315,2.08654737123E7,346.333673761,446.177079338,-1.01094298734,-31.4422584299,562.5962958,0.983286846624,9995.24306411,-34.6530576895,89.9496027888,32.22664106147555,91.651558666,2.78524812113,-29.9708821087,-0.973481771603,1.01367088792,-1.67163209537,1077.4232894,0.00175581195216,1455.88527973,483.042438895,-1268.03794839,81.9205323072,-23752.4495746,4460.43217562,-90.6283344519,-18.4568531382,0.522983950037,278.738812237
6.0,15238.3240691,-10454.8289023,2.08654736122E7,344.866549744,447.311218964,-0.990379130717,-31.3118089153,562.602671276,0.962833048081,9995.14574224,-34.4786132618,89.9495942303,32.22664136113939,91.6298308708,2.78944293768,-29.9959743227,0.139860636813,1.02043808418,-1.67657778568,1077.42367609,0.00175581731602,1455.8907724,483.042785628,-1267.04523502,68.7200233318,-23782.6590085,-391.609652391,-60.6048103538,267.12253994,0.522982895622,278.738739882
6.1,15272.7370472,-10410.0411397,2.08654735144E7,343.391859231,448.443696659,-0.965629619315,-31.1761190337,562.609475685,0.938198262838,9995.05065644,-34.3041963527,89.9495857081,32.22664165388586,91.6096065706,2.79468121968,-29.9957833002,0.0918611596391,1.01271284554,-1.64637932722,1077.4240539,0.00175582255666,1455.89613888,483.043124395,-1263.04353261,58.2369217998,-23821.3425307,21.291497439,-275.076237909,362.295457075,0.522981996201,278.738808579
6.2,15307.0022546,-10365.1402672,2.08654734192E7,341.911589282,449.573026815,-0.937787943807,-31.0376549468,562.616639347,0.910473814373,9994.95820805,-34.1298066847,89.9495772234,32.22664193841438,91.592831806,2.80024900825,-29.9958568834,0.0925627742108,0.994340845595,-1.61458198721,1077.42442123,0.00175582765194,1455.90135653,483.043453765,-1261.73646006,59.9888421068,-23835.221483,1.35326893764,-306.70046603,321.563946328,0.522981319722,278.739086423
6.3,15341.1192504,-10320.1267023,2.08654733269E7,340.427907216,450.697295983,-0.908570135622,-30.8992697369,562.623808131,0.881373224662,9994.86861129,-33.9554440645,89.9495687765,32.22664221432475,91.5794177329,2.80562202267,-29.9958140798,0.0924701539161,0.976633546761,-1.59111818341,1077.42477723,0.00175583259008,1455.90641325,483.043772975,-1261.84262114,69.9316127493,-23834.6801858,-2.04277992595,-262.081291105,188.711077637,0.522980688435,278.739381626
6.4,15375.0877626,-10275.0010119,2.08654732375E7,338.942043116,451.815427623,-0.878980262679,-30.7625662074,562.630768196,0.851899150557,9994.78194942,-33.7811083881,89.9495603672,32.22664248111711,91.5681861885,2.81052706584,-29.995687068,0.0924590531645,0.964693775113,-1.58143004974,1077.42512156,0.00175583736646,1455.91130434,483.044081729,-1262.77517254,82.8843392626,-23826.5973021,-5.15553623947,-179.442902028,29.0068657414,0.522979987089,278.739570434
6.5,15408.9075957,-10229.7638296,2.08654731511E7,337.454300345,452.927155104,-0.849529880346,-30.6279236414,562.637448316,0.82256281237,9994.69823004,-33.6067995969,89.9495519949,32.22664273889172,91.5575689918,2.81486589706,-29.9955390681,0.0925679588366,0.960410338148,-1.58520615816,1077.42545421,0.00175584198068,1455.91602937,483.04438,-1263.93032995,93.9661837325,-23817.6523071,-6.87470939745,-93.2537931679,-99.9117126047,0.522979168425,278.739602388
6.6,15442.5785435,-10184.4157806,2.08654730676E7,335.964213461,454.032865251,-0.820266581522,-30.494718536,562.643894821,0.793412350652,9994.61743358,-33.4325176371,89.949543659,32.22664298764881,91.5462050011,2.81870323145,-29.9954233918,0.0927644882652,0.962770552088,-1.59791186122,1077.42577524,0.00175584643381,1455.92058945,483.044667857,-1264.79544172,100.099738051,-23812.7747968,-6.99095644772,-31.0975442178,-164.483608627,0.522978242686,278.739488619
6.7,15476.1003299,-10138.9574317,2.0865472987E7,334.470911349,455.133285922,-0.790925737845,-30.3618018465,562.650224526,0.764184147998,9994.53955298,-33.2582624297,89.9495353594,32.22664322738849,91.533324073,2.82220517373,-29.9953698092,0.0929952595921,0.968873530334,-1.61328138142,1077.42608468,0.00175585072624,1455.92498497,483.044945326,-1265.09479354,100.547956876,-23813.9884437,-5.86928332553,-6.08294487763,-159.986593662,0.522977259343,278.739281936
6.8,15509.472588,-10093.3892741,2.08654729094E7,332.973522544,456.229145111,-0.761144114136,-30.2280260003,562.656568094,0.734515979655,9994.46461426,-33.084033856,89.9495270962,32.226643458110715,91.5188478819,2.82555968024,-29.9953808433,0.0932063210323,0.975324498833,-1.62574605751,1077.42638244,0.00175585485653,1455.92921447,483.045212313,-1264.81905783,96.5714322919,-23820.5001522,-4.17786353835,-16.1568683045,-104.916773313,0.522976281783,278.739049628
6.9,15542.6948776,-10047.7117375,2.08654728348E7,331.471481159,457.320917681,-0.730649221141,-30.0926395634,562.663023428,0.704136018643,9994.39267642,-32.9098317609,89.9495188697,32.226643679515306,91.5032447886,2.82890997075,-29.9954377059,0.0933610178376,0.979444015709,-1.63204010305,1077.42666827,0.00175585882144,1455.93327461,483.045468609,-1264.16136533,90.5325625698,-23829.6726738,-2.60070282573,-48.5174577383,-29.3496095426,0.522975363929,278.738848536
7.0,15575.7667233,-10001.9252216,2.08654727633E7,329.964659721,458.408718364,-0.699369801642,-29.9554561727,562.669631385,0.67297317262,9994.32381608,-32.7356559656,89.9495106803,32.226643891602,91.4872458499,2.83231893336,-29.9955115607,0.093447691669,0.979949608062,-1.6316747388,1077.42694188,0.00175586261673,1455.93716106,483.045713941,-1263.40456055,84.8691153829,-23838.3450649,-1.61604948705,-86.3648995538,37.5195288912,0.522974535707,278.738709734
7.1,15608.6876578,-9956.03013195,2.0865472695E7,328.453328456,459.492338038,-0.667451757243,-29.8167995886,562.676375878,0.641173058633,9994.25810591,-32.5615062866,89.9495025286,32.226644093870576,91.4715469311,2.83576819343,-29.9955752144,0.093477407639,0.977022961918,-1.62640871456,1077.42720297,0.00175586623841,1455.94086972,483.04594805,-1262.80768055,81.2971046209,-23843.9936177,-1.39467588928,-115.257127014,76.4800757891,0.522973799749,278.738635243
7.2,15641.4572544,-9910.02690571,2.08654726298E7,326.937996153,460.571375386,-0.635197839759,-29.6772976994,562.683202174,0.609037875656,9994.19559542,-32.3873825506,89.9494944148,32.226644286320855,91.4565954687,2.83918357775,-29.9956114033,0.0934750464214,0.971892956608,-1.61913179641,1077.42745134,0.00175586968373,1455.94439781,483.046170759,-1262.52806234,80.4409376906,-23845.402321,-1.82093132244,-127.144927438,81.9774851031,0.522973137529,278.738604781
7.3,15674.0751409,-9863.91602317,2.08654725679E7,325.419212197,461.645397755,-0.602969233674,-29.5376285648,562.690042956,0.576928210678,9994.1363001,-32.2132846034,89.9494863391,32.22664446885277,91.4425090956,2.84247232214,-29.9956158644,0.0934682014658,0.96618698185,-1.61266256666,1077.42768694,0.00175587295186,1455.94774443,483.046382013,-1262.59516524,81.9035247802,-23842.7497926,-2.60042013457,-121.372993193,60.5168769509,0.522972520658,278.738587916
7.4,15706.5409951,-9817.69800368,2.08654725092E7,323.897402539,462.714072446,-0.571089952563,-29.3983115013,562.696841951,0.545167619246,9994.08020057,-32.0392123103,89.9494783015,32.226644641566324,91.4291195838,2.84555722374,-29.99559549,0.0934778244841,0.961314897157,-1.60886573089,1077.42790984,0.00175587604385,1455.9509107,483.046581881,-1262.93179368,84.6453526383,-23837.2283962,-3.3984260869,-103.068451535,25.6075451404,0.522971922488,278.738556455
7.5,15738.854527,-9771.37339177,2.08654724537E7,322.37278382,463.777233994,-0.539783980822,-29.2595988746,562.703568199,0.513979862802,9994.02724971,-31.8651655507,89.9494703018,32.226644804561566,91.4160971377,2.84839757102,-29.9955633683,0.0935131261852,0.958074409075,-1.60829209303,1077.42812023,0.0017558789623,1455.95389925,483.046770531,-1263.40414804,87.4751369242,-23830.433086,-3.95719130545,-80.0817592596,-8.28220190302,0.522971326287,278.738493069
7.6,15771.0154577,-9724.94273999,2.08654724012E7,320.84536415,464.834882101,-0.5091572462,-29.1214783513,562.710218756,0.483470879381,9993.97738402,-31.6911442098,89.9494623398,32.22664495803858,91.4030955032,2.85099340857,-29.9955330686,0.0935714070123,0.956549263621,-1.61032714337,1077.42831836,0.00175588171071,1455.95671368,483.04694819,-1263.87764899,89.4677647725,-23823.7717185,-4.15936543146,-59.8098072814,-30.5832328413,0.522970728193,278.738394327
7.7,15803.0235011,-9678.40659473,2.08654723518E7,319.315009249,465.887128389,-0.479219202665,-28.983757664,562.716811854,0.453650291998,9993.93053452,-31.5171481709,89.9494544155,32.226645102297425,91.3898664061,2.85337588408,-29.9955141866,0.0936417781757,0.956260546802,-1.6136751352,1077.42850451,0.00175588429288,1455.95935789,483.047115103,-1264.25919995,90.194000449,-23818.0803741,-4.03056790167,-46.9519516737,-37.0378923627,0.522970135288,278.738268525
7.8,15834.8783547,-9631.7654887,2.08654723054E7,317.781536942,466.934121874,-0.449927427902,-28.8461844861,562.723375069,0.424475900467,9993.88663425,-31.3431773103,89.9494465287,32.22664523743813,91.3763143546,2.85559018366,-29.9955102622,0.0937106729495,0.956460119766,-1.61694114539,1077.42867894,0.00175588671251,1455.96183564,483.047271508,-1264.51584284,89.7350959845,-23813.515341,-3.69570195307,-42.6780930924,-29.5006379084,0.522969560612,278.738130286
7.9,15866.5796989,-9585.01994075,2.08654722618E7,316.244802953,467.975982303,-0.421235407356,-28.7085545202,562.729933539,0.395901370194,9993.84562109,-31.1692314963,89.9494386794,32.226645363760696,91.3624890415,2.85767832506,-29.9955191473,0.0937669203919,0.956437414982,-1.61910103755,1077.4288419,0.00175588897301,1455.96415044,483.047417628,-1264.66960101,88.5307699649,-23809.6883452,-3.31445071021,-45.1322635397,-13.8362490918,0.522969017459,278.737994455
8.0,15898.1272039,-9538.17046097,2.08654722211E7,314.704752744,469.01276058,-0.393127559738,-28.5707762532,562.736501969,0.367911200367,9993.80743618,-30.9953105908,89.9494308677,32.22664548126509,91.3485331914,2.85966732673,-29.9955350992,0.09380482439,0.955738374189,-1.61973695445,1077.42899362,0.00175589107763,1455.96630562,483.047553671,-1264.77610344,87.1502514031,-23805.9414179,-3.02165829236,-50.7755053026,2.9433646773,0.522968514984,278.737871424
8.1,15929.5205396,-9491.21755824,2.08654721832E7,313.161431094,470.044432011,-0.365633554544,-28.4328824477,562.743082023,0.340535031428,9993.77201998,-30.8214144532,89.9494230936,32.22664559035128,91.3346135159,2.86156519302,-29.9955515043,0.0938247313478,0.954248192035,-1.61902104745,1077.42913434,0.00175589302965,1455.96830453,483.04767985,-1264.89777762,86.0785007531,-23801.6393063,-2.89045242812,-55.9351719501,15.2016755364,0.522968056187,278.737765036
8.2,15960.7593844,-9444.16174693,2.0865472148E7,311.614956702,471.070916148,-0.338822579019,-28.2949979183,562.749664581,0.31384194023,9993.7393079,-30.6475429442,89.9494153571,32.226645691019264,91.320861006,2.86336405233,-29.995563208,0.0938315232246,0.952145242512,-1.6175147993,1077.42926432,0.00175589483262,1455.97015082,483.047796394,-1265.08152453,85.5821318471,-23796.3817048,-2.92414471446,-58.0141220481,20.1380628123,0.522967638337,278.737673078
8.3,15991.8434302,-9397.00355087,2.08654721154E7,310.065478436,472.092110121,-0.312784420527,-28.1572847248,562.756234909,0.287921570758,9993.70922723,-30.4736959286,89.9494076581,32.22664578356904,91.3073373284,2.86504767462,-29.9955678031,0.0938320211035,0.949772591339,-1.61589355446,1077.42938384,0.00175589649057,1455.9718486,483.047903564,-1265.34690621,85.6781770848,-23790.0872653,-3.07243781771,-56.0570752275,17.9820467254,0.522967255101,278.737589584
8.4,16022.7723839,-9349.74350391,2.08654720854E7,308.513131731,473.107921345,-0.287606766668,-28.0198879224,562.762778375,0.262861482205,9993.68169618,-30.299873276,89.9493999967,32.22664586840064,91.2940316192,2.86659987353,-29.9955657212,0.0938323965948,0.947488543366,-1.61470270378,1077.42949323,0.00175589800799,1455.97340248,483.04800165,-1265.68600444,86.1902779246,-23782.9543262,-3.26074970651,-50.6534987857,11.1717409324,0.522966899272,278.737507756
8.5,16053.5459636,-9302.38214767,2.08654720578E7,306.958009071,474.118289288,-0.263357001027,-27.8828991125,562.769284733,0.238728976813,9993.65662516,-30.1260748602,89.9493923728,32.22664594551408,91.2808811991,2.86801088155,-29.9955593956,0.0938364098324,0.945549088681,-1.61421558324,1077.42959284,0.00175589938982,1455.97481751,483.048090972,-1266.07214578,86.8527653802,-23775.3411587,-3.42007502878,-43.3692272734,3.02972212622,0.522966565092,278.737422424
8.6,16084.1638941,-9254.92002788,2.08654720327E7,305.400150596,475.12319208,-0.24007330258,-27.7463450992,562.775749984,0.215562209412,9993.63391924,-29.9523005579,89.9493847861,32.22664601540944,91.2678036903,2.86928015482,-29.9955519901,0.0938448423802,0.944052004241,-1.61441335774,1077.42968306,0.0017559006413,1455.97609905,483.048171867,-1266.47247103,87.4175612406,-23767.6241307,-3.50765990759,-36.0082452582,-3.51659556578,0.522966249521,278.737331373
8.7,16114.625902,-9207.35769077,2.08654720098E7,303.839552989,476.122639653,-0.217765681719,-27.6101991284,562.782175806,0.193371213535,9993.61348114,-29.7785502467,89.9493772366,32.22664607838675,91.2547274678,2.87041558433,-29.9955462095,0.0938560233367,0.94294515492,-1.61506318827,1077.42976427,0.00175590176778,1455.97725259,483.048244683,-1266.85942668,87.7290607267,-23760.0843004,-3.51416454348,-29.979084893,-6.7723284502,0.522965952308,278.737235387
8.8,16144.9317121,-9159.69568059,2.08654719891E7,302.276189381,477.116658984,-0.19642426804,-27.4744055976,562.788567357,0.172146167433,9993.59521365,-29.6048238034,89.9493697243,32.22664613454607,91.2416111348,2.87143024427,-29.99554355,0.093867014562,0.94208054289,-1.61584544233,1077.42983685,0.00175590277463,1455.97828363,483.048309766,-1267.21775629,87.7509884761,-23752.8517613,-3.45839684566,-25.9438496916,-6.51202395677,0.522965675145,278.73713732
8.9,16175.0810463,-9111.9345387,2.08654719705E7,300.710031281,478.105278109,-0.176030504886,-27.3389070756,562.794930547,0.151868564758,9993.57902109,-29.4311211034,89.9493622489,32.22664618438743,91.2284485177,2.87233831751,-29.9955441217,0.0938749149739,0.941285550919,-1.61647720672,1077.42990119,0.00175590366711,1455.97919755,483.048367455,-1267.54585402,87.5485118096,-23745.9113496,-3.37429339991,-23.7934620358,-3.68876081544,0.522965420397,278.737040726
9.0,16205.0736244,-9064.07480414,2.08654719539E7,299.141065059,479.088514283,-0.15656704736,-27.2036644817,562.801269781,0.132521094726,9993.56480963,-29.257442021,89.9493548104,32.22664622821084,91.2152611647,2.87315169546,-29.9955469569,0.09387783674,0.940424365654,-1.61679357019,1077.42995765,0.0017559044504,1455.97999966,483.048418087,-1267.85248091,87.2423737241,-23739.1525315,-3.29640529631,-22.8731833766,0.161286250417,0.522965189918,278.736948597
9.1,16234.9091657,-9016.117015,2.08654719391E7,297.569299083,480.066368988,-0.138023612963,-27.0686657223,562.807586778,0.114093485152,9993.55248684,-29.0837864298,89.9493474088,32.226646266116354,91.2020838354,2.87387816484,-29.995550587,0.0938753139151,0.939432402855,-1.61677114647,1077.43000662,0.00175590512959,1455.98069517,483.04846199,-1268.15099654,86.956603471,-23732.4368513,-3.24863966755,-22.3277974294,3.55345467525,0.522964984322,278.736862585
9.2,16264.5873916,-8968.06170995,2.08654719262E7,295.99476154,481.038829586,-0.120398002543,-26.9339229263,562.813880566,0.0965835257414,9993.54196091,-28.9101542038,89.9493400439,32.22664629850399,91.1889493481,2.87452136246,-29.9955536365,0.0938681552609,0.938319405068,-1.61650058903,1077.43004844,0.00175590570975,1455.98128927,483.048499491,-1268.45357895,86.7780910115,-23725.6569867,-3.2393589123,-21.425210114,5.51603711487,0.522964802821,278.736782842
9.3,16294.1080267,-8919.90942941,2.0865471915E7,294.417491941,482.005875397,-0.103693246459,-26.7994620286,562.820148355,0.0799942235769,9993.53313993,-28.7365452177,89.9493327158,32.22664632567376,91.1758777884,2.87508206952,-29.9955552407,0.0938579217219,0.937147998646,-1.61612947168,1077.43008349,0.00175590619594,1455.98178713,483.048530918,-1268.76728401,86.7380058166,-23718.770637,-3.26244176048,-19.7602271899,5.77394983504,0.522964643547,278.73670837
9.4,16323.4708,-8871.66071594,2.08654719055E7,292.837530598,482.96748508,-0.0879128192273,-26.6653099605,562.826386798,0.0643290289163,9993.52593166,-28.5629593477,89.9493254243,32.22664634782572,91.1628724496,2.87556009654,-29.9955551971,0.0938462891141,0.936000545237,-1.61580109568,1077.43011213,0.00175590659323,1455.98219398,483.0485566,-1269.09273808,86.8156008394,-23711.8046739,-3.302919044,-17.3037526799,4.6645559109,0.522964504136,278.736637648
9.5,16352.6754441,-8823.31611402,2.08654718974E7,291.254909965,483.923642617,-0.0730560182311,-26.5314841819,562.832593125,0.0495872232878,9993.52024368,-28.3893964714,89.9493181694,32.22664636525989,91.1499221438,2.87595600521,-29.9955538673,0.0938345291297,0.934947877659,-1.61560977331,1077.43013473,0.00175590690674,1455.98251501,483.048576864,-1269.42523264,86.9576580316,-23704.8356242,-3.34388551345,-14.3197201111,2.87866874624,0.522964382331,278.736569265
9.6,16381.7216939,-8774.87616932,2.08654718908E7,289.669650197,484.874340311,-0.0591150101197,-26.3979873587,562.838765833,0.0357609705755,9993.51598397,-28.2158564673,89.9493109509,32.22664637837631,91.1370075736,2.87627215403,-29.9955519235,0.0938232439057,0.934029357316,-1.6155828009,1077.43015165,0.00175590714152,1455.98275544,483.048592041,-1269.75728649,87.1035025566,-23697.9585021,-3.37242195501,-11.2081790374,1.15262895692,0.52296427639,278.73650236
9.7,16410.6092863,-8726.34142786,2.08654718856E7,288.081759339,485.819578568,-0.046074153097,-26.2648076595,562.844904809,0.0228346390071,9993.5130617,-28.0423392147,89.9493037688,32.22664638737503,91.1241087294,2.87651289609,-29.9955500581,0.0938123789283,0.933247854323,-1.61568828752,1077.43016326,0.00175590730259,1455.98292037,483.048602452,-1270.08147371,87.2062210459,-23691.2569556,-3.38269810689,-8.34452376844,0.0218863764751,0.522964185241,278.736436772
9.8,16439.337958,-8677.71243533,2.08654718816E7,286.491237007,486.759363334,-0.0339113240173,-26.1319232325,562.851010993,0.010786124358,9993.51138795,-27.8688445932,89.949296623,32.22664639255606,91.1112106995,2.87668406986,-29.9955487586,0.0938014406618,0.932577593636,-1.61585995375,1077.43016991,0.00175590739484,1455.98301484,483.048608415,-1270.39257273,87.2442449733,-23684.7838334,-3.37610773445,-5.96519905216,-0.300400395185,0.522964108376,278.736372921
9.9,16467.9074458,-8628.98973667,2.08654718788E7,284.898079548,487.693702561,-0.0226003976289,-25.9993084376,562.857085809,-4.10676338528E-4,9993.51087621,-27.6953724821,89.9492895134,32.226646394119456,91.0983064302,2.8767921192,-29.9955482033,0.0937898017488,0.931979176248,-1.61602678902,1077.43017195,0.00175590742304,1455.98304372,483.048610238,-1270.68849982,87.2219789503,-23678.5559182,-3.35905275968,-4.12622500181,0.088150460031,0.522964045603,278.736311535
10.0,16496.317486,-8580.17387608,2.0865471877E7,283.302284717,488.622603071,-0.0121138663813,-25.8669394492,562.863130586,-0.0107832499168,9993.51144267,-27.521922761,89.9492824399,32.226646392365225,91.0853963099,2.87684321077,-29.9955482821,0.0937769692694,0.931415196624,-1.61613689594,1077.4301697,0.00175590739182,1455.98301175,483.04860822,-1270.97003148,87.1619787692,-23672.5610048,-3.33966053894,-2.72956519262,0.887069126914,0.522963996752,278.73625334
10.1,16524.5678149,-8531.26539721,2.08654718763E7,281.703854507,489.546068682,-0.00242479399265,-25.734797631,562.869146167,-0.0203585165701,9993.5130063,-27.3484953093,89.9492754025,32.2266463874934,91.0724854964,2.87684262797,-29.9955487033,0.0937627438026,0.930861337665,-1.61616934174,1077.43016348,0.00175590730564,1455.9829235,483.048602649,-1271.23969215,87.093264131,-23666.7720916,-3.32471726205,-1.59299951334,1.73909171142,0.522963961458,278.736198821
10.2,16552.6581693,-8482.26484349,2.08654718765E7,280.102795722,490.464099861,0.00649229676474,-25.6028701908,562.875132786,-0.0291619425539,9993.51548864,-27.1750900065,89.9492684011,32.22664637990401,91.0595803996,2.87679456526,-29.9955491329,0.09374724401,0.930310525449,-1.61613319371,1077.43015362,0.00175590716882,1455.98278339,483.048593805,-1271.50040925,87.0404535611,-23661.1622091,-3.31791325908,-0.527101635431,2.35828611403,0.522963939059,278.736148122
10.3,16580.5882868,-8433.17275846,2.08654718776E7,278.499118672,491.376694601,0.0146615666761,-25.4711486097,562.881090168,-0.0372176814691,9993.51881371,-27.0017067324,89.9492614357,32.22664636959708,91.0466856516,2.87670228701,-29.9955493122,0.0937308197277,0.929770522836,-1.6160572115,1077.43014041,0.00175590698555,1455.98259572,483.048581959,-1271.75435859,87.0169880521,-23655.7153337,-3.31937301887,0.601998809121,2.60375432427,0.522963928624,278.73610107
10.4,16608.3579062,-8383.98968591,2.08654718794E7,276.892834903,492.28384992,0.0221066797991,-25.3396259271,562.887017778,-0.044549391575,9993.52290795,-26.8283453673,89.9492545061,32.22664635697261,91.0338024152,2.87656850807,-29.9955491227,0.0937139122513,0.929257342566,-1.61597579595,1077.43012414,0.00175590675989,1455.98236464,483.048567372,-1272.00236824,87.0235982714,-23650.4306389,-3.32651880883,1.84435344859,2.48881270624,0.522963929061,278.736057298
10.5,16635.9667673,-8334.71616991,2.0865471882E7,275.283954942,493.185563323,0.0288518155867,-25.2082940639,562.892915097,-0.0511812455083,9993.52770014,-26.655005792,89.9492476124,32.22664634223063,91.0209282391,2.87639581789,-29.9955485902,0.0936969178667,0.928787669469,-1.61591660632,1077.4301051,0.00175590649576,1455.98209416,483.048550299,-1272.2439194,87.0512098107,-23645.3204805,-3.33558202313,3.17191937236,2.13865196926,0.522963939263,278.736016392
10.6,16663.414611,-8285.35275473,2.08654718852E7,273.672486795,494.08183376,0.0349224611662,-25.0771420531,562.898781824,-0.0571387210398,9993.53312156,-26.4816878876,89.9492407545,32.22664632557115,91.0080581259,2.87618700131,-29.9955478412,0.0936800969817,0.928372891089,-1.61589338889,1077.43008356,0.00175590619695,1455.98178817,483.048530984,-1272.47758999,87.0862624589,-23640.4043322,-3.34306090708,4.50759445279,1.72272303981,0.52296395822,278.73597802
10.7,16690.7011786,-8235.89998463,2.08654718889E7,272.058435524,494.972661881,0.0403457352661,-24.9461555468,562.904617967,-0.0624489245171,9993.53910613,-26.3083915356,89.9492339324,32.226646307094214,90.9951861726,2.87594517743,-29.9955470387,0.0936635483185,0.928016296173,-1.61590502028,1077.43005978,0.0017559058671,1455.98145039,483.048509662,-1272.70168019,87.1161487284,-23635.7016906,-3.34681821147,5.76183130926,1.3896852632,0.522963985088,278.735941996
10.8,16717.8262121,-8186.35840376,2.08654718932E7,270.441803788,495.858049684,0.0451502139073,-24.8153174672,562.910423813,-0.0671404171657,9993.54559053,-26.1351166174,89.949227146,32.22664628709981,90.9823071197,2.87567375592,-29.9955463214,0.0936472398654,0.927713548206,-1.61593953614,1077.43003402,0.0017559055097,1455.98108441,483.04848656,-1272.91481748,87.1330049704,-23631.2262663,-3.34640452115,6.86668472534,1.22506037094,0.522964019189,278.735908282
10.9,16744.7894535,-8136.72855601,2.08654718979E7,268.822592972,496.737999802,0.0493653988481,-24.684609332,562.916199818,-0.0712426846832,9993.55251436,-25.961863015,89.9492203952,32.226646265787956,90.9694173356,2.87537626976,-29.9955457661,0.0936310711948,0.927455458975,-1.61598062747,1077.43000651,0.00175590512808,1455.98069362,483.048461892,-1273.11628592,87.1350513073,-23626.9833523,-3.34279723893,7.79180245245,1.23950902044,0.522964059971,278.735876943
11.0,16771.5906449,-8087.01098504,2.08654719031E7,267.200804401,497.61251474,0.0530210485273,-24.5540126871,562.921946474,-0.0747854694749,9993.55982018,-25.7886306101,89.9492136801,32.226646243258664,90.9565150631,2.87505616766,-29.9955453788,0.0936149420419,0.927231624265,-1.61601392026,1077.42997748,0.0017559047254,1455.98028127,483.048435863,-1273.30609878,87.1256576622,-23622.9701592,-3.33772507847,8.54623496221,1.38391169186,0.522964106943,278.735848073
11.1,16798.2295287,-8037.20623425,2.08654719085E7,265.576440269,498.481596316,0.0561465839255,-24.423510182,562.927664202,-0.0777981774343,9993.56745352,-25.6154192846,89.9492070006,32.226646219711945,90.9436000308,2.87471664129,-29.9955451111,0.0935988012419,0.927033550016,-1.61603108642,1077.42994715,0.00175590430468,1455.97985044,483.048408668,-1273.48482845,87.1109958737,-23619.1784207,-3.33295817703,9.1669668727,1.57981730625,0.52296415961,278.735821735
11.2,16824.7058474,-7987.31484694,2.08654719143E7,263.949504054,499.345245409,0.0587707089221,-24.2930860519,562.93335329,-0.0803094987948,9993.57536283,-25.4422289204,89.9492003566,32.22664619534778,90.930672711,2.87436053499,-29.9955448892,0.093582667998,0.92685640587,-1.61603100874,1077.42991572,0.00175590386874,1455.97940403,483.048380489,-1273.65329604,87.0973767105,-23615.5979634,-3.32969993477,9.70024187218,1.75174033729,0.522964217443,278.735797923
11.3,16851.0193441,-7937.33736634,2.08654719203E7,262.320000441,500.203462027,0.060921287271,-24.1627260129,562.939013889,-0.0823472848812,9993.58349936,-25.2690593995,89.9491937482,32.2266461703662,90.9177335477,2.87399034604,-29.9955446442,0.093566620841,0.926699150499,-1.61601835518,1077.42988339,0.00175590342028,1455.97894479,483.048351501,-1273.81230074,87.0892003726,-23612.2196188,-3.32837372666,10.1871781869,1.85053414299,0.522964279868,278.735776551
11.4,16877.1697622,-7887.27433573,2.08654719265E7,260.687934901,501.056245573,0.0626254192763,-24.0324167688,562.944646062,-0.0839386245254,9993.59181711,-25.0959106041,89.9491871754,32.22664614466721,90.9047824095,2.87360829237,-29.9955443333,0.0935507743098,0.926563449021,-1.61600065782,1077.42985034,0.00175590296183,1455.97847533,483.048321867,-1273.96238597,87.0880232607,-23609.0371535,-3.32867126344,10.6509116519,1.8625807305,0.522964346284,278.735757474
11.5,16903.156846,-7837.12629845,2.08654719328E7,259.053313168,501.903595165,0.0639096254594,-23.9021453928,562.950249837,-0.0851100270424,9993.60027277,-24.9227824164,89.9491806381,32.226646118650784,90.8918183852,2.87321641097,-29.9955439474,0.0935352426376,0.926451973064,-1.61598519853,1077.42981675,0.00175590249578,1455.97799809,483.048291741,-1274.10379531,87.092763571,-23606.0473901,-3.32984123426,11.096036371,1.80536340489,0.522964416092,278.735740523
11.6,16928.98034,-7786.89379795,2.08654719392E7,257.416140808,502.745509906,0.0648000259461,-23.7718988284,562.955825264,-0.0858876012628,9993.60882567,-24.7496747189,89.9491741364,32.22664609231693,90.878839904,2.87281664786,-29.995543506,0.0935201143916,0.926366820078,-1.61597674373,1077.42978276,0.00175590202438,1455.97751535,483.048261269,-1274.23651905,87.1006986328,-23603.249293,-3.3309961903,11.5122518973,1.71420005828,0.522964488723,278.735725531
11.7,16954.6399895,-7736.57737775,2.08654719457E7,255.776423017,503.581989007,0.065322440032,-23.641663649,562.961372447,-0.0862971547989,9993.61743771,-24.576587394,89.9491676702,32.22664606576566,90.8658450598,2.87241091305,-29.995543044,0.0935054426305,0.926308512522,-1.61597664223,1077.42974855,0.00175590154971,1455.97702928,483.048230587,-1274.36042129,87.108740289,-23600.6424319,-3.33153443076,11.8822169863,1.62655706664,0.522964563665,278.735712363
11.8,16980.1355401,-7686.17758145,2.08654719523E7,254.134164659,504.413031769,0.0655023774211,-23.5114261011,562.966891551,-0.0863641854501,9993.62607336,-24.4035203242,89.9491612394,32.226646039196936,90.8528319863,2.87200109403,-29.9955425971,0.0934912423235,0.926275750915,-1.61598323724,1077.42971423,0.00175590107374,1455.97654188,483.04819982,-1274.47538184,87.1145116225,-23598.2255109,-3.33111766758,12.189731119,1.56955081358,0.522964640462,278.735700917
11.9,17005.466738,-7635.69495272,2.08654719588E7,252.489370487,505.238637464,0.0653649325439,-23.3811723549,562.972382782,-0.0861137755932,9993.63469963,-24.230473392,89.9491548443,32.22664601261077,90.8397991499,2.8715890316,-29.9955421905,0.0934775041173,0.926265814671,-1.61599313685,1077.42967996,0.00175590059829,1455.976055,483.048169087,-1274.58141262,87.1169312058,-23595.9953706,-3.3298690236,12.4262405025,1.55384130286,0.522964718715,278.735691125
12.0,17030.63333,-7585.13003532,2.08654719653E7,250.842045434,506.058805166,0.0649346257018,-23.250888841,562.977846362,-0.0855704337435,9993.64328603,-24.0574464801,89.9491484846,32.22664598620715,90.8267454866,2.8711764789,-29.9955418335,0.0934642087939,0.92627533878,-1.61600272486,1077.42964584,0.00175590012503,1455.97557038,483.048138496,-1274.6786872,87.1162387489,-23593.9468525,-3.32806025628,12.5916774144,1.57428998141,0.522964798064,278.735682932
12.1,17055.6350631,-7534.48337309,2.08654719718E7,249.192194884,506.873533612,0.0642352418495,-23.1205625511,562.983282499,-0.0847579335402,9993.65180443,-23.884439471,89.9491421605,32.22664595998606,90.8136703769,2.87076505944,-29.9955415207,0.0934513428411,0.926301118468,-1.61600937029,1077.429612,0.00175589965553,1455.97508959,483.048108147,-1274.76754087,87.1135931318,-23592.0731176,-3.32617020141,12.6943823347,1.61550054518,0.522964878175,278.735676286
12.2,17080.4716851,-7483.75551005,2.08654719782E7,247.539824835,507.682821113,0.0632897119168,-22.9901812196,562.988691369,-0.0836991952516,9993.66022909,-23.7114522472,89.949135872,32.226645933947495,90.8005735063,2.8703562414,-29.9955412373,0.0934389038193,0.926340660191,-1.61601202361,1077.42957852,0.00175589919119,1455.9746141,483.048078132,-1274.84839705,87.1104755486,-23590.366484,-3.32452252109,12.7463535287,1.65926756284,0.522964958727,278.735671123
12.3,17105.1429445,-7432.9469904,2.08654719844E7,245.884941937,508.486665548,0.0621200499292,-22.8597333662,562.994073106,-0.0824162229641,9993.66853648,-23.5384846913,89.949129619,32.226645908391426,90.787454684,2.86995133008,-29.9955409667,0.0934269039224,0.926392395966,-1.61601116069,1077.42954551,0.00175589873331,1455.97414522,483.048048535,-1274.92170489,87.1081375172,-23588.8191717,-3.32328445314,12.7599174598,1.69108298498,0.522965039408,278.735667364
12.4,17129.6485902,-7382.05835855,2.08654719906E7,244.227553436,509.285064402,0.0607473486998,-22.7292082214,562.999427812,-0.0809301001159,9993.67670524,-23.3655366857,89.9491234016,32.226645883217856,90.7743136869,2.86955148029,-29.9955406959,0.0934153640849,0.926455549367,-1.61600825356,1077.42951306,0.00175589828307,1455.97368417,483.048019432,-1274.98788047,87.1072585705,-23587.4238768,-3.322498822,12.7446393705,1.70385456845,0.522965119913,278.735664916
12.5,17153.988372,-7331.09015922,2.08654719966E7,242.56766706,510.07801484,0.0591918117013,-22.5985955937,563.004755567,-0.0792610213655,9993.68471608,-23.1926081129,89.9491172198,32.22664585852675,90.7611501721,2.8691577197,-29.9955404188,0.0934043082239,0.926529810807,-1.61600505377,1077.42948123,0.00175589784154,1455.97323203,483.047990891,-1275.04727283,87.1078708952,-23586.1740305,-3.32201549038,12.7057001336,1.69833822226,0.522965199952,278.735663677
12.6,17178.1620407,-7280.04293739,2.08654720024E7,240.905290907,510.865513781,0.0574727994305,-22.4678857364,563.010056438,-0.0774283387652,9993.69255168,-23.0196988555,89.9491110737,32.2266458344181,90.7479636675,2.86877097482,-29.9955401371,0.0933937549713,0.926614954497,-1.61600296352,1077.42945009,0.00175589740967,1455.97278978,483.047962975,-1275.10016153,87.1095096359,-23585.0637297,-3.321651071,12.6440815039,1.68095660209,0.522965279254,278.735663547
12.7,17202.1693477,-7228.91723837,2.08654720081E7,239.240433367,511.647557944,0.0556088689122,-22.3370692579,563.015330496,-0.0754506011971,9993.7001966,-22.8468087958,89.9491049632,32.22664581089188,90.7347536249,2.86839209166,-29.995539857,0.0933837156848,0.926710530178,-1.6160026738,1077.42941972,0.00175589698831,1455.9723583,483.047935738,-1275.14678223,87.111484594,-23584.08743,-3.32120932403,12.5583749057,1.66034723481,0.522965357575,278.735664432
12.8,17226.0100451,-7177.71360782,2.08654720135E7,237.573103109,512.42414387,0.0536177927538,-22.2061370962,563.020577814,-0.0733455734253,9993.70763726,-22.6739378163,89.9490988884,32.22664578794807,90.7215195007,2.86802184626,-29.9955395869,0.0933741901118,0.92681570597,-1.61600411897,1077.42939015,0.0017558965782,1455.97193834,483.047909229,-1275.18735166,87.1131570296,-23583.2396276,-3.32060898956,12.4461684637,1.64405519507,0.522965434698,278.735666245
